{"type":"FeatureCollection","features":[{"type":"Feature","id":"osm-node-7369955685","properties":{"id":"osm-node-7369955685","name":"بادریکێ","kind":"village","tier":"locality","priority":338.113,"context":"ئاکرێ · نەینەوا","category":"گوند"},"geometry":{"type":"Point","coordinates":[43.7022084,36.7294975]}},{"type":"Feature","id":"osm-node-5234933022","properties":{"id":"osm-node-5234933022","name":"پیرخولی نوێ","kind":"village","tier":"locality","priority":338.113,"context":"ئاکرێ · نەینەوا","category":"گوند"},"geometry":{"type":"Point","coordinates":[43.7397907,36.7189268]}},{"type":"Feature","id":"osm-node-7369915250","properties":{"id":"osm-node-7369915250","name":"تلبوک","kind":"village","tier":"locality","priority":333.338,"context":"ئاکرێ · نەینەوا","category":"گوند"},"geometry":{"type":"Point","coordinates":[43.7125318,36.7140366]}},{"type":"Feature","id":"geonames-445919","properties":{"id":"geonames-445919","name":"ئاراتو خازر","kind":"village","tier":"locality","priority":300,"context":"شێخان · نەینەوا","category":"گوند"},"geometry":{"type":"Point","coordinates":[43.54598,36.62444]}},{"type":"Feature","id":"osm-node-2488232262","properties":{"id":"osm-node-2488232262","name":"ئاشکان","kind":"village","tier":"locality","priority":300,"context":"شێخان · نەینەوا","category":"گوند"},"geometry":{"type":"Point","coordinates":[43.53877,36.672086]}},{"type":"Feature","id":"osm-node-2488233135","properties":{"id":"osm-node-2488233135","name":"ئومەر سێنا","kind":"village","tier":"locality","priority":300,"context":"ئاکرێ · نەینەوا","category":"گوند"},"geometry":{"type":"Point","coordinates":[43.6871991,36.6484129]}},{"type":"Feature","id":"osm-way-958877770","properties":{"id":"osm-way-958877770","name":"ئیسماوە","kind":"village","tier":"locality","priority":300,"context":"ئاکرێ · نەینەوا","category":"گوند"},"geometry":{"type":"Point","coordinates":[43.566342144542574,36.5602123]}},{"type":"Feature","id":"osm-node-2488233191","properties":{"id":"osm-node-2488233191","name":"ئێکمالە","kind":"village","tier":"locality","priority":300,"context":"ئاکرێ · نەینەوا","category":"گوند"},"geometry":{"type":"Point","coordinates":[43.7096497,36.6409849]}},{"type":"Feature","id":"osm-node-1418059640","properties":{"id":"osm-node-1418059640","name":"ئەڵلاهێ","kind":"village","tier":"locality","priority":300,"context":"ئاکرێ · نەینەوا","category":"گوند"},"geometry":{"type":"Point","coordinates":[43.715731,36.6255316]}},{"type":"Feature","id":"osm-node-12139266507","properties":{"id":"osm-node-12139266507","name":"باجلە سەرکەڤروک","kind":"village","tier":"locality","priority":300,"context":"شێخان · نەینەوا","category":"گوند"},"geometry":{"type":"Point","coordinates":[43.5568052,36.6933866]}},{"type":"Feature","id":"osm-node-12139288204","properties":{"id":"osm-node-12139288204","name":"باجلە کەڤن","kind":"village","tier":"locality","priority":300,"context":"شێخان · نەینەوا","category":"گوند"},"geometry":{"type":"Point","coordinates":[43.5498782,36.6931054]}},{"type":"Feature","id":"osm-node-1438217036","properties":{"id":"osm-node-1438217036","name":"بامەرزێ","kind":"village","tier":"locality","priority":300,"context":"ئاکرێ · نەینەوا","category":"گوند"},"geometry":{"type":"Point","coordinates":[43.5658886,36.6172514]}},{"type":"Feature","id":"osm-node-2488235879","properties":{"id":"osm-node-2488235879","name":"بانورە","kind":"village","tier":"locality","priority":300,"context":"ئاکرێ · نەینەوا","category":"گوند"},"geometry":{"type":"Point","coordinates":[43.6506838,36.7497402]}},{"type":"Feature","id":"osm-node-7634327074","properties":{"id":"osm-node-7634327074","name":"بیباڤا","kind":"village","tier":"locality","priority":300,"context":"شێخان · نەینەوا","category":"گوند"},"geometry":{"type":"Point","coordinates":[43.6325267,36.7416269]}},{"type":"Feature","id":"osm-node-12139257338","properties":{"id":"osm-node-12139257338","name":"تلبزینە مزوری","kind":"village","tier":"locality","priority":300,"context":"شێخان · نەینەوا","category":"گوند"},"geometry":{"type":"Point","coordinates":[43.5994454,36.746353]}},{"type":"Feature","id":"osm-node-2488236154","properties":{"id":"osm-node-2488236154","name":"تلبزینە هەرکی","kind":"village","tier":"locality","priority":300,"context":"شێخان · نەینەوا","category":"گوند"},"geometry":{"type":"Point","coordinates":[43.595322,36.746451]}},{"type":"Feature","id":"osm-node-2488232497","properties":{"id":"osm-node-2488232497","name":"جوجەر گچکە","kind":"village","tier":"locality","priority":300,"context":"ئاکرێ · نەینەوا","category":"گوند"},"geometry":{"type":"Point","coordinates":[43.6952493,36.5975252]}},{"type":"Feature","id":"osm-node-2488232504","properties":{"id":"osm-node-2488232504","name":"جوجەر گەورە","kind":"village","tier":"locality","priority":300,"context":"ئاکرێ · نەینەوا","category":"گوند"},"geometry":{"type":"Point","coordinates":[43.6846831,36.6045947]}},{"type":"Feature","id":"osm-node-7572421275","properties":{"id":"osm-node-7572421275","name":"جەلیدوک","kind":"village","tier":"locality","priority":300,"context":"ئاکرێ · نەینەوا","category":"گوند"},"geometry":{"type":"Point","coordinates":[43.6399489,36.6702741]}},{"type":"Feature","id":"osm-node-6491335985","properties":{"id":"osm-node-6491335985","name":"خراب سەعدون","kind":"village","tier":"locality","priority":300,"context":"ئاکرێ · نەینەوا","category":"گوند"},"geometry":{"type":"Point","coordinates":[43.6105281,36.6721439]}},{"type":"Feature","id":"osm-node-6533780530","properties":{"id":"osm-node-6533780530","name":"خرابەواش","kind":"village","tier":"locality","priority":300,"context":"ئاکرێ · نەینەوا","category":"گوند"},"geometry":{"type":"Point","coordinates":[43.6624467,36.5876039]}},{"type":"Feature","id":"osm-node-2488232585","properties":{"id":"osm-node-2488232585","name":"خەمیس کوچک","kind":"village","tier":"locality","priority":300,"context":"ئاکرێ · نەینەوا","category":"گوند"},"geometry":{"type":"Point","coordinates":[43.5954858,36.6201168]}},{"type":"Feature","id":"osm-node-12139366661","properties":{"id":"osm-node-12139366661","name":"دارەتوو خازەر","kind":"village","tier":"locality","priority":300,"context":"شێخان · نەینەوا","category":"گوند"},"geometry":{"type":"Point","coordinates":[43.5463003,36.624429]}},{"type":"Feature","id":"osm-node-2488232346","properties":{"id":"osm-node-2488232346","name":"دربێسان مەزن","kind":"village","tier":"locality","priority":300,"context":"ئاکرێ · نەینەوا","category":"گوند"},"geometry":{"type":"Point","coordinates":[43.7496036,36.5754023]}},{"type":"Feature","id":"osm-node-2488232349","properties":{"id":"osm-node-2488232349","name":"دربێسان گچکە","kind":"village","tier":"locality","priority":300,"context":"ئاکرێ · نەینەوا","category":"گوند"},"geometry":{"type":"Point","coordinates":[43.7415086,36.5628032]}},{"type":"Feature","id":"osm-node-2488246797","properties":{"id":"osm-node-2488246797","name":"درین","kind":"village","tier":"locality","priority":300,"context":"شێخان · نەینەوا","category":"گوند"},"geometry":{"type":"Point","coordinates":[43.5273758,36.6888089]}},{"type":"Feature","id":"osm-node-12866221229","properties":{"id":"osm-node-12866221229","name":"دولیجان مەزن","kind":"village","tier":"locality","priority":300,"context":"ئاکرێ · نەینەوا","category":"گوند"},"geometry":{"type":"Point","coordinates":[43.5645433,36.5805016]}},{"type":"Feature","id":"osm-node-12866199176","properties":{"id":"osm-node-12866199176","name":"دولیجان گچکە","kind":"village","tier":"locality","priority":300,"context":"ئاکرێ · نەینەوا","category":"گوند"},"geometry":{"type":"Point","coordinates":[43.5828448,36.6057061]}},{"type":"Feature","id":"osm-node-6533780531","properties":{"id":"osm-node-6533780531","name":"دۆستەک","kind":"village","tier":"locality","priority":300,"context":"ئاکرێ · نەینەوا","category":"گوند"},"geometry":{"type":"Point","coordinates":[43.6706818,36.5819482]}},{"type":"Feature","id":"osm-node-5383806498","properties":{"id":"osm-node-5383806498","name":"زیناڤا نوێ","kind":"village","tier":"locality","priority":300,"context":"شێخان · نەینەوا","category":"گوند"},"geometry":{"type":"Point","coordinates":[43.5013061,36.6021974]}},{"type":"Feature","id":"osm-node-2488233306","properties":{"id":"osm-node-2488233306","name":"زێلکە عتکۆ","kind":"village","tier":"locality","priority":300,"context":"ئاکرێ · نەینەوا","category":"گوند"},"geometry":{"type":"Point","coordinates":[43.7450718,36.6037074]}},{"type":"Feature","id":"osm-node-5383806242","properties":{"id":"osm-node-5383806242","name":"سالەیێ","kind":"village","tier":"locality","priority":300,"context":"ئاکرێ · نەینەوا","category":"گوند"},"geometry":{"type":"Point","coordinates":[43.6839655,36.6942113]}},{"type":"Feature","id":"osm-node-2488232959","properties":{"id":"osm-node-2488232959","name":"سێگرک","kind":"village","tier":"locality","priority":300,"context":"ئاکرێ · نەینەوا","category":"گوند"},"geometry":{"type":"Point","coordinates":[43.668105,36.6293103]}},{"type":"Feature","id":"osm-node-2488233024","properties":{"id":"osm-node-2488233024","name":"شیوەرە","kind":"village","tier":"locality","priority":300,"context":"ئاکرێ · نەینەوا","category":"گوند"},"geometry":{"type":"Point","coordinates":[43.56372,36.501169]}},{"type":"Feature","id":"osm-node-7572555832","properties":{"id":"osm-node-7572555832","name":"شێخانۆک","kind":"village","tier":"locality","priority":300,"context":"ئاکرێ · نەینەوا","category":"گوند"},"geometry":{"type":"Point","coordinates":[43.727234,36.6646087]}},{"type":"Feature","id":"osm-node-8039086885","properties":{"id":"osm-node-8039086885","name":"شێخانۆکی نوێ","kind":"village","tier":"locality","priority":300,"context":"ئاکرێ · نەینەوا","category":"گوند"},"geometry":{"type":"Point","coordinates":[43.7425164,36.6593169]}},{"type":"Feature","id":"osm-node-5688396284","properties":{"id":"osm-node-5688396284","name":"عەلی شانە","kind":"village","tier":"locality","priority":300,"context":"ئاکرێ · نەینەوا","category":"گوند"},"geometry":{"type":"Point","coordinates":[43.6933403,36.6370394]}},{"type":"Feature","id":"osm-node-2488232920","properties":{"id":"osm-node-2488232920","name":"قەرەناز","kind":"village","tier":"locality","priority":300,"context":"ئاکرێ · نەینەوا","category":"گوند"},"geometry":{"type":"Point","coordinates":[43.6443774,36.5616444]}},{"type":"Feature","id":"osm-node-2488236031","properties":{"id":"osm-node-2488236031","name":"له کان","kind":"village","tier":"locality","priority":300,"context":"ئاکرێ · نەینەوا","category":"گوند"},"geometry":{"type":"Point","coordinates":[43.656727,36.732684]}},{"type":"Feature","id":"osm-node-5383806192","properties":{"id":"osm-node-5383806192","name":"مام داودان ژێری","kind":"village","tier":"locality","priority":300,"context":"ئاکرێ · نەینەوا","category":"گوند"},"geometry":{"type":"Point","coordinates":[43.6783015,36.7417527]}},{"type":"Feature","id":"osm-node-2488232705","properties":{"id":"osm-node-2488232705","name":"مەلا بروان","kind":"village","tier":"locality","priority":300,"context":"شێخان · نەینەوا","category":"گوند"},"geometry":{"type":"Point","coordinates":[43.5695327,36.6464179]}},{"type":"Feature","id":"osm-node-2488232748","properties":{"id":"osm-node-2488232748","name":"مەم و زین","kind":"village","tier":"locality","priority":300,"context":"ئاکرێ · نەینەوا","category":"گوند"},"geometry":{"type":"Point","coordinates":[43.6198589,36.54529]}},{"type":"Feature","id":"osm-node-2488232762","properties":{"id":"osm-node-2488232762","name":"نەزراوە","kind":"village","tier":"locality","priority":300,"context":"ئاکرێ · نەینەوا","category":"گوند"},"geometry":{"type":"Point","coordinates":[43.6199202,36.5582373]}},{"type":"Feature","id":"osm-node-2488232490","properties":{"id":"osm-node-2488232490","name":"هزارجووت","kind":"village","tier":"locality","priority":300,"context":"شێخان · نەینەوا","category":"گوند"},"geometry":{"type":"Point","coordinates":[43.6003429,36.6617745]}},{"type":"Feature","id":"osm-node-2488236132","properties":{"id":"osm-node-2488236132","name":"هەرکی","kind":"village","tier":"locality","priority":300,"context":"ئاکرێ · نەینەوا","category":"گوند"},"geometry":{"type":"Point","coordinates":[43.6857608,36.7494492]}},{"type":"Feature","id":"osm-node-9520491486","properties":{"id":"osm-node-9520491486","name":"پیران","kind":"village","tier":"locality","priority":300,"context":"شێخان · نەینەوا","category":"گوند"},"geometry":{"type":"Point","coordinates":[43.5055759,36.5106682]}},{"type":"Feature","id":"osm-node-11777849381","properties":{"id":"osm-node-11777849381","name":"پیربووب","kind":"village","tier":"locality","priority":300,"context":"ئاکرێ · نەینەوا","category":"گوند"},"geometry":{"type":"Point","coordinates":[43.6144315,36.6161194]}},{"type":"Feature","id":"osm-node-2488232327","properties":{"id":"osm-node-2488232327","name":"پیرچاوش","kind":"village","tier":"locality","priority":300,"context":"ئاکرێ · نەینەوا","category":"گوند"},"geometry":{"type":"Point","coordinates":[43.6455273,36.6063601]}},{"type":"Feature","id":"geonames-94868","properties":{"id":"geonames-94868","name":"کانی شایان","kind":"village","tier":"locality","priority":300,"context":"ئاکرێ · نەینەوا","category":"گوند"},"geometry":{"type":"Point","coordinates":[43.60116,36.57323]}},{"type":"Feature","id":"osm-node-2488232565","properties":{"id":"osm-node-2488232565","name":"کانی هەسپان مەزن","kind":"village","tier":"locality","priority":300,"context":"ئاکرێ · نەینەوا","category":"گوند"},"geometry":{"type":"Point","coordinates":[43.6009443,36.5735536]}},{"type":"Feature","id":"osm-node-12866255322","properties":{"id":"osm-node-12866255322","name":"کانی هەسپان گچکە","kind":"village","tier":"locality","priority":300,"context":"ئاکرێ · نەینەوا","category":"گوند"},"geometry":{"type":"Point","coordinates":[43.616155,36.5922923]}},{"type":"Feature","id":"osm-node-9520473960","properties":{"id":"osm-node-9520473960","name":"کفرێ","kind":"village","tier":"locality","priority":300,"context":"شێخان · نەینەوا","category":"گوند"},"geometry":{"type":"Point","coordinates":[43.611944,36.7193328]}},{"type":"Feature","id":"osm-node-5933154288","properties":{"id":"osm-node-5933154288","name":"کوشک","kind":"village","tier":"locality","priority":300,"context":"ئاکرێ · نەینەوا","category":"گوند"},"geometry":{"type":"Point","coordinates":[43.6714308,36.7194712]}},{"type":"Feature","id":"osm-node-5383806249","properties":{"id":"osm-node-5383806249","name":"کێلێ","kind":"village","tier":"locality","priority":300,"context":"ئاکرێ · نەینەوا","category":"گوند"},"geometry":{"type":"Point","coordinates":[43.7039899,36.6811703]}},{"type":"Feature","id":"osm-node-2488232548","properties":{"id":"osm-node-2488232548","name":"کێلە سپی","kind":"village","tier":"locality","priority":300,"context":"ئاکرێ · نەینەوا","category":"گوند"},"geometry":{"type":"Point","coordinates":[43.7383756,36.6318911]}},{"type":"Feature","id":"geonames-95026","properties":{"id":"geonames-95026","name":"کەلکەچی","kind":"village","tier":"locality","priority":300,"context":"شێخان · نەینەوا","category":"گوند"},"geometry":{"type":"Point","coordinates":[43.5261,36.58228]}},{"type":"Feature","id":"osm-node-5383806393","properties":{"id":"osm-node-5383806393","name":"کەندالە سور","kind":"village","tier":"locality","priority":300,"context":"ئاکرێ · نەینەوا","category":"گوند"},"geometry":{"type":"Point","coordinates":[43.6047983,36.6331866]}},{"type":"Feature","id":"geonames-96512","properties":{"id":"geonames-96512","name":"گر بەدو","kind":"village","tier":"locality","priority":300,"context":"ئاکرێ · نەینەوا","category":"گوند"},"geometry":{"type":"Point","coordinates":[43.70569,36.5315]}},{"type":"Feature","id":"osm-node-2488236142","properties":{"id":"osm-node-2488236142","name":"گر زنگل","kind":"village","tier":"locality","priority":300,"context":"شێخان · نەینەوا","category":"گوند"},"geometry":{"type":"Point","coordinates":[43.5453169,36.7244123]}},{"type":"Feature","id":"osm-node-2488232426","properties":{"id":"osm-node-2488232426","name":"گربدەو کەون","kind":"village","tier":"locality","priority":300,"context":"ئاکرێ · نەینەوا","category":"گوند"},"geometry":{"type":"Point","coordinates":[43.7054331,36.5306284]}},{"type":"Feature","id":"osm-node-5074449422","properties":{"id":"osm-node-5074449422","name":"گربدەوی نوێ","kind":"village","tier":"locality","priority":300,"context":"ئاکرێ · نەینەوا","category":"گوند"},"geometry":{"type":"Point","coordinates":[43.6986766,36.5292702]}},{"type":"Feature","id":"osm-node-5383806399","properties":{"id":"osm-node-5383806399","name":"گربەوێل مەزن","kind":"village","tier":"locality","priority":300,"context":"ئاکرێ · نەینەوا","category":"گوند"},"geometry":{"type":"Point","coordinates":[43.624446,36.6307088]}},{"type":"Feature","id":"osm-node-7578828199","properties":{"id":"osm-node-7578828199","name":"گربەوێل گچکە","kind":"village","tier":"locality","priority":300,"context":"ئاکرێ · نەینەوا","category":"گوند"},"geometry":{"type":"Point","coordinates":[43.622648,36.6259741]}},{"type":"Feature","id":"osm-node-12136128423","properties":{"id":"osm-node-12136128423","name":"گردکاڵ","kind":"village","tier":"locality","priority":300,"context":"شێخان · نەینەوا","category":"گوند"},"geometry":{"type":"Point","coordinates":[43.5019034,36.5312394]}},{"type":"Feature","id":"osm-node-5627231321","properties":{"id":"osm-node-5627231321","name":"گردی ئامیان","kind":"village","tier":"locality","priority":300,"context":"ئاکرێ · نەینەوا","category":"گوند"},"geometry":{"type":"Point","coordinates":[43.5975962,36.5346041]}},{"type":"Feature","id":"osm-node-2488232447","properties":{"id":"osm-node-2488232447","name":"گرک سوباش","kind":"village","tier":"locality","priority":300,"context":"شێخان · نەینەوا","category":"گوند"},"geometry":{"type":"Point","coordinates":[43.523528,36.597581]}},{"type":"Feature","id":"osm-node-2488236125","properties":{"id":"osm-node-2488236125","name":"گرگوران","kind":"village","tier":"locality","priority":300,"context":"ئاکرێ · نەینەوا","category":"گوند"},"geometry":{"type":"Point","coordinates":[43.6227918,36.7072704]}},{"type":"Feature","id":"osm-node-2488248103","properties":{"id":"osm-node-2488248103","name":"گرگۆران","kind":"village","tier":"locality","priority":300,"context":"ئاکرێ · نەینەوا","category":"گوند"},"geometry":{"type":"Point","coordinates":[43.6123847,36.6920867]}},{"type":"Feature","id":"osm-node-5383806448","properties":{"id":"osm-node-5383806448","name":"گرگە جوو","kind":"village","tier":"locality","priority":300,"context":"شێخان · نەینەوا","category":"گوند"},"geometry":{"type":"Point","coordinates":[43.5476885,36.594309]}},{"type":"Feature","id":"geonames-445918","properties":{"id":"geonames-445918","name":"گری","kind":"village","tier":"locality","priority":300,"context":"شێخان · نەینەوا","category":"گوند"},"geometry":{"type":"Point","coordinates":[43.5232,36.59562]}},{"type":"Feature","id":"osm-node-2488232605","properties":{"id":"osm-node-2488232605","name":"گریگا","kind":"village","tier":"locality","priority":300,"context":"ئاکرێ · نەینەوا","category":"گوند"},"geometry":{"type":"Point","coordinates":[43.5410693,36.5718402]}},{"type":"Feature","id":"geonames-8729924","properties":{"id":"geonames-8729924","name":"گرێگا","kind":"village","tier":"locality","priority":300,"context":"ئاکرێ · نەینەوا","category":"گوند"},"geometry":{"type":"Point","coordinates":[43.54176,36.57263]}},{"type":"Feature","id":"osm-node-2488232406","properties":{"id":"osm-node-2488232406","name":"گێنە","kind":"village","tier":"locality","priority":300,"context":"ئاکرێ · نەینەوا","category":"گوند"},"geometry":{"type":"Point","coordinates":[43.6267009,36.6537246]}},{"type":"Feature","id":"osm-node-12141417430","properties":{"id":"osm-node-12141417430","name":"گەرمک مەزن","kind":"village","tier":"locality","priority":300,"context":"شێخان · نەینەوا","category":"گوند"},"geometry":{"type":"Point","coordinates":[43.5056053,36.5420683]}},{"type":"Feature","id":"osm-node-9520485178","properties":{"id":"osm-node-9520485178","name":"گەرمک گچکە","kind":"village","tier":"locality","priority":300,"context":"شێخان · نەینەوا","category":"گوند"},"geometry":{"type":"Point","coordinates":[43.5282083,36.554996]}},{"type":"Feature","id":"osm-node-4812261428","properties":{"id":"osm-node-4812261428","name":"گەرمیشان","kind":"village","tier":"locality","priority":300,"context":"شێخان · نەینەوا","category":"گوند"},"geometry":{"type":"Point","coordinates":[43.5158391,36.6963906]}},{"type":"Feature","id":"osm-node-9520419884","properties":{"id":"osm-node-9520419884","name":"یەکماڵەی نوێ","kind":"village","tier":"locality","priority":300,"context":"ئاکرێ · نەینەوا","category":"گوند"},"geometry":{"type":"Point","coordinates":[43.7252616,36.6523585]}},{"type":"Feature","id":"osm-natural-stream-557c9830b32dcf","properties":{"id":"osm-natural-stream-557c9830b32dcf","name":"Chra","kind":"natural","tier":"natural","priority":180,"context":"جۆگە · شێخان · نەینەوا","category":"جۆگە"},"geometry":{"type":"Point","coordinates":[43.5213397,36.6967111]}},{"type":"Feature","id":"osm-natural-stream-5a07ebe69da526","properties":{"id":"osm-natural-stream-5a07ebe69da526","name":"Nahr Kunapak","kind":"natural","tier":"natural","priority":180,"context":"جۆگە · ئاکرێ · نەینەوا","category":"جۆگە"},"geometry":{"type":"Point","coordinates":[43.53389,36.52639]}},{"type":"Feature","id":"osm-natural-stream-fadfab9fb4c965","properties":{"id":"osm-natural-stream-fadfab9fb4c965","name":"Nahr Nardush","kind":"natural","tier":"natural","priority":180,"context":"جۆگە · شێخان · نەینەوا","category":"جۆگە"},"geometry":{"type":"Point","coordinates":[43.53333,36.56667]}},{"type":"Feature","id":"osm-natural-stream-32191ad0f7595b","properties":{"id":"osm-natural-stream-32191ad0f7595b","name":"Rovia Stream","kind":"natural","tier":"natural","priority":180,"context":"جۆگە · ئاکرێ · نەینەوا","category":"جۆگە"},"geometry":{"type":"Point","coordinates":[43.657097,36.6190671]}},{"type":"Feature","id":"osm-natural-valley-2c73bafcc71446","properties":{"id":"osm-natural-valley-2c73bafcc71446","name":"Wadi Kunah Pak","kind":"natural","tier":"natural","priority":180,"context":"دۆڵ · ئاکرێ · نەینەوا","category":"دۆڵ"},"geometry":{"type":"Point","coordinates":[43.57588,36.53796]}},{"type":"Feature","id":"osm-natural-stream-6b70ad5de4f279","properties":{"id":"osm-natural-stream-6b70ad5de4f279","name":"duhok-erbil_road_&_alind_market","kind":"natural","tier":"natural","priority":180,"context":"جۆگە · شێخان · نەینەوا","category":"جۆگە"},"geometry":{"type":"Point","coordinates":[43.536419,36.6650853]}},{"type":"Feature","id":"osm-natural-stream-c6b7a6d582483e","properties":{"id":"osm-natural-stream-c6b7a6d582483e","name":"روبارێ كوشك","kind":"natural","tier":"natural","priority":180,"context":"جۆگە · ئاکرێ · نەینەوا","category":"جۆگە"},"geometry":{"type":"Point","coordinates":[43.6707327,36.7246666]}},{"type":"Feature","id":"osm-natural-stream-de9ea795a761dd","properties":{"id":"osm-natural-stream-de9ea795a761dd","name":"روبارێ نیاووکێ","kind":"natural","tier":"natural","priority":180,"context":"جۆگە · ئاکرێ · نەینەوا","category":"جۆگە"},"geometry":{"type":"Point","coordinates":[43.6977267,36.7388337]}},{"type":"Feature","id":"osm-natural-stream-3e6a2a05251763","properties":{"id":"osm-natural-stream-3e6a2a05251763","name":"نهر الخازر","kind":"natural","tier":"natural","priority":180,"context":"جۆگە · ئاکرێ · نەینەوا","category":"جۆگە"},"geometry":{"type":"Point","coordinates":[43.54125,36.55183]}},{"type":"Feature","id":"osm-natural-stream-ae105167cd42e3","properties":{"id":"osm-natural-stream-ae105167cd42e3","name":"نهر كرمةسور","kind":"natural","tier":"natural","priority":180,"context":"جۆگە · ئاکرێ · نەینەوا","category":"جۆگە"},"geometry":{"type":"Point","coordinates":[43.51462,36.51471]}},{"type":"Feature","id":"osm-natural-valley-3e285f47f5e4e5","properties":{"id":"osm-natural-valley-3e285f47f5e4e5","name":"وادي نيدوش","kind":"natural","tier":"natural","priority":180,"context":"دۆڵ · شێخان · نەینەوا","category":"دۆڵ"},"geometry":{"type":"Point","coordinates":[43.52366,36.59401]}},{"type":"Feature","id":"osm-natural-river-bf77279e4bd509","properties":{"id":"osm-natural-river-bf77279e4bd509","name":"ڕووباری خازر","kind":"natural","tier":"natural","priority":180,"context":"ڕووبار · شێخان · نەینەوا","category":"ڕووبار"},"geometry":{"type":"Point","coordinates":[43.5577129,36.629651]}},{"type":"Feature","id":"road-label-osm-way-775202323","properties":{"id":"road-label-osm-way-775202323","name":"ڕێگای هەولێر - دهۆک","kind":"road","tier":"road","priority":100,"context":"motorway · ئاکرێ · نەینەوا","category":"ڕێگا"},"geometry":{"type":"Point","coordinates":[43.748709,36.568055]}},{"type":"Feature","id":"road-label-osm-way-776606381","properties":{"id":"road-label-osm-way-776606381","name":"ڕێگای هەولێر - دهۆک","kind":"road","tier":"road","priority":100,"context":"motorway · ئاکرێ · نەینەوا","category":"ڕێگا"},"geometry":{"type":"Point","coordinates":[43.747772,36.570358]}},{"type":"Feature","id":"road-label-osm-way-838624645","properties":{"id":"road-label-osm-way-838624645","name":"ڕێگای هەولێر - دهۆک","kind":"road","tier":"road","priority":100,"context":"motorway · ئاکرێ · نەینەوا","category":"ڕێگا"},"geometry":{"type":"Point","coordinates":[43.677645,36.629565]}},{"type":"Feature","id":"road-label-osm-way-692643748","properties":{"id":"road-label-osm-way-692643748","name":"Duhok - Erbil Road","kind":"road","tier":"road","priority":95,"context":"trunk · شێخان · نەینەوا","category":"ڕێگا"},"geometry":{"type":"Point","coordinates":[43.501387,36.636964]}},{"type":"Feature","id":"road-label-osm-way-807261163","properties":{"id":"road-label-osm-way-807261163","name":"Duhok-Erbil Road","kind":"road","tier":"road","priority":95,"context":"trunk · شێخان · نەینەوا","category":"ڕێگا"},"geometry":{"type":"Point","coordinates":[43.554368,36.643507]}},{"type":"Feature","id":"road-label-osm-way-692643750","properties":{"id":"road-label-osm-way-692643750","name":"Duhok-Erbil Road - Chrra","kind":"road","tier":"road","priority":95,"context":"trunk · شێخان · نەینەوا","category":"ڕێگا"},"geometry":{"type":"Point","coordinates":[43.530949,36.637769]}},{"type":"Feature","id":"road-label-osm-way-692643751","properties":{"id":"road-label-osm-way-692643751","name":"Duhok-Erbil Road - Chrra","kind":"road","tier":"road","priority":95,"context":"trunk · شێخان · نەینەوا","category":"ڕێگا"},"geometry":{"type":"Point","coordinates":[43.514648,36.637502]}},{"type":"Feature","id":"road-label-osm-way-348762998","properties":{"id":"road-label-osm-way-348762998","name":"duhok-erbil_road_&_alind_market","kind":"road","tier":"road","priority":95,"context":"trunk · شێخان · نەینەوا","category":"ڕێگا"},"geometry":{"type":"Point","coordinates":[43.501363,36.637169]}},{"type":"Feature","id":"road-label-osm-way-920058715","properties":{"id":"road-label-osm-way-920058715","name":"طريق عقرة - روفيا","kind":"road","tier":"road","priority":95,"context":"trunk · ئاکرێ · نەینەوا","category":"ڕێگا"},"geometry":{"type":"Point","coordinates":[43.699974,36.628239]}},{"type":"Feature","id":"road-label-osm-way-965139591","properties":{"id":"road-label-osm-way-965139591","name":"طریق اربیل - دهوک & ئەلند مارکیت","kind":"road","tier":"road","priority":95,"context":"trunk · شێخان · نەینەوا","category":"ڕێگا"},"geometry":{"type":"Point","coordinates":[43.52225,36.637643]}},{"type":"Feature","id":"road-label-osm-way-348761115","properties":{"id":"road-label-osm-way-348761115","name":"ڕێگای دهۆک - رۆڤیا","kind":"road","tier":"road","priority":95,"context":"trunk · ئاکرێ · نەینەوا","category":"ڕێگا"},"geometry":{"type":"Point","coordinates":[43.68548,36.627217]}},{"type":"Feature","id":"road-label-osm-way-558316178","properties":{"id":"road-label-osm-way-558316178","name":"ڕێگای دهۆک - هەولێر","kind":"road","tier":"road","priority":95,"context":"trunk · ئاکرێ · نەینەوا","category":"ڕێگا"},"geometry":{"type":"Point","coordinates":[43.635025,36.631412]}},{"type":"Feature","id":"road-label-osm-way-794576179","properties":{"id":"road-label-osm-way-794576179","name":"ڕێگای دهۆک - هەولێر","kind":"road","tier":"road","priority":95,"context":"trunk · ئاکرێ · نەینەوا","category":"ڕێگا"},"geometry":{"type":"Point","coordinates":[43.633595,36.631692]}},{"type":"Feature","id":"road-label-osm-way-1007518602","properties":{"id":"road-label-osm-way-1007518602","name":"ڕێگای دهۆک - هەولێر","kind":"road","tier":"road","priority":95,"context":"trunk · ئاکرێ · نەینەوا","category":"ڕێگا"},"geometry":{"type":"Point","coordinates":[43.581171,36.634917]}},{"type":"Feature","id":"road-label-osm-way-794576178","properties":{"id":"road-label-osm-way-794576178","name":"ڕێگای دهۆک - هەولێر","kind":"road","tier":"road","priority":95,"context":"trunk · ئاکرێ · نەینەوا","category":"ڕێگا"},"geometry":{"type":"Point","coordinates":[43.686933,36.626855]}},{"type":"Feature","id":"road-label-osm-way-707057134","properties":{"id":"road-label-osm-way-707057134","name":"192","kind":"road","tier":"road","priority":88,"context":"primary · ئاکرێ · نەینەوا","category":"ڕێگا"},"geometry":{"type":"Point","coordinates":[43.572501,36.580953]}},{"type":"Feature","id":"road-label-osm-way-475719322","properties":{"id":"road-label-osm-way-475719322","name":"Bardarash - Rovia Road","kind":"road","tier":"road","priority":88,"context":"primary · ئاکرێ · نەینەوا","category":"ڕێگا"},"geometry":{"type":"Point","coordinates":[43.696475,36.605009]}},{"type":"Feature","id":"road-label-osm-way-756145145","properties":{"id":"road-label-osm-way-756145145","name":"Duhok-Hawler road","kind":"road","tier":"road","priority":88,"context":"primary · ئاکرێ · نەینەوا","category":"ڕێگا"},"geometry":{"type":"Point","coordinates":[43.591534,36.527654]}},{"type":"Feature","id":"road-label-osm-way-475719323","properties":{"id":"road-label-osm-way-475719323","name":"طريق بردراش - روفيه","kind":"road","tier":"road","priority":88,"context":"primary · ئاکرێ · نەینەوا","category":"ڕێگا"},"geometry":{"type":"Point","coordinates":[43.628841,36.556654]}},{"type":"Feature","id":"road-label-osm-way-707057126","properties":{"id":"road-label-osm-way-707057126","name":"ڕێگای سهرهکی رۆڤیا - بهردهڕهش","kind":"road","tier":"road","priority":88,"context":"primary · ئاکرێ · نەینەوا","category":"ڕێگا"},"geometry":{"type":"Point","coordinates":[43.648661,36.568956]}},{"type":"Feature","id":"road-label-osm-way-194019557","properties":{"id":"road-label-osm-way-194019557","name":"ڕێگای سهرهکی رۆڤیا - بهردهڕهش","kind":"road","tier":"road","priority":88,"context":"primary · ئاکرێ · نەینەوا","category":"ڕێگا"},"geometry":{"type":"Point","coordinates":[43.700301,36.608233]}},{"type":"Feature","id":"road-label-osm-way-966622737","properties":{"id":"road-label-osm-way-966622737","name":"رێگای کهلهکچی","kind":"road","tier":"road","priority":72,"context":"secondary · شێخان · نەینەوا","category":"ڕێگا"},"geometry":{"type":"Point","coordinates":[43.512728,36.629288]}},{"type":"Feature","id":"road-label-osm-way-1142122463","properties":{"id":"road-label-osm-way-1142122463","name":"طريق الى كلكجي","kind":"road","tier":"road","priority":72,"context":"secondary · شێخان · نەینەوا","category":"ڕێگا"},"geometry":{"type":"Point","coordinates":[43.521429,36.610699]}},{"type":"Feature","id":"road-label-osm-way-1055947972","properties":{"id":"road-label-osm-way-1055947972","name":"نیاووکێ","kind":"road","tier":"road","priority":72,"context":"secondary · ئاکرێ · نەینەوا","category":"ڕێگا"},"geometry":{"type":"Point","coordinates":[43.698463,36.739088]}},{"type":"Feature","id":"road-label-osm-way-953204883","properties":{"id":"road-label-osm-way-953204883","name":"گردسێن بو نیاووکێ","kind":"road","tier":"road","priority":72,"context":"secondary · ئاکرێ · نەینەوا","category":"ڕێگا"},"geometry":{"type":"Point","coordinates":[43.745022,36.707244]}},{"type":"Feature","id":"road-label-osm-way-1056232697","properties":{"id":"road-label-osm-way-1056232697","name":"گردسێن بو نیاووکێ","kind":"road","tier":"road","priority":72,"context":"secondary · ئاکرێ · نەینەوا","category":"ڕێگا"},"geometry":{"type":"Point","coordinates":[43.708449,36.728581]}},{"type":"Feature","id":"road-label-osm-way-965139602","properties":{"id":"road-label-osm-way-965139602","name":"Chra","kind":"road","tier":"road","priority":55,"context":"tertiary · شێخان · نەینەوا","category":"ڕێگا"},"geometry":{"type":"Point","coordinates":[43.536514,36.628629]}},{"type":"Feature","id":"osm-way-309819268-airport","properties":{"id":"osm-way-309819268-airport","name":"بالەفڕگەها مریبا","kind":"poi","tier":"poi_landmark","priority":100.088,"context":"فڕۆکەخانە","category":"فڕۆکەخانە"},"geometry":{"type":"Point","coordinates":[43.5236665,36.7333931]}},{"type":"Feature","id":"osm-node-8733009717-hospital","properties":{"id":"osm-node-8733009717-hospital","name":"بنکەی تەندرووستی بەردەڕەش","kind":"poi","tier":"poi_landmark","priority":95.1,"context":"نەخۆشخانە","category":"نەخۆشخانە"},"geometry":{"type":"Point","coordinates":[43.5853679,36.503361]}},{"type":"Feature","id":"osm-node-6916167385-hospital","properties":{"id":"osm-node-6916167385-hospital","name":"تاقیگەها جودی","kind":"poi","tier":"poi_landmark","priority":95.1,"context":"نەخۆشخانە","category":"نەخۆشخانە"},"geometry":{"type":"Point","coordinates":[43.5241934,36.6362831]}},{"type":"Feature","id":"osm-node-5004429421-hospital","properties":{"id":"osm-node-5004429421-hospital","name":"نەخۆشخانەی چرە","kind":"poi","tier":"poi_landmark","priority":95.1,"context":"نەخۆشخانە","category":"نەخۆشخانە"},"geometry":{"type":"Point","coordinates":[43.5255495,36.6394924]}},{"type":"Feature","id":"osm-node-6370333385-bank","properties":{"id":"osm-node-6370333385-bank","name":"بانکا بەردەڕەش","kind":"poi","tier":"poi_landmark","priority":92.1,"context":"بانک","category":"بانک"},"geometry":{"type":"Point","coordinates":[43.5954657,36.5055715]}},{"type":"Feature","id":"osm-way-567155529-stadium","properties":{"id":"osm-way-567155529-stadium","name":"Chrra","kind":"poi","tier":"poi_regional","priority":76.092,"context":"یاریگا","category":"یاریگا"},"geometry":{"type":"Point","coordinates":[43.5262565,36.6413461]}},{"type":"Feature","id":"osm-node-11552605221-attraction","properties":{"id":"osm-node-11552605221-attraction","name":"Zenawa","kind":"poi","tier":"poi_detail","priority":50.1,"context":"شوێنی گەشتیاری","category":"شوێنی گەشتیاری"},"geometry":{"type":"Point","coordinates":[43.5161464,36.6019045]}},{"type":"Feature","id":"osm-node-5695820522-attraction","properties":{"id":"osm-node-5695820522-attraction","name":"مفرق قسروک - بردرش","kind":"poi","tier":"poi_detail","priority":50.1,"context":"شوێنی گەشتیاری","category":"شوێنی گەشتیاری"},"geometry":{"type":"Point","coordinates":[43.5915621,36.6327342]}},{"type":"Feature","id":"osm-node-8207659532-college","properties":{"id":"osm-node-8207659532-college","name":"پەیمانگای","kind":"poi","tier":"poi_detail","priority":50.1,"context":"کۆلێژ","category":"کۆلێژ"},"geometry":{"type":"Point","coordinates":[43.5888664,36.5178484]}},{"type":"Feature","id":"osm-node-8198793017-fuel","properties":{"id":"osm-node-8198793017-fuel","name":"Hiwa oil","kind":"poi","tier":"poi_regional","priority":82.094,"context":"وێستگەی سووتەمەنی","category":"وێستگەی سووتەمەنی"},"geometry":{"type":"Point","coordinates":[43.5824383,36.5021146]}},{"type":"Feature","id":"osm-node-8043878696-fuel","properties":{"id":"osm-node-8043878696-fuel","name":"Nazm Oil","kind":"poi","tier":"poi_regional","priority":82.094,"context":"وێستگەی سووتەمەنی","category":"وێستگەی سووتەمەنی"},"geometry":{"type":"Point","coordinates":[43.7311807,36.6516395]}},{"type":"Feature","id":"osm-node-10637305359-fuel","properties":{"id":"osm-node-10637305359-fuel","name":"panzinKhana","kind":"poi","tier":"poi_regional","priority":82.094,"context":"وێستگەی سووتەمەنی","category":"وێستگەی سووتەمەنی"},"geometry":{"type":"Point","coordinates":[43.5179021,36.6170227]}},{"type":"Feature","id":"osm-node-6621246086-fuel","properties":{"id":"osm-node-6621246086-fuel","name":"بەنزینخانەی حاخی سەعدوڵڵا","kind":"poi","tier":"poi_regional","priority":82.094,"context":"وێستگەی سووتەمەنی","category":"وێستگەی سووتەمەنی"},"geometry":{"type":"Point","coordinates":[43.5913098,36.5015441]}},{"type":"Feature","id":"osm-node-8743665719-fuel","properties":{"id":"osm-node-8743665719-fuel","name":"هیوا ئویل","kind":"poi","tier":"poi_regional","priority":82.094,"context":"وێستگەی سووتەمەنی","category":"وێستگەی سووتەمەنی"},"geometry":{"type":"Point","coordinates":[43.5819396,36.5025283]}},{"type":"Feature","id":"osm-node-4283469090-fuel","properties":{"id":"osm-node-4283469090-fuel","name":"وێستگەی سوتەمەنی روڤیا","kind":"poi","tier":"poi_regional","priority":82.094,"context":"وێستگەی سووتەمەنی","category":"وێستگەی سووتەمەنی"},"geometry":{"type":"Point","coordinates":[43.6980032,36.6276329]}},{"type":"Feature","id":"osm-node-3548002486-fuel","properties":{"id":"osm-node-3548002486-fuel","name":"وێستگەی سوتەمەنی میر","kind":"poi","tier":"poi_regional","priority":82.094,"context":"وێستگەی سووتەمەنی","category":"وێستگەی سووتەمەنی"},"geometry":{"type":"Point","coordinates":[43.5008702,36.6367497]}},{"type":"Feature","id":"osm-node-6564293587-fuel","properties":{"id":"osm-node-6564293587-fuel","name":"وێستگەی سووتەمەنی هەژار","kind":"poi","tier":"poi_regional","priority":82.094,"context":"وێستگەی سووتەمەنی","category":"وێستگەی سووتەمەنی"},"geometry":{"type":"Point","coordinates":[43.5665319,36.5086286]}},{"type":"Feature","id":"osm-node-5056755523-fuel","properties":{"id":"osm-node-5056755523-fuel","name":"پانزینخانا ئاشتی","kind":"poi","tier":"poi_regional","priority":82.094,"context":"وێستگەی سووتەمەنی","category":"وێستگەی سووتەمەنی"},"geometry":{"type":"Point","coordinates":[43.7052923,36.6164903]}},{"type":"Feature","id":"osm-node-3548002481-fuel","properties":{"id":"osm-node-3548002481-fuel","name":"کوردین","kind":"poi","tier":"poi_regional","priority":82.094,"context":"وێستگەی سووتەمەنی","category":"وێستگەی سووتەمەنی"},"geometry":{"type":"Point","coordinates":[43.5931506,36.5251804]}},{"type":"Feature","id":"osm-node-9520414692-police","properties":{"id":"osm-node-9520414692-police","name":"بنکەها پۆلیسا چرە","kind":"poi","tier":"poi_regional","priority":77.1,"context":"بنکەی پۆلیس","category":"بنکەی پۆلیس"},"geometry":{"type":"Point","coordinates":[43.5223358,36.6399255]}},{"type":"Feature","id":"osm-node-8154516517-police","properties":{"id":"osm-node-8154516517-police","name":"قەپان بەردەڕەش","kind":"poi","tier":"poi_regional","priority":77.1,"context":"بنکەی پۆلیس","category":"بنکەی پۆلیس"},"geometry":{"type":"Point","coordinates":[43.592267,36.5309933]}},{"type":"Feature","id":"osm-node-6859803585-police","properties":{"id":"osm-node-6859803585-police","name":"پۆلیس","kind":"poi","tier":"poi_regional","priority":77.1,"context":"بنکەی پۆلیس","category":"بنکەی پۆلیس"},"geometry":{"type":"Point","coordinates":[43.5195479,36.5808779]}},{"type":"Feature","id":"osm-node-6992276285-police","properties":{"id":"osm-node-6992276285-police","name":"پۆلیسن کارەبا چره","kind":"poi","tier":"poi_regional","priority":77.1,"context":"بنکەی پۆلیس","category":"بنکەی پۆلیس"},"geometry":{"type":"Point","coordinates":[43.5221857,36.6393032]}},{"type":"Feature","id":"osm-node-6326933285-car_dealership","properties":{"id":"osm-node-6326933285-car_dealership","name":"ریگای گورانە تی دەرجە١","kind":"poi","tier":"poi_regional","priority":76.1,"context":"پێشانگای ئۆتۆمبیل","category":"پێشانگای ئۆتۆمبیل"},"geometry":{"type":"Point","coordinates":[43.5995139,36.504401]}},{"type":"Feature","id":"osm-node-8321587432-car_dealership","properties":{"id":"osm-node-8321587432-car_dealership","name":"پیشانگای (برایەتی) بۆ کڕین وفروشتنی ئۆتومبیل","kind":"poi","tier":"poi_regional","priority":76.1,"context":"پێشانگای ئۆتۆمبیل","category":"پێشانگای ئۆتۆمبیل"},"geometry":{"type":"Point","coordinates":[43.7029801,36.6154318]}},{"type":"Feature","id":"osm-node-8321600620-car_dealership","properties":{"id":"osm-node-8321600620-car_dealership","name":"پیشانگای سعد(بو) ئۆتومبیل کرین وفروشتن","kind":"poi","tier":"poi_regional","priority":76.1,"context":"پێشانگای ئۆتۆمبیل","category":"پێشانگای ئۆتۆمبیل"},"geometry":{"type":"Point","coordinates":[43.702742,36.6150381]}},{"type":"Feature","id":"osm-node-8406196417-car_dealership","properties":{"id":"osm-node-8406196417-car_dealership","name":"پیشانگای گۆران بۆکرین فرۆشتنی ئوتومبیل","kind":"poi","tier":"poi_regional","priority":76.1,"context":"پێشانگای ئۆتۆمبیل","category":"پێشانگای ئۆتۆمبیل"},"geometry":{"type":"Point","coordinates":[43.5694374,36.5125557]}},{"type":"Feature","id":"osm-node-8225989517-car_dealership","properties":{"id":"osm-node-8225989517-car_dealership","name":"پەنچەرچی","kind":"poi","tier":"poi_regional","priority":76.1,"context":"پێشانگای ئۆتۆمبیل","category":"پێشانگای ئۆتۆمبیل"},"geometry":{"type":"Point","coordinates":[43.5963756,36.5110449]}},{"type":"Feature","id":"osm-way-309815567-residential","properties":{"id":"osm-way-309815567-residential","name":"Birchawish","kind":"poi","tier":"poi_local","priority":68.045,"context":"کۆمپاوندی نیشتەجێبوون","category":"کۆمپاوندی نیشتەجێبوون"},"geometry":{"type":"Point","coordinates":[43.6454361,36.6057425]}},{"type":"Feature","id":"osm-way-130639902-residential","properties":{"id":"osm-way-130639902-residential","name":"Chra","kind":"poi","tier":"poi_local","priority":68.045,"context":"کۆمپاوندی نیشتەجێبوون","category":"کۆمپاوندی نیشتەجێبوون"},"geometry":{"type":"Point","coordinates":[43.5260617,36.636619]}},{"type":"Feature","id":"osm-way-1054145292-residential","properties":{"id":"osm-way-1054145292-residential","name":"Darbistan al Ulya","kind":"poi","tier":"poi_local","priority":68.045,"context":"کۆمپاوندی نیشتەجێبوون","category":"کۆمپاوندی نیشتەجێبوون"},"geometry":{"type":"Point","coordinates":[43.7497624,36.5756716]}},{"type":"Feature","id":"osm-way-311941507-residential","properties":{"id":"osm-way-311941507-residential","name":"IDP Camp","kind":"poi","tier":"poi_local","priority":68.045,"context":"کۆمپاوندی نیشتەجێبوون","category":"کۆمپاوندی نیشتەجێبوون"},"geometry":{"type":"Point","coordinates":[43.5879212,36.701607]}},{"type":"Feature","id":"osm-way-762843079-residential","properties":{"id":"osm-way-762843079-residential","name":"Qesrok","kind":"poi","tier":"poi_local","priority":68.045,"context":"کۆمپاوندی نیشتەجێبوون","category":"کۆمپاوندی نیشتەجێبوون"},"geometry":{"type":"Point","coordinates":[43.5999476,36.698284]}},{"type":"Feature","id":"osm-way-348759512-residential","properties":{"id":"osm-way-348759512-residential","name":"Rovia","kind":"poi","tier":"poi_local","priority":68.045,"context":"کۆمپاوندی نیشتەجێبوون","category":"کۆمپاوندی نیشتەجێبوون"},"geometry":{"type":"Point","coordinates":[43.698025,36.6208108]}},{"type":"Feature","id":"osm-way-309817414-residential","properties":{"id":"osm-way-309817414-residential","name":"Sar Bgirk","kind":"poi","tier":"poi_local","priority":68.045,"context":"کۆمپاوندی نیشتەجێبوون","category":"کۆمپاوندی نیشتەجێبوون"},"geometry":{"type":"Point","coordinates":[43.6682845,36.6298305]}},{"type":"Feature","id":"osm-way-1054157449-residential","properties":{"id":"osm-way-1054157449-residential","name":"Umar Sinan","kind":"poi","tier":"poi_local","priority":68.045,"context":"کۆمپاوندی نیشتەجێبوون","category":"کۆمپاوندی نیشتەجێبوون"},"geometry":{"type":"Point","coordinates":[43.6863905,36.6480801]}},{"type":"Feature","id":"osm-way-1054160998-residential","properties":{"id":"osm-way-1054160998-residential","name":"Yak Mala","kind":"poi","tier":"poi_local","priority":68.045,"context":"کۆمپاوندی نیشتەجێبوون","category":"کۆمپاوندی نیشتەجێبوون"},"geometry":{"type":"Point","coordinates":[43.7097463,36.6407232]}},{"type":"Feature","id":"osm-way-889917035-residential","properties":{"id":"osm-way-889917035-residential","name":"ئاشکان","kind":"poi","tier":"poi_local","priority":68.045,"context":"کۆمپاوندی نیشتەجێبوون","category":"کۆمپاوندی نیشتەجێبوون"},"geometry":{"type":"Point","coordinates":[43.5381208,36.6708373]}},{"type":"Feature","id":"osm-way-958877770-residential","properties":{"id":"osm-way-958877770-residential","name":"ئیسماوە","kind":"poi","tier":"poi_local","priority":68.045,"context":"کۆمپاوندی نیشتەجێبوون","category":"کۆمپاوندی نیشتەجێبوون"},"geometry":{"type":"Point","coordinates":[43.5663421,36.5602123]}},{"type":"Feature","id":"osm-way-1054420629-residential","properties":{"id":"osm-way-1054420629-residential","name":"ئەڵلاهێ","kind":"poi","tier":"poi_local","priority":68.045,"context":"کۆمپاوندی نیشتەجێبوون","category":"کۆمپاوندی نیشتەجێبوون"},"geometry":{"type":"Point","coordinates":[43.7127929,36.6260664]}},{"type":"Feature","id":"osm-way-889917027-residential","properties":{"id":"osm-way-889917027-residential","name":"باجلە سەرکەڤروک","kind":"poi","tier":"poi_local","priority":68.045,"context":"کۆمپاوندی نیشتەجێبوون","category":"کۆمپاوندی نیشتەجێبوون"},"geometry":{"type":"Point","coordinates":[43.5568937,36.6939737]}},{"type":"Feature","id":"osm-way-889917028-residential","properties":{"id":"osm-way-889917028-residential","name":"باجلە کەڤن","kind":"poi","tier":"poi_local","priority":68.045,"context":"کۆمپاوندی نیشتەجێبوون","category":"کۆمپاوندی نیشتەجێبوون"},"geometry":{"type":"Point","coordinates":[43.5499685,36.6937714]}},{"type":"Feature","id":"osm-way-889400657-residential","properties":{"id":"osm-way-889400657-residential","name":"تلبزینە مزوری","kind":"poi","tier":"poi_local","priority":68.045,"context":"کۆمپاوندی نیشتەجێبوون","category":"کۆمپاوندی نیشتەجێبوون"},"geometry":{"type":"Point","coordinates":[43.5994985,36.7464771]}},{"type":"Feature","id":"osm-way-1052215531-residential","properties":{"id":"osm-way-1052215531-residential","name":"خرابەواش","kind":"poi","tier":"poi_local","priority":68.045,"context":"کۆمپاوندی نیشتەجێبوون","category":"کۆمپاوندی نیشتەجێبوون"},"geometry":{"type":"Point","coordinates":[43.6628642,36.5875592]}},{"type":"Feature","id":"osm-way-12982310-residential","properties":{"id":"osm-way-12982310-residential","name":"دارەتوو خازەر","kind":"poi","tier":"poi_local","priority":68.045,"context":"کۆمپاوندی نیشتەجێبوون","category":"کۆمپاوندی نیشتەجێبوون"},"geometry":{"type":"Point","coordinates":[43.5469992,36.6245406]}},{"type":"Feature","id":"osm-way-889917037-residential","properties":{"id":"osm-way-889917037-residential","name":"درین","kind":"poi","tier":"poi_local","priority":68.045,"context":"کۆمپاوندی نیشتەجێبوون","category":"کۆمپاوندی نیشتەجێبوون"},"geometry":{"type":"Point","coordinates":[43.5272812,36.6892076]}},{"type":"Feature","id":"osm-way-1049949398-residential","properties":{"id":"osm-way-1049949398-residential","name":"دولیجان مەزن","kind":"poi","tier":"poi_local","priority":68.045,"context":"کۆمپاوندی نیشتەجێبوون","category":"کۆمپاوندی نیشتەجێبوون"},"geometry":{"type":"Point","coordinates":[43.5645722,36.5811638]}},{"type":"Feature","id":"osm-way-1052558267-residential","properties":{"id":"osm-way-1052558267-residential","name":"دولیجان گچکە","kind":"poi","tier":"poi_local","priority":68.045,"context":"کۆمپاوندی نیشتەجێبوون","category":"کۆمپاوندی نیشتەجێبوون"},"geometry":{"type":"Point","coordinates":[43.5829244,36.6054448]}},{"type":"Feature","id":"osm-way-1051870934-residential","properties":{"id":"osm-way-1051870934-residential","name":"دۆستەک","kind":"poi","tier":"poi_local","priority":68.045,"context":"کۆمپاوندی نیشتەجێبوون","category":"کۆمپاوندی نیشتەجێبوون"},"geometry":{"type":"Point","coordinates":[43.6707675,36.5820556]}},{"type":"Feature","id":"osm-way-307341602-residential","properties":{"id":"osm-way-307341602-residential","name":"زیناڤا نوێ","kind":"poi","tier":"poi_local","priority":68.045,"context":"کۆمپاوندی نیشتەجێبوون","category":"کۆمپاوندی نیشتەجێبوون"},"geometry":{"type":"Point","coordinates":[43.500695,36.6021823]}},{"type":"Feature","id":"osm-way-953504469-residential","properties":{"id":"osm-way-953504469-residential","name":"مەلا بروان","kind":"poi","tier":"poi_local","priority":68.045,"context":"کۆمپاوندی نیشتەجێبوون","category":"کۆمپاوندی نیشتەجێبوون"},"geometry":{"type":"Point","coordinates":[43.5690772,36.6468503]}},{"type":"Feature","id":"osm-way-12835317-residential","properties":{"id":"osm-way-12835317-residential","name":"هزار","kind":"poi","tier":"poi_local","priority":68.045,"context":"کۆمپاوندی نیشتەجێبوون","category":"کۆمپاوندی نیشتەجێبوون"},"geometry":{"type":"Point","coordinates":[43.5991929,36.6603252]}},{"type":"Feature","id":"osm-way-558316191-residential","properties":{"id":"osm-way-558316191-residential","name":"پیربووب","kind":"poi","tier":"poi_local","priority":68.045,"context":"کۆمپاوندی نیشتەجێبوون","category":"کۆمپاوندی نیشتەجێبوون"},"geometry":{"type":"Point","coordinates":[43.6146989,36.6161631]}},{"type":"Feature","id":"osm-way-1051845366-residential","properties":{"id":"osm-way-1051845366-residential","name":"کانی هەسپان مەزن","kind":"poi","tier":"poi_local","priority":68.045,"context":"کۆمپاوندی نیشتەجێبوون","category":"کۆمپاوندی نیشتەجێبوون"},"geometry":{"type":"Point","coordinates":[43.6002066,36.5733247]}},{"type":"Feature","id":"osm-way-1052404784-residential","properties":{"id":"osm-way-1052404784-residential","name":"کانی هەسپان گچکە","kind":"poi","tier":"poi_local","priority":68.045,"context":"کۆمپاوندی نیشتەجێبوون","category":"کۆمپاوندی نیشتەجێبوون"},"geometry":{"type":"Point","coordinates":[43.6160382,36.5924911]}},{"type":"Feature","id":"osm-way-17981983-residential","properties":{"id":"osm-way-17981983-residential","name":"کفرێ","kind":"poi","tier":"poi_local","priority":68.045,"context":"کۆمپاوندی نیشتەجێبوون","category":"کۆمپاوندی نیشتەجێبوون"},"geometry":{"type":"Point","coordinates":[43.611677,36.718986]}},{"type":"Feature","id":"osm-way-17973500-residential","properties":{"id":"osm-way-17973500-residential","name":"گردکاڵ","kind":"poi","tier":"poi_local","priority":68.045,"context":"کۆمپاوندی نیشتەجێبوون","category":"کۆمپاوندی نیشتەجێبوون"},"geometry":{"type":"Point","coordinates":[43.5023011,36.5306322]}},{"type":"Feature","id":"osm-way-958883095-residential","properties":{"id":"osm-way-958883095-residential","name":"گرگە جوو","kind":"poi","tier":"poi_local","priority":68.045,"context":"کۆمپاوندی نیشتەجێبوون","category":"کۆمپاوندی نیشتەجێبوون"},"geometry":{"type":"Point","coordinates":[43.546981,36.5939867]}},{"type":"Feature","id":"osm-way-952793464-residential","properties":{"id":"osm-way-952793464-residential","name":"گریگا","kind":"poi","tier":"poi_local","priority":68.045,"context":"کۆمپاوندی نیشتەجێبوون","category":"کۆمپاوندی نیشتەجێبوون"},"geometry":{"type":"Point","coordinates":[43.5409032,36.5715088]}},{"type":"Feature","id":"osm-way-309381631-residential","properties":{"id":"osm-way-309381631-residential","name":"گەرمک مەزن","kind":"poi","tier":"poi_local","priority":68.045,"context":"کۆمپاوندی نیشتەجێبوون","category":"کۆمپاوندی نیشتەجێبوون"},"geometry":{"type":"Point","coordinates":[43.5054148,36.5421201]}},{"type":"Feature","id":"osm-way-952793435-residential","properties":{"id":"osm-way-952793435-residential","name":"گەرمک گچکە","kind":"poi","tier":"poi_local","priority":68.045,"context":"کۆمپاوندی نیشتەجێبوون","category":"کۆمپاوندی نیشتەجێبوون"},"geometry":{"type":"Point","coordinates":[43.5282594,36.5545973]}},{"type":"Feature","id":"osm-way-889917042-residential","properties":{"id":"osm-way-889917042-residential","name":"گەرمیشان","kind":"poi","tier":"poi_local","priority":68.045,"context":"کۆمپاوندی نیشتەجێبوون","category":"کۆمپاوندی نیشتەجێبوون"},"geometry":{"type":"Point","coordinates":[43.5156199,36.6971093]}},{"type":"Feature","id":"osm-way-1507556079-industrial","properties":{"id":"osm-way-1507556079-industrial","name":"ABC Cold Storage Facility","kind":"poi","tier":"poi_local","priority":66.045,"context":"ناوچەی پیشەسازی","category":"ناوچەی پیشەسازی"},"geometry":{"type":"Point","coordinates":[43.5502884,36.6431126]}},{"type":"Feature","id":"osm-way-310873496-industrial","properties":{"id":"osm-way-310873496-industrial","name":"Rovia Silo","kind":"poi","tier":"poi_local","priority":66.045,"context":"ناوچەی پیشەسازی","category":"ناوچەی پیشەسازی"},"geometry":{"type":"Point","coordinates":[43.6922197,36.6084819]}},{"type":"Feature","id":"osm-node-12020426805-supermarket","properties":{"id":"osm-node-12020426805-supermarket","name":"ABC Market","kind":"poi","tier":"poi_detail","priority":50.1,"context":"سۆپەرمارکێت","category":"سۆپەرمارکێت"},"geometry":{"type":"Point","coordinates":[43.5214479,36.6373405]}},{"type":"Feature","id":"osm-node-13991210414-supermarket","properties":{"id":"osm-node-13991210414-supermarket","name":"Alind Market","kind":"poi","tier":"poi_detail","priority":50.1,"context":"سۆپەرمارکێت","category":"سۆپەرمارکێت"},"geometry":{"type":"Point","coordinates":[43.5314671,36.6379837]}},{"type":"Feature","id":"osm-node-7819762667-school","properties":{"id":"osm-node-7819762667-school","name":"Bardarash High School","kind":"poi","tier":"poi_detail","priority":50.1,"context":"قوتابخانە","category":"قوتابخانە"},"geometry":{"type":"Point","coordinates":[43.5926392,36.5065579]}},{"type":"Feature","id":"osm-node-11171302378-marketplace","properties":{"id":"osm-node-11171302378-marketplace","name":"Duhok-Erbil Road & Alind Market","kind":"poi","tier":"poi_detail","priority":50.1,"context":"بازاڕ","category":"بازاڕ"},"geometry":{"type":"Point","coordinates":[43.5313765,36.638016]}},{"type":"Feature","id":"osm-node-11362282930-supermarket","properties":{"id":"osm-node-11362282930-supermarket","name":"K BAZAR","kind":"poi","tier":"poi_detail","priority":50.1,"context":"سۆپەرمارکێت","category":"سۆپەرمارکێت"},"geometry":{"type":"Point","coordinates":[43.5279208,36.5804327]}},{"type":"Feature","id":"osm-node-13726429591-supermarket","properties":{"id":"osm-node-13726429591-supermarket","name":"Meer Market","kind":"poi","tier":"poi_detail","priority":50.1,"context":"سۆپەرمارکێت","category":"سۆپەرمارکێت"},"geometry":{"type":"Point","coordinates":[43.7117181,36.71454]}},{"type":"Feature","id":"osm-node-10028335517-restaurant","properties":{"id":"osm-node-10028335517-restaurant","name":"Qais Restaurant","kind":"poi","tier":"poi_detail","priority":50.1,"context":"چێشتخانە","category":"چێشتخانە"},"geometry":{"type":"Point","coordinates":[43.5266901,36.5839068]}},{"type":"Feature","id":"osm-node-8043892405-school","properties":{"id":"osm-node-8043892405-school","name":"Segrtik Elementary School","kind":"poi","tier":"poi_detail","priority":50.1,"context":"قوتابخانە","category":"قوتابخانە"},"geometry":{"type":"Point","coordinates":[43.6698276,36.6292614]}},{"type":"Feature","id":"osm-node-12809735048-supermarket","properties":{"id":"osm-node-12809735048-supermarket","name":"Shah Market","kind":"poi","tier":"poi_detail","priority":50.1,"context":"سۆپەرمارکێت","category":"سۆپەرمارکێت"},"geometry":{"type":"Point","coordinates":[43.5300943,36.6380297]}},{"type":"Feature","id":"osm-node-9127696817-hotel","properties":{"id":"osm-node-9127696817-hotel","name":"Younis Salih","kind":"poi","tier":"poi_detail","priority":50.1,"context":"هۆتێل","category":"هۆتێل"},"geometry":{"type":"Point","coordinates":[43.5274799,36.6419448]}},{"type":"Feature","id":"osm-node-12519090128-marketplace","properties":{"id":"osm-node-12519090128-marketplace","name":"duhok-erbil_road_&_alind_market","kind":"poi","tier":"poi_detail","priority":50.1,"context":"بازاڕ","category":"بازاڕ"},"geometry":{"type":"Point","coordinates":[43.5314193,36.6380353]}},{"type":"Feature","id":"osm-node-9959439943-supermarket","properties":{"id":"osm-node-9959439943-supermarket","name":"gashbin market","kind":"poi","tier":"poi_detail","priority":50.1,"context":"سۆپەرمارکێت","category":"سۆپەرمارکێت"},"geometry":{"type":"Point","coordinates":[43.5217358,36.6374024]}},{"type":"Feature","id":"osm-node-5004341526-school","properties":{"id":"osm-node-5004341526-school","name":"ئامادةيا جره يا كوران","kind":"poi","tier":"poi_detail","priority":50.1,"context":"قوتابخانە","category":"قوتابخانە"},"geometry":{"type":"Point","coordinates":[43.5312657,36.6097103]}},{"type":"Feature","id":"osm-node-5004421723-school","properties":{"id":"osm-node-5004421723-school","name":"ئامادەیی چرەی کوڕان","kind":"poi","tier":"poi_detail","priority":50.1,"context":"قوتابخانە","category":"قوتابخانە"},"geometry":{"type":"Point","coordinates":[43.5234761,36.6383727]}},{"type":"Feature","id":"osm-node-6491335885-school","properties":{"id":"osm-node-6491335885-school","name":"اعدادیە هزارجوت","kind":"poi","tier":"poi_detail","priority":50.1,"context":"قوتابخانە","category":"قوتابخانە"},"geometry":{"type":"Point","coordinates":[43.6042953,36.6595524]}},{"type":"Feature","id":"osm-node-6792940185-kindergarten","properties":{"id":"osm-node-6792940185-kindergarten","name":"باخچەی ساوایانی چنار","kind":"poi","tier":"poi_detail","priority":50.1,"context":"باخچەی ساوایان","category":"باخچەی ساوایان"},"geometry":{"type":"Point","coordinates":[43.5828365,36.5060576]}},{"type":"Feature","id":"osm-node-4284076795-pharmacy","properties":{"id":"osm-node-4284076795-pharmacy","name":"بارزان","kind":"poi","tier":"poi_detail","priority":50.1,"context":"دەرمانخانە","category":"دەرمانخانە"},"geometry":{"type":"Point","coordinates":[43.6211561,36.689302]}},{"type":"Feature","id":"osm-node-6625106086-fire_station","properties":{"id":"osm-node-6625106086-fire_station","name":"بنکەی ئاگر کوژینەوەی بەردەرەش/ محطە الاطفاء بردەرش!!","kind":"poi","tier":"poi_detail","priority":50.1,"context":"بنکەی ئاگرکوژێنەوە","category":"بنکەی ئاگرکوژێنەوە"},"geometry":{"type":"Point","coordinates":[43.6126326,36.5019739]}},{"type":"Feature","id":"osm-node-6916720686-clinic","properties":{"id":"osm-node-6916720686-clinic","name":"تاقیگەها ئازاد","kind":"poi","tier":"poi_detail","priority":50.1,"context":"کلینیک","category":"کلینیک"},"geometry":{"type":"Point","coordinates":[43.5241,36.6359937]}},{"type":"Feature","id":"osm-node-6916110386-clinic","properties":{"id":"osm-node-6916110386-clinic","name":"تاقیگەها برا","kind":"poi","tier":"poi_detail","priority":50.1,"context":"کلینیک","category":"کلینیک"},"geometry":{"type":"Point","coordinates":[43.5243853,36.6359477]}},{"type":"Feature","id":"osm-node-8733009817-supermarket","properties":{"id":"osm-node-8733009817-supermarket","name":"تیم مارت","kind":"poi","tier":"poi_detail","priority":50.1,"context":"سۆپەرمارکێت","category":"سۆپەرمارکێت"},"geometry":{"type":"Point","coordinates":[43.5863581,36.5045189]}},{"type":"Feature","id":"osm-node-12368029601-supermarket","properties":{"id":"osm-node-12368029601-supermarket","name":"جهێ بەرەکە","kind":"poi","tier":"poi_detail","priority":50.1,"context":"سۆپەرمارکێت","category":"سۆپەرمارکێت"},"geometry":{"type":"Point","coordinates":[43.5817631,36.5094603]}},{"type":"Feature","id":"osm-node-5208132921-restaurant","properties":{"id":"osm-node-5208132921-restaurant","name":"خارنگه ها ئامه د","kind":"poi","tier":"poi_detail","priority":50.1,"context":"چێشتخانە","category":"چێشتخانە"},"geometry":{"type":"Point","coordinates":[43.6658135,36.6281066]}},{"type":"Feature","id":"osm-node-6570660385-restaurant","properties":{"id":"osm-node-6570660385-restaurant","name":"خواردنگەی ماجد","kind":"poi","tier":"poi_detail","priority":50.1,"context":"چێشتخانە","category":"چێشتخانە"},"geometry":{"type":"Point","coordinates":[43.587617,36.5068376]}},{"type":"Feature","id":"osm-node-7332323185-pharmacy","properties":{"id":"osm-node-7332323185-pharmacy","name":"د دیان","kind":"poi","tier":"poi_detail","priority":50.1,"context":"دەرمانخانە","category":"دەرمانخانە"},"geometry":{"type":"Point","coordinates":[43.7018187,36.6214192]}},{"type":"Feature","id":"osm-node-10980167705-supermarket","properties":{"id":"osm-node-10980167705-supermarket","name":"دکانا سامان شابی - هەرکی","kind":"poi","tier":"poi_detail","priority":50.1,"context":"سۆپەرمارکێت","category":"سۆپەرمارکێت"},"geometry":{"type":"Point","coordinates":[43.6600845,36.7313161]}},{"type":"Feature","id":"osm-node-4284075505-clinic","properties":{"id":"osm-node-4284075505-clinic","name":"دکتور بارزان","kind":"poi","tier":"poi_detail","priority":50.1,"context":"کلینیک","category":"کلینیک"},"geometry":{"type":"Point","coordinates":[43.6213776,36.6891455]}},{"type":"Feature","id":"osm-node-4283473590-clinic","properties":{"id":"osm-node-4283473590-clinic","name":"دکتور صالح سعید برزناری","kind":"poi","tier":"poi_detail","priority":50.1,"context":"کلینیک","category":"کلینیک"},"geometry":{"type":"Point","coordinates":[43.7019744,36.6273719]}},{"type":"Feature","id":"osm-node-7356181185-pharmacy","properties":{"id":"osm-node-7356181185-pharmacy","name":"دەرمانخانەی رۆڤیا","kind":"poi","tier":"poi_detail","priority":50.1,"context":"دەرمانخانە","category":"دەرمانخانە"},"geometry":{"type":"Point","coordinates":[43.7023419,36.6206055]}},{"type":"Feature","id":"osm-node-9063704020-pharmacy","properties":{"id":"osm-node-9063704020-pharmacy","name":"رون کوری بسام","kind":"poi","tier":"poi_detail","priority":50.1,"context":"دەرمانخانە","category":"دەرمانخانە"},"geometry":{"type":"Point","coordinates":[43.5739272,36.5128189]}},{"type":"Feature","id":"osm-node-10818900406-supermarket","properties":{"id":"osm-node-10818900406-supermarket","name":"زین العابدین مارکت","kind":"poi","tier":"poi_detail","priority":50.1,"context":"سۆپەرمارکێت","category":"سۆپەرمارکێت"},"geometry":{"type":"Point","coordinates":[43.5880969,36.6324961]}},{"type":"Feature","id":"osm-node-5702551723-supermarket","properties":{"id":"osm-node-5702551723-supermarket","name":"شوێنی ئارەزوو","kind":"poi","tier":"poi_detail","priority":50.1,"context":"سۆپەرمارکێت","category":"سۆپەرمارکێت"},"geometry":{"type":"Point","coordinates":[43.5235867,36.5773333]}},{"type":"Feature","id":"osm-node-11497887469-hotel","properties":{"id":"osm-node-11497887469-hotel","name":"شیخ قاسم شیخ ابراهیم البرزنجی","kind":"poi","tier":"poi_detail","priority":50.1,"context":"هۆتێل","category":"هۆتێل"},"geometry":{"type":"Point","coordinates":[43.7046013,36.6225024]}},{"type":"Feature","id":"osm-node-4751739921-clinic","properties":{"id":"osm-node-4751739921-clinic","name":"عیادە دلوار محمدرشید","kind":"poi","tier":"poi_detail","priority":50.1,"context":"کلینیک","category":"کلینیک"},"geometry":{"type":"Point","coordinates":[43.5693207,36.6483053]}},{"type":"Feature","id":"osm-node-4425021189-clinic","properties":{"id":"osm-node-4425021189-clinic","name":"عیادە دکتور نواس","kind":"poi","tier":"poi_detail","priority":50.1,"context":"کلینیک","category":"کلینیک"},"geometry":{"type":"Point","coordinates":[43.6995271,36.6239377]}},{"type":"Feature","id":"osm-node-4775982721-clinic","properties":{"id":"osm-node-4775982721-clinic","name":"عیادە ملابروان","kind":"poi","tier":"poi_detail","priority":50.1,"context":"کلینیک","category":"کلینیک"},"geometry":{"type":"Point","coordinates":[43.5691729,36.6481712]}},{"type":"Feature","id":"osm-node-6438771186-supermarket","properties":{"id":"osm-node-6438771186-supermarket","name":"فروشگەها محسن","kind":"poi","tier":"poi_detail","priority":50.1,"context":"سۆپەرمارکێت","category":"سۆپەرمارکێت"},"geometry":{"type":"Point","coordinates":[43.5231327,36.6395895]}},{"type":"Feature","id":"osm-node-7975629085-school","properties":{"id":"osm-node-7975629085-school","name":"قوتابخامەی پێشڕەو","kind":"poi","tier":"poi_detail","priority":50.1,"context":"قوتابخانە","category":"قوتابخانە"},"geometry":{"type":"Point","coordinates":[43.5758981,36.5051754]}},{"type":"Feature","id":"osm-node-10980167406-school","properties":{"id":"osm-node-10980167406-school","name":"قوتابخانا لەکان","kind":"poi","tier":"poi_detail","priority":50.1,"context":"قوتابخانە","category":"قوتابخانە"},"geometry":{"type":"Point","coordinates":[43.6609972,36.7300743]}},{"type":"Feature","id":"osm-node-10199941939-school","properties":{"id":"osm-node-10199941939-school","name":"قوتابخانا نیاووکێ","kind":"poi","tier":"poi_detail","priority":50.1,"context":"قوتابخانە","category":"قوتابخانە"},"geometry":{"type":"Point","coordinates":[43.6965512,36.7410997]}},{"type":"Feature","id":"osm-node-4269635291-school","properties":{"id":"osm-node-4269635291-school","name":"قوتابخانا هەزارجۆت","kind":"poi","tier":"poi_detail","priority":50.1,"context":"قوتابخانە","category":"قوتابخانە"},"geometry":{"type":"Point","coordinates":[43.6025433,36.6613107]}},{"type":"Feature","id":"osm-node-4750675524-school","properties":{"id":"osm-node-4750675524-school","name":"قوتابخانامەلابروان","kind":"poi","tier":"poi_detail","priority":50.1,"context":"قوتابخانە","category":"قوتابخانە"},"geometry":{"type":"Point","coordinates":[43.5673551,36.6451163]}},{"type":"Feature","id":"osm-node-6768522886-school","properties":{"id":"osm-node-6768522886-school","name":"قوتابخانه ی رۆڤیای بنه ره تی کوڕان (کچان)","kind":"poi","tier":"poi_detail","priority":50.1,"context":"قوتابخانە","category":"قوتابخانە"},"geometry":{"type":"Point","coordinates":[43.7018526,36.6196596]}},{"type":"Feature","id":"osm-node-5004421522-school","properties":{"id":"osm-node-5004421522-school","name":"قوتابخانەی رەڤەند","kind":"poi","tier":"poi_detail","priority":50.1,"context":"قوتابخانە","category":"قوتابخانە"},"geometry":{"type":"Point","coordinates":[43.523278,36.6379283]}},{"type":"Feature","id":"osm-node-6919549185-school","properties":{"id":"osm-node-6919549185-school","name":"قوتابخانەی ڕاپەڕینی کچان","kind":"poi","tier":"poi_detail","priority":50.1,"context":"قوتابخانە","category":"قوتابخانە"},"geometry":{"type":"Point","coordinates":[43.5845865,36.5024018]}},{"type":"Feature","id":"osm-node-7831630385-school","properties":{"id":"osm-node-7831630385-school","name":"قوتابخانەی کوردستان","kind":"poi","tier":"poi_detail","priority":50.1,"context":"قوتابخانە","category":"قوتابخانە"},"geometry":{"type":"Point","coordinates":[43.5829678,36.5050222]}},{"type":"Feature","id":"osm-node-11524275370-school","properties":{"id":"osm-node-11524275370-school","name":"قوتابخانەی گربدەوی بنەڕەتی تێکەلاو","kind":"poi","tier":"poi_detail","priority":50.1,"context":"قوتابخانە","category":"قوتابخانە"},"geometry":{"type":"Point","coordinates":[43.7040609,36.5339143]}},{"type":"Feature","id":"osm-node-7002887585-supermarket","properties":{"id":"osm-node-7002887585-supermarket","name":"مارکیت ئاشتی","kind":"poi","tier":"poi_detail","priority":50.1,"context":"سۆپەرمارکێت","category":"سۆپەرمارکێت"},"geometry":{"type":"Point","coordinates":[43.5242224,36.6356392]}},{"type":"Feature","id":"osm-node-8409738219-supermarket","properties":{"id":"osm-node-8409738219-supermarket","name":"مارکیت بارزان٪","kind":"poi","tier":"poi_detail","priority":50.1,"context":"سۆپەرمارکێت","category":"سۆپەرمارکێت"},"geometry":{"type":"Point","coordinates":[43.5799509,36.5036274]}},{"type":"Feature","id":"osm-node-6615789585-supermarket","properties":{"id":"osm-node-6615789585-supermarket","name":"مارکیت صفوان زرار!!","kind":"poi","tier":"poi_detail","priority":50.1,"context":"سۆپەرمارکێت","category":"سۆپەرمارکێت"},"geometry":{"type":"Point","coordinates":[43.5942105,36.5054661]}},{"type":"Feature","id":"osm-node-6916720985-supermarket","properties":{"id":"osm-node-6916720985-supermarket","name":"مارکیتا ئازاد","kind":"poi","tier":"poi_detail","priority":50.1,"context":"سۆپەرمارکێت","category":"سۆپەرمارکێت"},"geometry":{"type":"Point","coordinates":[43.5240353,36.6358202]}},{"type":"Feature","id":"osm-node-14005092354-restaurant","properties":{"id":"osm-node-14005092354-restaurant","name":"ماسی عماد","kind":"poi","tier":"poi_detail","priority":50.1,"context":"چێشتخانە","category":"چێشتخانە"},"geometry":{"type":"Point","coordinates":[43.524721,36.5876735]}},{"type":"Feature","id":"osm-node-8733004217-clinic","properties":{"id":"osm-node-8733004217-clinic","name":"مجمع جودی الطبی","kind":"poi","tier":"poi_detail","priority":50.1,"context":"کلینیک","category":"کلینیک"},"geometry":{"type":"Point","coordinates":[43.5921429,36.5058262]}},{"type":"Feature","id":"osm-node-7039295885-school","properties":{"id":"osm-node-7039295885-school","name":"مدرسە النازحین الابتدائیە للغە العربیە بر د ه ر ه ش","kind":"poi","tier":"poi_detail","priority":50.1,"context":"قوتابخانە","category":"قوتابخانە"},"geometry":{"type":"Point","coordinates":[43.5754916,36.5111586]}},{"type":"Feature","id":"osm-node-4616256891-school","properties":{"id":"osm-node-4616256891-school","name":"مدرسە سروران","kind":"poi","tier":"poi_detail","priority":50.1,"context":"قوتابخانە","category":"قوتابخانە"},"geometry":{"type":"Point","coordinates":[43.6096779,36.6603011]}},{"type":"Feature","id":"osm-node-7966154485-school","properties":{"id":"osm-node-7966154485-school","name":"مزگەوتی عبدالله خیات","kind":"poi","tier":"poi_detail","priority":50.1,"context":"قوتابخانە","category":"قوتابخانە"},"geometry":{"type":"Point","coordinates":[43.5781529,36.5138801]}},{"type":"Feature","id":"osm-node-7640227386-restaurant","properties":{"id":"osm-node-7640227386-restaurant","name":"مطعم عمو عزیز","kind":"poi","tier":"poi_detail","priority":50.1,"context":"چێشتخانە","category":"چێشتخانە"},"geometry":{"type":"Point","coordinates":[43.5850392,36.5022913]}},{"type":"Feature","id":"osm-node-12368000503-supermarket","properties":{"id":"osm-node-12368000503-supermarket","name":"مکان برکە","kind":"poi","tier":"poi_detail","priority":50.1,"context":"سۆپەرمارکێت","category":"سۆپەرمارکێت"},"geometry":{"type":"Point","coordinates":[43.5816725,36.5093615]}},{"type":"Feature","id":"osm-node-8225989518-clinic","properties":{"id":"osm-node-8225989518-clinic","name":"نەخۆشخانەی خازڕ","kind":"poi","tier":"poi_detail","priority":50.1,"context":"کلینیک","category":"کلینیک"},"geometry":{"type":"Point","coordinates":[43.6005553,36.5023218]}},{"type":"Feature","id":"osm-node-7617106185-clinic","properties":{"id":"osm-node-7617106185-clinic","name":"پیشوازی نەخۆش٪","kind":"poi","tier":"poi_detail","priority":50.1,"context":"کلینیک","category":"کلینیک"},"geometry":{"type":"Point","coordinates":[43.5865595,36.5035019]}},{"type":"Feature","id":"osm-node-4283469091-restaurant","properties":{"id":"osm-node-4283469091-restaurant","name":"چێشتخانەی رەشید زێباری","kind":"poi","tier":"poi_detail","priority":50.1,"context":"چێشتخانە","category":"چێشتخانە"},"geometry":{"type":"Point","coordinates":[43.6720816,36.6273391]}},{"type":"Feature","id":"osm-node-6405676185-school","properties":{"id":"osm-node-6405676185-school","name":"کارێز","kind":"poi","tier":"poi_detail","priority":50.1,"context":"قوتابخانە","category":"قوتابخانە"},"geometry":{"type":"Point","coordinates":[43.5801053,36.5093383]}},{"type":"Feature","id":"osm-node-6712325885-supermarket","properties":{"id":"osm-node-6712325885-supermarket","name":"کاوه سیکانی","kind":"poi","tier":"poi_detail","priority":50.1,"context":"سۆپەرمارکێت","category":"سۆپەرمارکێت"},"geometry":{"type":"Point","coordinates":[43.5801641,36.5037435]}},{"type":"Feature","id":"osm-node-13461703311-clinic","properties":{"id":"osm-node-13461703311-clinic","name":"کلینیکی دکتۆر دلشاد","kind":"poi","tier":"poi_detail","priority":50.1,"context":"کلینیک","category":"کلینیک"},"geometry":{"type":"Point","coordinates":[43.5917109,36.5056687]}},{"type":"Feature","id":"osm-node-7824518699-supermarket","properties":{"id":"osm-node-7824518699-supermarket","name":"کوگای زنگنان","kind":"poi","tier":"poi_detail","priority":50.1,"context":"سۆپەرمارکێت","category":"سۆپەرمارکێت"},"geometry":{"type":"Point","coordinates":[43.7031859,36.6138201]}},{"type":"Feature","id":"osm-node-5117786625-supermarket","properties":{"id":"osm-node-5117786625-supermarket","name":"یاسر مارکیت","kind":"poi","tier":"poi_detail","priority":50.1,"context":"سۆپەرمارکێت","category":"سۆپەرمارکێت"},"geometry":{"type":"Point","coordinates":[43.7027387,36.6261511]}},{"type":"Feature","id":"osm-way-1499174870-marketplace","properties":{"id":"osm-way-1499174870-marketplace","name":"Kameran Market","kind":"poi","tier":"poi_detail","priority":50.092,"context":"بازاڕ","category":"بازاڕ"},"geometry":{"type":"Point","coordinates":[43.7296992,36.7409756]}},{"type":"Feature","id":"osm-way-1499174869-marketplace","properties":{"id":"osm-way-1499174869-marketplace","name":"Mahmod Market","kind":"poi","tier":"poi_detail","priority":50.092,"context":"بازاڕ","category":"بازاڕ"},"geometry":{"type":"Point","coordinates":[43.7323093,36.7420931]}},{"type":"Feature","id":"osm-way-1499174868-marketplace","properties":{"id":"osm-way-1499174868-marketplace","name":"Zber Market","kind":"poi","tier":"poi_detail","priority":50.092,"context":"بازاڕ","category":"بازاڕ"},"geometry":{"type":"Point","coordinates":[43.7335539,36.7430471]}},{"type":"Feature","id":"osm-way-1410034611-school","properties":{"id":"osm-way-1410034611-school","name":"قوتابخانا جەلیدوک","kind":"poi","tier":"poi_detail","priority":50.092,"context":"قوتابخانە","category":"قوتابخانە"},"geometry":{"type":"Point","coordinates":[43.6407981,36.6724088]}},{"type":"Feature","id":"osm-way-1498771169-school","properties":{"id":"osm-way-1498771169-school","name":"قوتابخانا گورانکا مه زن","kind":"poi","tier":"poi_detail","priority":50.092,"context":"قوتابخانە","category":"قوتابخانە"},"geometry":{"type":"Point","coordinates":[43.7301168,36.7389091]}},{"type":"Feature","id":"osm-way-1358274320-building","properties":{"id":"osm-way-1358274320-building","name":"NEAWOKE SCHOOL","kind":"poi","tier":"poi_detail","priority":50.055,"context":"قوتابخانە","category":"قوتابخانە"},"geometry":{"type":"Point","coordinates":[43.6965503,36.7411322]}},{"type":"Feature","id":"osm-node-13132127098-atm","properties":{"id":"osm-node-13132127098-atm","name":"Cihan Bank ATM","kind":"poi","tier":"poi_landmark","priority":90.1,"context":"خۆپارێز","category":"خۆپارێز"},"geometry":{"type":"Point","coordinates":[43.5852681,36.5055663]}},{"type":"Feature","id":"osm-node-13132127099-atm","properties":{"id":"osm-node-13132127099-atm","name":"Cihan Bank ATM","kind":"poi","tier":"poi_landmark","priority":90.1,"context":"خۆپارێز","category":"خۆپارێز"},"geometry":{"type":"Point","coordinates":[43.7024556,36.6185679]}},{"type":"Feature","id":"osm-node-11656222527-mobile_phone_shop","properties":{"id":"osm-node-11656222527-mobile_phone_shop","name":"2 bera mobile","kind":"poi","tier":"poi_detail","priority":50.1,"context":"دوکانی مۆبایل","category":"دوکانی مۆبایل"},"geometry":{"type":"Point","coordinates":[43.699268,36.624485]}},{"type":"Feature","id":"osm-node-11656222612-mobile_phone_shop","properties":{"id":"osm-node-11656222612-mobile_phone_shop","name":"Aras Phone","kind":"poi","tier":"poi_detail","priority":50.1,"context":"دوکانی مۆبایل","category":"دوکانی مۆبایل"},"geometry":{"type":"Point","coordinates":[43.600662,36.698044]}},{"type":"Feature","id":"osm-node-11656222557-mobile_phone_shop","properties":{"id":"osm-node-11656222557-mobile_phone_shop","name":"Asim Phone","kind":"poi","tier":"poi_detail","priority":50.1,"context":"دوکانی مۆبایل","category":"دوکانی مۆبایل"},"geometry":{"type":"Point","coordinates":[43.698372,36.625519]}},{"type":"Feature","id":"osm-node-9998740634-mobile_phone_shop","properties":{"id":"osm-node-9998740634-mobile_phone_shop","name":"Baban Phone","kind":"poi","tier":"poi_detail","priority":50.1,"context":"دوکانی مۆبایل","category":"دوکانی مۆبایل"},"geometry":{"type":"Point","coordinates":[43.5274697,36.5830077]}},{"type":"Feature","id":"osm-node-11656222406-mobile_phone_shop","properties":{"id":"osm-node-11656222406-mobile_phone_shop","name":"Badinan phone","kind":"poi","tier":"poi_detail","priority":50.1,"context":"دوکانی مۆبایل","category":"دوکانی مۆبایل"},"geometry":{"type":"Point","coordinates":[43.593822,36.500778]}},{"type":"Feature","id":"osm-node-11656222361-convenience","properties":{"id":"osm-node-11656222361-convenience","name":"Dldar Center","kind":"poi","tier":"poi_detail","priority":50.1,"context":"دوکانی نزیک","category":"دوکانی نزیک"},"geometry":{"type":"Point","coordinates":[43.62748,36.68655]}},{"type":"Feature","id":"osm-node-4604526801-caravan_site","properties":{"id":"osm-node-4604526801-caravan_site","name":"Gîhad Zêbarî","kind":"poi","tier":"poi_detail","priority":50.1,"context":"شوێنی کاراڤان","category":"شوێنی کاراڤان"},"geometry":{"type":"Point","coordinates":[43.6244644,36.7056278]}},{"type":"Feature","id":"osm-node-11907205139-sports_shop","properties":{"id":"osm-node-11907205139-sports_shop","name":"Hakim Sport","kind":"poi","tier":"poi_detail","priority":50.1,"context":"فرۆشگای کەلوپەلی وەرزشی","category":"فرۆشگای کەلوپەلی وەرزشی"},"geometry":{"type":"Point","coordinates":[43.5280143,36.5801742]}},{"type":"Feature","id":"osm-node-11656222355-mobile_phone_shop","properties":{"id":"osm-node-11656222355-mobile_phone_shop","name":"Hama phone","kind":"poi","tier":"poi_detail","priority":50.1,"context":"دوکانی مۆبایل","category":"دوکانی مۆبایل"},"geometry":{"type":"Point","coordinates":[43.585438,36.502323]}},{"type":"Feature","id":"osm-node-11656222297-mobile_phone_shop","properties":{"id":"osm-node-11656222297-mobile_phone_shop","name":"Hamodi Phone","kind":"poi","tier":"poi_detail","priority":50.1,"context":"دوکانی مۆبایل","category":"دوکانی مۆبایل"},"geometry":{"type":"Point","coordinates":[43.5277209,36.638205]}},{"type":"Feature","id":"osm-node-11656222282-convenience","properties":{"id":"osm-node-11656222282-convenience","name":"Helen Market","kind":"poi","tier":"poi_detail","priority":50.1,"context":"دوکانی نزیک","category":"دوکانی نزیک"},"geometry":{"type":"Point","coordinates":[43.587215,36.501648]}},{"type":"Feature","id":"osm-node-11656222313-mobile_phone_shop","properties":{"id":"osm-node-11656222313-mobile_phone_shop","name":"Kamil Phone","kind":"poi","tier":"poi_detail","priority":50.1,"context":"دوکانی مۆبایل","category":"دوکانی مۆبایل"},"geometry":{"type":"Point","coordinates":[43.585503,36.502338]}},{"type":"Feature","id":"osm-node-13390732927-clothes","properties":{"id":"osm-node-13390732927-clothes","name":"Kobbe Show","kind":"poi","tier":"poi_detail","priority":50.1,"context":"جلوبەرگ فرۆشی","category":"جلوبەرگ فرۆشی"},"geometry":{"type":"Point","coordinates":[43.5263875,36.6375054]}},{"type":"Feature","id":"osm-node-11656222569-mobile_phone_shop","properties":{"id":"osm-node-11656222569-mobile_phone_shop","name":"Lawko Phone","kind":"poi","tier":"poi_detail","priority":50.1,"context":"دوکانی مۆبایل","category":"دوکانی مۆبایل"},"geometry":{"type":"Point","coordinates":[43.6005146,36.6978163]}},{"type":"Feature","id":"osm-node-13394100492-mobile_phone_shop","properties":{"id":"osm-node-13394100492-mobile_phone_shop","name":"M / PHONE","kind":"poi","tier":"poi_detail","priority":50.1,"context":"دوکانی مۆبایل","category":"دوکانی مۆبایل"},"geometry":{"type":"Point","coordinates":[43.6004249,36.6979748]}},{"type":"Feature","id":"osm-node-11656222450-mobile_phone_shop","properties":{"id":"osm-node-11656222450-mobile_phone_shop","name":"Nashwan Phone","kind":"poi","tier":"poi_detail","priority":50.1,"context":"دوکانی مۆبایل","category":"دوکانی مۆبایل"},"geometry":{"type":"Point","coordinates":[43.699352,36.625267]}},{"type":"Feature","id":"osm-node-9905428917-computer_shop","properties":{"id":"osm-node-9905428917-computer_shop","name":"SAMPUTER Center","kind":"poi","tier":"poi_detail","priority":50.1,"context":"دوکانی کۆمپیوتەر","category":"دوکانی کۆمپیوتەر"},"geometry":{"type":"Point","coordinates":[43.7011193,36.6218164]}},{"type":"Feature","id":"osm-node-11656222396-mobile_phone_shop","properties":{"id":"osm-node-11656222396-mobile_phone_shop","name":"Sahir Phone","kind":"poi","tier":"poi_detail","priority":50.1,"context":"دوکانی مۆبایل","category":"دوکانی مۆبایل"},"geometry":{"type":"Point","coordinates":[43.6007146,36.6982314]}},{"type":"Feature","id":"osm-node-10635341753-cafe","properties":{"id":"osm-node-10635341753-cafe","name":"Salar Cafe","kind":"poi","tier":"poi_detail","priority":50.1,"context":"کافێ","category":"کافێ"},"geometry":{"type":"Point","coordinates":[43.5205645,36.5829782]}},{"type":"Feature","id":"osm-node-11656222565-convenience","properties":{"id":"osm-node-11656222565-convenience","name":"Shivan Bazzar","kind":"poi","tier":"poi_detail","priority":50.1,"context":"دوکانی نزیک","category":"دوکانی نزیک"},"geometry":{"type":"Point","coordinates":[43.698544,36.625629]}},{"type":"Feature","id":"osm-node-12781995401-viewpoint","properties":{"id":"osm-node-12781995401-viewpoint","name":"Tasa","kind":"poi","tier":"poi_detail","priority":50.1,"context":"شوێنی سەیران","category":"شوێنی سەیران"},"geometry":{"type":"Point","coordinates":[43.5388915,36.6388343]}},{"type":"Feature","id":"osm-node-4464810691-bakery","properties":{"id":"osm-node-4464810691-bakery","name":"Triangle office","kind":"poi","tier":"poi_detail","priority":50.1,"context":"نانەواخانە","category":"نانەواخانە"},"geometry":{"type":"Point","coordinates":[43.5793267,36.504045]}},{"type":"Feature","id":"osm-node-11656222408-mobile_phone_shop","properties":{"id":"osm-node-11656222408-mobile_phone_shop","name":"badinan phone 2","kind":"poi","tier":"poi_detail","priority":50.1,"context":"دوکانی مۆبایل","category":"دوکانی مۆبایل"},"geometry":{"type":"Point","coordinates":[43.593781,36.500538]}},{"type":"Feature","id":"osm-node-11656222521-convenience","properties":{"id":"osm-node-11656222521-convenience","name":"bishar market","kind":"poi","tier":"poi_detail","priority":50.1,"context":"دوکانی نزیک","category":"دوکانی نزیک"},"geometry":{"type":"Point","coordinates":[43.570076,36.644524]}},{"type":"Feature","id":"osm-node-11656222499-convenience","properties":{"id":"osm-node-11656222499-convenience","name":"dilgash market","kind":"poi","tier":"poi_detail","priority":50.1,"context":"دوکانی نزیک","category":"دوکانی نزیک"},"geometry":{"type":"Point","coordinates":[43.522255,36.589241]}},{"type":"Feature","id":"osm-node-11656222645-convenience","properties":{"id":"osm-node-11656222645-convenience","name":"froshgaha harem","kind":"poi","tier":"poi_detail","priority":50.1,"context":"دوکانی نزیک","category":"دوکانی نزیک"},"geometry":{"type":"Point","coordinates":[43.698669,36.625576]}},{"type":"Feature","id":"osm-node-13898570201-guesthouse","properties":{"id":"osm-node-13898570201-guesthouse","name":"haji ali home","kind":"poi","tier":"poi_detail","priority":50.1,"context":"میوانخانە","category":"میوانخانە"},"geometry":{"type":"Point","coordinates":[43.7028246,36.6258435]}},{"type":"Feature","id":"osm-node-11656222373-mobile_phone_shop","properties":{"id":"osm-node-11656222373-mobile_phone_shop","name":"hama phone","kind":"poi","tier":"poi_detail","priority":50.1,"context":"دوکانی مۆبایل","category":"دوکانی مۆبایل"},"geometry":{"type":"Point","coordinates":[43.579266,36.509655]}},{"type":"Feature","id":"osm-node-10259382503-mobile_phone_shop","properties":{"id":"osm-node-10259382503-mobile_phone_shop","name":"hamodi phone","kind":"poi","tier":"poi_detail","priority":50.1,"context":"دوکانی مۆبایل","category":"دوکانی مۆبایل"},"geometry":{"type":"Point","coordinates":[43.5283906,36.6388474]}},{"type":"Feature","id":"osm-node-11656222423-mobile_phone_shop","properties":{"id":"osm-node-11656222423-mobile_phone_shop","name":"karam phone","kind":"poi","tier":"poi_detail","priority":50.1,"context":"دوکانی مۆبایل","category":"دوکانی مۆبایل"},"geometry":{"type":"Point","coordinates":[43.699131,36.624653]}},{"type":"Feature","id":"osm-node-11656222369-mobile_phone_shop","properties":{"id":"osm-node-11656222369-mobile_phone_shop","name":"mirani phone","kind":"poi","tier":"poi_detail","priority":50.1,"context":"دوکانی مۆبایل","category":"دوکانی مۆبایل"},"geometry":{"type":"Point","coordinates":[43.622086,36.687344]}},{"type":"Feature","id":"osm-node-12135773124-mobile_phone_shop","properties":{"id":"osm-node-12135773124-mobile_phone_shop","name":"sdeq bakr bag","kind":"poi","tier":"poi_detail","priority":50.1,"context":"دوکانی مۆبایل","category":"دوکانی مۆبایل"},"geometry":{"type":"Point","coordinates":[43.6989185,36.6198739]}},{"type":"Feature","id":"osm-node-13785869932-park","properties":{"id":"osm-node-13785869932-park","name":"Çêmê Goranka Mazn","kind":"poi","tier":"poi_detail","priority":50.1,"context":"پارک","category":"پارک"},"geometry":{"type":"Point","coordinates":[43.7304181,36.7434733]}},{"type":"Feature","id":"osm-node-13785869933-park","properties":{"id":"osm-node-13785869933-park","name":"Çêmê Goranka Mazn","kind":"poi","tier":"poi_detail","priority":50.1,"context":"پارک","category":"پارک"},"geometry":{"type":"Point","coordinates":[43.7282079,36.7419946]}},{"type":"Feature","id":"osm-node-13785869934-park","properties":{"id":"osm-node-13785869934-park","name":"Çêmê Goranka Mazn","kind":"poi","tier":"poi_detail","priority":50.1,"context":"پارک","category":"پارک"},"geometry":{"type":"Point","coordinates":[43.7255794,36.7403181]}},{"type":"Feature","id":"osm-node-13785869935-park","properties":{"id":"osm-node-13785869935-park","name":"Çêmê Goranka Mazn","kind":"poi","tier":"poi_detail","priority":50.1,"context":"پارک","category":"پارک"},"geometry":{"type":"Point","coordinates":[43.7222427,36.7389596]}},{"type":"Feature","id":"osm-node-13785869936-park","properties":{"id":"osm-node-13785869936-park","name":"Çêmê Goranka Mazn","kind":"poi","tier":"poi_detail","priority":50.1,"context":"پارک","category":"پارک"},"geometry":{"type":"Point","coordinates":[43.7189704,36.7373948]}},{"type":"Feature","id":"osm-node-13785869937-park","properties":{"id":"osm-node-13785869937-park","name":"Çêmê Goranka Mazn","kind":"poi","tier":"poi_detail","priority":50.1,"context":"پارک","category":"پارک"},"geometry":{"type":"Point","coordinates":[43.7152153,36.73583]}},{"type":"Feature","id":"osm-node-13785869938-park","properties":{"id":"osm-node-13785869938-park","name":"Çêmê Goranka Mazn","kind":"poi","tier":"poi_detail","priority":50.1,"context":"پارک","category":"پارک"},"geometry":{"type":"Point","coordinates":[43.7251931,36.7392433]}},{"type":"Feature","id":"osm-node-13785869939-park","properties":{"id":"osm-node-13785869939-park","name":"Çêmê Goranka Mazn","kind":"poi","tier":"poi_detail","priority":50.1,"context":"پارک","category":"پارک"},"geometry":{"type":"Point","coordinates":[43.726781,36.7415561]}},{"type":"Feature","id":"osm-node-13785869940-park","properties":{"id":"osm-node-13785869940-park","name":"Çêmê Goranka Mazn","kind":"poi","tier":"poi_detail","priority":50.1,"context":"پارک","category":"پارک"},"geometry":{"type":"Point","coordinates":[43.7293023,36.7412982]}},{"type":"Feature","id":"osm-node-13785869941-park","properties":{"id":"osm-node-13785869941-park","name":"Çêmê Goranka Mazn","kind":"poi","tier":"poi_detail","priority":50.1,"context":"پارک","category":"پارک"},"geometry":{"type":"Point","coordinates":[43.72098,36.738107]}},{"type":"Feature","id":"osm-node-6488419102-water_mill","properties":{"id":"osm-node-6488419102-water_mill","name":"ئاشێ برنجێ کوردی","kind":"poi","tier":"poi_detail","priority":50.1,"context":"ئاشی ئاو","category":"ئاشی ئاو"},"geometry":{"type":"Point","coordinates":[43.5999212,36.6623434]}},{"type":"Feature","id":"osm-node-9913737617-telephone","properties":{"id":"osm-node-9913737617-telephone","name":"ئێزی ستۆر 2","kind":"poi","tier":"poi_detail","priority":50.1,"context":"تەلەفۆنی گشتی","category":"تەلەفۆنی گشتی"},"geometry":{"type":"Point","coordinates":[43.5269408,36.582873]}},{"type":"Feature","id":"osm-node-11959223369-guesthouse","properties":{"id":"osm-node-11959223369-guesthouse","name":"ابو عزیز","kind":"poi","tier":"poi_detail","priority":50.1,"context":"میوانخانە","category":"میوانخانە"},"geometry":{"type":"Point","coordinates":[43.5913722,36.5121321]}},{"type":"Feature","id":"osm-node-7848573385-car_rental","properties":{"id":"osm-node-7848573385-car_rental","name":"اشرف بلیش السیارات","kind":"poi","tier":"poi_detail","priority":50.1,"context":"کرێی ئۆتۆمبیل","category":"کرێی ئۆتۆمبیل"},"geometry":{"type":"Point","coordinates":[43.5811384,36.5030607]}},{"type":"Feature","id":"osm-node-2488235801-sports_centre","properties":{"id":"osm-node-2488235801-sports_centre","name":"المصایف","kind":"poi","tier":"poi_detail","priority":50.1,"context":"ناوەندی وەرزش","category":"ناوەندی وەرزش"},"geometry":{"type":"Point","coordinates":[43.5832794,36.7498367]}},{"type":"Feature","id":"osm-node-11348259469-mobile_phone_shop","properties":{"id":"osm-node-11348259469-mobile_phone_shop","name":"بابا فون","kind":"poi","tier":"poi_detail","priority":50.1,"context":"دوکانی مۆبایل","category":"دوکانی مۆبایل"},"geometry":{"type":"Point","coordinates":[43.5261809,36.5859761]}},{"type":"Feature","id":"osm-node-7969032885-mobile_phone_shop","properties":{"id":"osm-node-7969032885-mobile_phone_shop","name":"بژار سەنتەر","kind":"poi","tier":"poi_detail","priority":50.1,"context":"دوکانی مۆبایل","category":"دوکانی مۆبایل"},"geometry":{"type":"Point","coordinates":[43.7006779,36.6229191]}},{"type":"Feature","id":"osm-node-7188559688-car_rental","properties":{"id":"osm-node-7188559688-car_rental","name":"بیشانگای اتومبیل٪","kind":"poi","tier":"poi_detail","priority":50.1,"context":"کرێی ئۆتۆمبیل","category":"کرێی ئۆتۆمبیل"},"geometry":{"type":"Point","coordinates":[43.6977934,36.610257]}},{"type":"Feature","id":"osm-node-8408780317-car_rental","properties":{"id":"osm-node-8408780317-car_rental","name":"بیشانگای ڕۆژ بۆ کڕین و؟فڕۆشتنی ئوتومبیل٪","kind":"poi","tier":"poi_detail","priority":50.1,"context":"کرێی ئۆتۆمبیل","category":"کرێی ئۆتۆمبیل"},"geometry":{"type":"Point","coordinates":[43.7040342,36.6145716]}},{"type":"Feature","id":"osm-node-6859765486-car_rental","properties":{"id":"osm-node-6859765486-car_rental","name":"بیشانگای کرین و فروشتنی اوتومبیل","kind":"poi","tier":"poi_detail","priority":50.1,"context":"کرێی ئۆتۆمبیل","category":"کرێی ئۆتۆمبیل"},"geometry":{"type":"Point","coordinates":[43.5701651,36.5114421]}},{"type":"Feature","id":"osm-node-11173636518-mobile_phone_shop","properties":{"id":"osm-node-11173636518-mobile_phone_shop","name":"تاج موبايل","kind":"poi","tier":"poi_detail","priority":50.1,"context":"دوکانی مۆبایل","category":"دوکانی مۆبایل"},"geometry":{"type":"Point","coordinates":[43.5268264,36.6375043]}},{"type":"Feature","id":"osm-node-10209838817-mobile_phone_shop","properties":{"id":"osm-node-10209838817-mobile_phone_shop","name":"جاسم فۆن","kind":"poi","tier":"poi_detail","priority":50.1,"context":"دوکانی مۆبایل","category":"دوکانی مۆبایل"},"geometry":{"type":"Point","coordinates":[43.5854153,36.5023163]}},{"type":"Feature","id":"osm-node-9850614317-clothes","properties":{"id":"osm-node-9850614317-clothes","name":"جان شوو","kind":"poi","tier":"poi_detail","priority":50.1,"context":"جلوبەرگ فرۆشی","category":"جلوبەرگ فرۆشی"},"geometry":{"type":"Point","coordinates":[43.587443,36.5032501]}},{"type":"Feature","id":"osm-node-6916167386-clothes","properties":{"id":"osm-node-6916167386-clothes","name":"جلو بەرگین خالد","kind":"poi","tier":"poi_detail","priority":50.1,"context":"جلوبەرگ فرۆشی","category":"جلوبەرگ فرۆشی"},"geometry":{"type":"Point","coordinates":[43.5243531,36.6357933]}},{"type":"Feature","id":"osm-node-6711629688-viewpoint","properties":{"id":"osm-node-6711629688-viewpoint","name":"جم","kind":"poi","tier":"poi_detail","priority":50.1,"context":"شوێنی سەیران","category":"شوێنی سەیران"},"geometry":{"type":"Point","coordinates":[43.5226271,36.5192997]}},{"type":"Feature","id":"osm-node-13968518009-graveyard","properties":{"id":"osm-node-13968518009-graveyard","name":"جمات نیاووک القدیم","kind":"poi","tier":"poi_detail","priority":50.1,"context":"قەبرستان","category":"قەبرستان"},"geometry":{"type":"Point","coordinates":[43.700474,36.7390262]}},{"type":"Feature","id":"osm-node-4788732321-convenience","properties":{"id":"osm-node-4788732321-convenience","name":"جهی بابی موسی","kind":"poi","tier":"poi_detail","priority":50.1,"context":"دوکانی نزیک","category":"دوکانی نزیک"},"geometry":{"type":"Point","coordinates":[43.7019575,36.6213961]}},{"type":"Feature","id":"osm-node-4802143127-convenience","properties":{"id":"osm-node-4802143127-convenience","name":"جهی بابی موسی","kind":"poi","tier":"poi_detail","priority":50.1,"context":"دوکانی نزیک","category":"دوکانی نزیک"},"geometry":{"type":"Point","coordinates":[43.7017233,36.6219761]}},{"type":"Feature","id":"osm-node-5586975221-memorial","properties":{"id":"osm-node-5586975221-memorial","name":"جهێ پێڤەخاندنێ ملا میکائیل هرکی","kind":"poi","tier":"poi_detail","priority":50.1,"context":"یادەوەری","category":"یادەوەری"},"geometry":{"type":"Point","coordinates":[43.7033217,36.6189713]}},{"type":"Feature","id":"osm-node-6438772085-beauty_shop","properties":{"id":"osm-node-6438772085-beauty_shop","name":"جوانکاری","kind":"poi","tier":"poi_detail","priority":50.1,"context":"جوانکاری","category":"جوانکاری"},"geometry":{"type":"Point","coordinates":[43.523221,36.6398174]}},{"type":"Feature","id":"osm-node-6438771585-beauty_shop","properties":{"id":"osm-node-6438771585-beauty_shop","name":"جوانکاریا شاگول","kind":"poi","tier":"poi_detail","priority":50.1,"context":"جوانکاری","category":"جوانکاری"},"geometry":{"type":"Point","coordinates":[43.5228545,36.6393541]}},{"type":"Feature","id":"osm-node-10606379705-guesthouse","properties":{"id":"osm-node-10606379705-guesthouse","name":"حجی صالح رمضان","kind":"poi","tier":"poi_detail","priority":50.1,"context":"میوانخانە","category":"میوانخانە"},"geometry":{"type":"Point","coordinates":[43.52391,36.6401089]}},{"type":"Feature","id":"osm-node-4289349793-drinking_water","properties":{"id":"osm-node-4289349793-drinking_water","name":"حسن بدو","kind":"poi","tier":"poi_detail","priority":50.1,"context":"ئاوی خواردنەوە","category":"ئاوی خواردنەوە"},"geometry":{"type":"Point","coordinates":[43.6750956,36.6254837]}},{"type":"Feature","id":"osm-node-8724995317-beauty_shop","properties":{"id":"osm-node-8724995317-beauty_shop","name":"حلاق بهزاد٪","kind":"poi","tier":"poi_detail","priority":50.1,"context":"جوانکاری","category":"جوانکاری"},"geometry":{"type":"Point","coordinates":[43.5813365,36.5027832]}},{"type":"Feature","id":"osm-node-5933158685-viewpoint","properties":{"id":"osm-node-5933158685-viewpoint","name":"خراب شاه","kind":"poi","tier":"poi_detail","priority":50.1,"context":"شوێنی سەیران","category":"شوێنی سەیران"},"geometry":{"type":"Point","coordinates":[43.6551176,36.7189686]}},{"type":"Feature","id":"osm-node-5933157586-castle","properties":{"id":"osm-node-5933157586-castle","name":"ده فه را هه رکیا","kind":"poi","tier":"poi_detail","priority":50.1,"context":"قەڵا","category":"قەڵا"},"geometry":{"type":"Point","coordinates":[43.7141208,36.6985603]}},{"type":"Feature","id":"osm-node-4736114226-community_centre","properties":{"id":"osm-node-4736114226-community_centre","name":"دووریانی چه مه","kind":"poi","tier":"poi_detail","priority":50.1,"context":"ناوەندی کۆمەڵایەتی","category":"ناوەندی کۆمەڵایەتی"},"geometry":{"type":"Point","coordinates":[43.7033524,36.6184671]}},{"type":"Feature","id":"osm-node-6916720685-doctors","properties":{"id":"osm-node-6916720685-doctors","name":"دکتور خورشید","kind":"poi","tier":"poi_detail","priority":50.1,"context":"ناوەندی پزیشکی","category":"ناوەندی پزیشکی"},"geometry":{"type":"Point","coordinates":[43.5241418,36.6361581]}},{"type":"Feature","id":"osm-node-11210345837-guesthouse","properties":{"id":"osm-node-11210345837-guesthouse","name":"دیوخان گربدو","kind":"poi","tier":"poi_detail","priority":50.1,"context":"میوانخانە","category":"میوانخانە"},"geometry":{"type":"Point","coordinates":[43.7039496,36.5311177]}},{"type":"Feature","id":"osm-node-10563048553-guesthouse","properties":{"id":"osm-node-10563048553-guesthouse","name":"سکن انور بیهی","kind":"poi","tier":"poi_detail","priority":50.1,"context":"میوانخانە","category":"میوانخانە"},"geometry":{"type":"Point","coordinates":[43.5227415,36.635314]}},{"type":"Feature","id":"osm-node-5115888421-hairdresser","properties":{"id":"osm-node-5115888421-hairdresser","name":"سەرتاشخانەی ئەبو شەهاب","kind":"poi","tier":"poi_detail","priority":50.1,"context":"سەرتاشخانە","category":"سەرتاشخانە"},"geometry":{"type":"Point","coordinates":[43.6002791,36.6610347]}},{"type":"Feature","id":"osm-node-10292681681-mobile_phone_shop","properties":{"id":"osm-node-10292681681-mobile_phone_shop","name":"شاه","kind":"poi","tier":"poi_detail","priority":50.1,"context":"دوکانی مۆبایل","category":"دوکانی مۆبایل"},"geometry":{"type":"Point","coordinates":[43.5301622,36.6380569]}},{"type":"Feature","id":"osm-node-7180611186-computer_shop","properties":{"id":"osm-node-7180611186-computer_shop","name":"شوێنی بۆتان","kind":"poi","tier":"poi_detail","priority":50.1,"context":"دوکانی کۆمپیوتەر","category":"دوکانی کۆمپیوتەر"},"geometry":{"type":"Point","coordinates":[43.5822834,36.5027099]}},{"type":"Feature","id":"osm-node-8146680217-computer_shop","properties":{"id":"osm-node-8146680217-computer_shop","name":"شوێنی زەید","kind":"poi","tier":"poi_detail","priority":50.1,"context":"دوکانی کۆمپیوتەر","category":"دوکانی کۆمپیوتەر"},"geometry":{"type":"Point","coordinates":[43.5838242,36.5023742]}},{"type":"Feature","id":"osm-node-6551939386-department_store","properties":{"id":"osm-node-6551939386-department_store","name":"شوێنی سید کاظم","kind":"poi","tier":"poi_detail","priority":50.1,"context":"فرۆشگای گەورە","category":"فرۆشگای گەورە"},"geometry":{"type":"Point","coordinates":[43.5830101,36.5026953]}},{"type":"Feature","id":"osm-node-11879315780-cafe","properties":{"id":"osm-node-11879315780-cafe","name":"شيرينى صالح","kind":"poi","tier":"poi_detail","priority":50.1,"context":"کافێ","category":"کافێ"},"geometry":{"type":"Point","coordinates":[43.5694945,36.5039923]}},{"type":"Feature","id":"osm-node-13411662903-mobile_phone_shop","properties":{"id":"osm-node-13411662903-mobile_phone_shop","name":"شیمال فون","kind":"poi","tier":"poi_detail","priority":50.1,"context":"دوکانی مۆبایل","category":"دوکانی مۆبایل"},"geometry":{"type":"Point","coordinates":[43.60053,36.6978431]}},{"type":"Feature","id":"osm-node-6919549186-beauty_shop","properties":{"id":"osm-node-6919549186-beauty_shop","name":"صالون سراب بوجوانکاری خانمانی بوک٪٪٪","kind":"poi","tier":"poi_detail","priority":50.1,"context":"جوانکاری","category":"جوانکاری"},"geometry":{"type":"Point","coordinates":[43.5795411,36.5064503]}},{"type":"Feature","id":"osm-node-7939273485-bakery","properties":{"id":"osm-node-7939273485-bakery","name":"صمون خانەی وولات","kind":"poi","tier":"poi_detail","priority":50.1,"context":"نانەواخانە","category":"نانەواخانە"},"geometry":{"type":"Point","coordinates":[43.592601,36.5009162]}},{"type":"Feature","id":"osm-node-6614197087-artwork","properties":{"id":"osm-node-6614197087-artwork","name":"صیناعەی کەون /بەردەرەش!!","kind":"poi","tier":"poi_detail","priority":50.1,"context":"هونەری گشتی","category":"هونەری گشتی"},"geometry":{"type":"Point","coordinates":[43.5922855,36.5013964]}},{"type":"Feature","id":"osm-node-6673507782-memorial","properties":{"id":"osm-node-6673507782-memorial","name":"عامر کاکەیی","kind":"poi","tier":"poi_detail","priority":50.1,"context":"یادەوەری","category":"یادەوەری"},"geometry":{"type":"Point","coordinates":[43.5607916,36.6456558]}},{"type":"Feature","id":"osm-node-7257898685-doctors","properties":{"id":"osm-node-7257898685-doctors","name":"عیادەی دکتور خضر٪","kind":"poi","tier":"poi_detail","priority":50.1,"context":"ناوەندی پزیشکی","category":"ناوەندی پزیشکی"},"geometry":{"type":"Point","coordinates":[43.5869524,36.5006469]}},{"type":"Feature","id":"osm-node-4284096895-clothes","properties":{"id":"osm-node-4284096895-clothes","name":"فلاح سعید برزناری","kind":"poi","tier":"poi_detail","priority":50.1,"context":"جلوبەرگ فرۆشی","category":"جلوبەرگ فرۆشی"},"geometry":{"type":"Point","coordinates":[43.6279642,36.6866606]}},{"type":"Feature","id":"osm-node-4480828389-sports_shop","properties":{"id":"osm-node-4480828389-sports_shop","name":"فەیسەل مزوری","kind":"poi","tier":"poi_detail","priority":50.1,"context":"فرۆشگای کەلوپەلی وەرزشی","category":"فرۆشگای کەلوپەلی وەرزشی"},"geometry":{"type":"Point","coordinates":[43.5718479,36.6491742]}},{"type":"Feature","id":"osm-node-4798795121-viewpoint","properties":{"id":"osm-node-4798795121-viewpoint","name":"قسروک","kind":"poi","tier":"poi_detail","priority":50.1,"context":"شوێنی سەیران","category":"شوێنی سەیران"},"geometry":{"type":"Point","coordinates":[43.5970044,36.6985516]}},