{"type":"FeatureCollection","features":[{"type":"Feature","id":"osm-node-12141966389","properties":{"id":"osm-node-12141966389","name":"ئستەنگین","kind":"village","tier":"locality","priority":300,"context":"شێخان · نەینەوا","category":"گوند"},"geometry":{"type":"Point","coordinates":[43.5872499,36.8143908]}},{"type":"Feature","id":"osm-node-2488235811","properties":{"id":"osm-node-2488235811","name":"ئیسماڤا","kind":"village","tier":"locality","priority":300,"context":"ئاکرێ · نەینەوا","category":"گوند"},"geometry":{"type":"Point","coordinates":[43.6541821,36.8073054]}},{"type":"Feature","id":"geonames-445761","properties":{"id":"geonames-445761","name":"باجرە مرۆ","kind":"village","tier":"locality","priority":300,"context":"ئاکرێ · نەینەوا","category":"گوند"},"geometry":{"type":"Point","coordinates":[43.64245,36.77356]}},{"type":"Feature","id":"osm-node-12142052824","properties":{"id":"osm-node-12142052824","name":"باسکەدێر","kind":"village","tier":"locality","priority":300,"context":"شێخان · نەینەوا","category":"گوند"},"geometry":{"type":"Point","coordinates":[43.5365689,36.8196834]}},{"type":"Feature","id":"osm-node-2488235841","properties":{"id":"osm-node-2488235841","name":"باقسپێ","kind":"village","tier":"locality","priority":300,"context":"ئاکرێ · نەینەوا","category":"گوند"},"geometry":{"type":"Point","coordinates":[43.6599205,36.7917493]}},{"type":"Feature","id":"osm-node-2488235847","properties":{"id":"osm-node-2488235847","name":"باژێرەی ژووری","kind":"village","tier":"locality","priority":300,"context":"ئاکرێ · نەینەوا","category":"گوند"},"geometry":{"type":"Point","coordinates":[43.6421371,36.7736151]}},{"type":"Feature","id":"osm-node-2488235858","properties":{"id":"osm-node-2488235858","name":"باژێرەی ژێری","kind":"village","tier":"locality","priority":300,"context":"ئاکرێ · نەینەوا","category":"گوند"},"geometry":{"type":"Point","coordinates":[43.647563,36.7562462]}},{"type":"Feature","id":"osm-node-2482503313","properties":{"id":"osm-node-2482503313","name":"باکرمان","kind":"village","tier":"locality","priority":300,"context":"ئامێدی · دهۆک","category":"گوند"},"geometry":{"type":"Point","coordinates":[43.6757477,36.8257485]}},{"type":"Feature","id":"geonames-445851","properties":{"id":"geonames-445851","name":"برمۆی","kind":"village","tier":"locality","priority":300,"context":"ئاکرێ · نەینەوا","category":"گوند"},"geometry":{"type":"Point","coordinates":[43.72756,36.87844]}},{"type":"Feature","id":"osm-way-841794064","properties":{"id":"osm-way-841794064","name":"بلمندی","kind":"village","tier":"locality","priority":300,"context":"ئامێدی · دهۆک","category":"گوند"},"geometry":{"type":"Point","coordinates":[43.67313048368403,36.86176375]}},{"type":"Feature","id":"geonames-97588","properties":{"id":"geonames-97588","name":"بی","kind":"village","tier":"locality","priority":300,"context":"ئامێدی · دهۆک","category":"گوند"},"geometry":{"type":"Point","coordinates":[43.54044,36.98694]}},{"type":"Feature","id":"osm-node-2482503315","properties":{"id":"osm-node-2482503315","name":"بێرمەویێ","kind":"village","tier":"locality","priority":300,"context":"ئاکرێ · نەینەوا","category":"گوند"},"geometry":{"type":"Point","coordinates":[43.727458,36.881629]}},{"type":"Feature","id":"geonames-445879","properties":{"id":"geonames-445879","name":"جەمشینی","kind":"village","tier":"locality","priority":300,"context":"ئامێدی · دهۆک","category":"گوند"},"geometry":{"type":"Point","coordinates":[43.7113,36.90901]}},{"type":"Feature","id":"osm-node-2488236195","properties":{"id":"osm-node-2488236195","name":"خئیلافت","kind":"village","tier":"locality","priority":300,"context":"ئاکرێ · نەینەوا","category":"گوند"},"geometry":{"type":"Point","coordinates":[43.6849017,36.804067]}},{"type":"Feature","id":"osm-node-2488248116","properties":{"id":"osm-node-2488248116","name":"خبە","kind":"village","tier":"locality","priority":300,"context":"ئامێدی · دهۆک","category":"گوند"},"geometry":{"type":"Point","coordinates":[43.5882587,36.8837817]}},{"type":"Feature","id":"osm-node-9520462636","properties":{"id":"osm-node-9520462636","name":"خرابا شەرەفا","kind":"village","tier":"locality","priority":300,"context":"شێخان · نەینەوا","category":"گوند"},"geometry":{"type":"Point","coordinates":[43.5300763,36.7680539]}},{"type":"Feature","id":"osm-node-12143589060","properties":{"id":"osm-node-12143589060","name":"خورتا بچیک","kind":"village","tier":"locality","priority":300,"context":"شێخان · نەینەوا","category":"گوند"},"geometry":{"type":"Point","coordinates":[43.6074996,36.8227056]}},{"type":"Feature","id":"osm-node-12143548057","properties":{"id":"osm-node-12143548057","name":"خورتا مەزن","kind":"village","tier":"locality","priority":300,"context":"شێخان · نەینەوا","category":"گوند"},"geometry":{"type":"Point","coordinates":[43.5935075,36.8280117]}},{"type":"Feature","id":"osm-node-2482503319","properties":{"id":"osm-node-2482503319","name":"دوپرێ","kind":"village","tier":"locality","priority":300,"context":"ئامێدی · دهۆک","category":"گوند"},"geometry":{"type":"Point","coordinates":[43.710228,36.876109]}},{"type":"Feature","id":"osm-node-12141743386","properties":{"id":"osm-node-12141743386","name":"دەکان","kind":"village","tier":"locality","priority":300,"context":"شێخان · نەینەوا","category":"گوند"},"geometry":{"type":"Point","coordinates":[43.6428766,36.8138182]}},{"type":"Feature","id":"geonames-445905","properties":{"id":"geonames-445905","name":"زرگە","kind":"village","tier":"locality","priority":300,"context":"ئامێدی · دهۆک","category":"گوند"},"geometry":{"type":"Point","coordinates":[43.64444,36.99414]}},{"type":"Feature","id":"osm-node-2482503333","properties":{"id":"osm-node-2482503333","name":"زیوکێ","kind":"village","tier":"locality","priority":300,"context":"ئامێدی · دهۆک","category":"گوند"},"geometry":{"type":"Point","coordinates":[43.721015,36.876538]}},{"type":"Feature","id":"osm-node-2488236400","properties":{"id":"osm-node-2488236400","name":"سئیلان","kind":"village","tier":"locality","priority":300,"context":"ئاکرێ · نەینەوا","category":"گوند"},"geometry":{"type":"Point","coordinates":[43.7034728,36.8000354]}},{"type":"Feature","id":"osm-node-2488237026","properties":{"id":"osm-node-2488237026","name":"سرکێ","kind":"village","tier":"locality","priority":300,"context":"ئامێدی · دهۆک","category":"گوند"},"geometry":{"type":"Point","coordinates":[43.5711943,36.9855904]}},{"type":"Feature","id":"osm-node-12143754007","properties":{"id":"osm-node-12143754007","name":"سەرکاف","kind":"village","tier":"locality","priority":300,"context":"شێخان · نەینەوا","category":"گوند"},"geometry":{"type":"Point","coordinates":[43.5503454,36.8265436]}},{"type":"Feature","id":"geonames-91075","properties":{"id":"geonames-91075","name":"شیرنە","kind":"village","tier":"locality","priority":300,"context":"ئامێدی · دهۆک","category":"گوند"},"geometry":{"type":"Point","coordinates":[43.62981,36.98951]}},{"type":"Feature","id":"osm-node-2488236430","properties":{"id":"osm-node-2488236430","name":"شەرمن","kind":"village","tier":"locality","priority":300,"context":"ئاکرێ · نەینەوا","category":"گوند"},"geometry":{"type":"Point","coordinates":[43.7263936,36.8027959]}},{"type":"Feature","id":"osm-node-2488236229","properties":{"id":"osm-node-2488236229","name":"مرێبا","kind":"village","tier":"locality","priority":300,"context":"شێخان · نەینەوا","category":"گوند"},"geometry":{"type":"Point","coordinates":[43.5203665,36.763213]}},{"type":"Feature","id":"geonames-93156","properties":{"id":"geonames-93156","name":"مسەلەکا","kind":"village","tier":"locality","priority":300,"context":"ئامێدی · دهۆک","category":"گوند"},"geometry":{"type":"Point","coordinates":[43.54965,36.878]}},{"type":"Feature","id":"osm-node-4779993222","properties":{"id":"osm-node-4779993222","name":"ملکیشان","kind":"village","tier":"locality","priority":300,"context":"شێخان · نەینەوا","category":"گوند"},"geometry":{"type":"Point","coordinates":[43.5118711,36.8056327]}},{"type":"Feature","id":"osm-node-12141732754","properties":{"id":"osm-node-12141732754","name":"میتکا ژووری","kind":"village","tier":"locality","priority":300,"context":"شێخان · نەینەوا","category":"گوند"},"geometry":{"type":"Point","coordinates":[43.5531863,36.7882126]}},{"type":"Feature","id":"osm-node-12141739422","properties":{"id":"osm-node-12141739422","name":"میتکا ژێری","kind":"village","tier":"locality","priority":300,"context":"شێخان · نەینەوا","category":"گوند"},"geometry":{"type":"Point","coordinates":[43.5654843,36.780907]}},{"type":"Feature","id":"geonames-93765","properties":{"id":"geonames-93765","name":"میلکۆشان","kind":"village","tier":"locality","priority":300,"context":"شێخان · نەینەوا","category":"گوند"},"geometry":{"type":"Point","coordinates":[43.51171,36.8061]}},{"type":"Feature","id":"osm-node-10935276152","properties":{"id":"osm-node-10935276152","name":"مێرسیدا دوو","kind":"village","tier":"locality","priority":300,"context":"شێخان · نەینەوا","category":"گوند"},"geometry":{"type":"Point","coordinates":[43.5341192,36.8243014]}},{"type":"Feature","id":"osm-node-12143879016","properties":{"id":"osm-node-12143879016","name":"مێرگەبیێ","kind":"village","tier":"locality","priority":300,"context":"شێخان · نەینەوا","category":"گوند"},"geometry":{"type":"Point","coordinates":[43.5689349,36.8169545]}},{"type":"Feature","id":"osm-node-8567378585","properties":{"id":"osm-node-8567378585","name":"نێروەک","kind":"village","tier":"locality","priority":300,"context":"ئاکرێ · نەینەوا","category":"گوند"},"geometry":{"type":"Point","coordinates":[43.6456053,36.8067486]}},{"type":"Feature","id":"osm-node-2482503325","properties":{"id":"osm-node-2482503325","name":"هیزانکێ ژۆری","kind":"village","tier":"locality","priority":300,"context":"ئامێدی · دهۆک","category":"گوند"},"geometry":{"type":"Point","coordinates":[43.685525,36.875418]}},{"type":"Feature","id":"osm-node-2482503324","properties":{"id":"osm-node-2482503324","name":"هیزانکێ ژێری","kind":"village","tier":"locality","priority":300,"context":"ئامێدی · دهۆک","category":"گوند"},"geometry":{"type":"Point","coordinates":[43.6887901,36.8622933]}},{"type":"Feature","id":"osm-node-12146274321","properties":{"id":"osm-node-12146274321","name":"پیرمادینا","kind":"village","tier":"locality","priority":300,"context":"شێخان · نەینەوا","category":"گوند"},"geometry":{"type":"Point","coordinates":[43.5630376,36.7970538]}},{"type":"Feature","id":"osm-node-12953874015","properties":{"id":"osm-node-12953874015","name":"چارچەل","kind":"village","tier":"locality","priority":300,"context":"ئاکرێ · نەینەوا","category":"گوند"},"geometry":{"type":"Point","coordinates":[43.7446938,36.7523868]}},{"type":"Feature","id":"osm-node-2479378433","properties":{"id":"osm-node-2479378433","name":"چەم سنە","kind":"village","tier":"locality","priority":300,"context":"ئاکرێ · نەینەوا","category":"گوند"},"geometry":{"type":"Point","coordinates":[43.7410825,36.8394647]}},{"type":"Feature","id":"osm-node-2488236885","properties":{"id":"osm-node-2488236885","name":"چەم شرتا","kind":"village","tier":"locality","priority":300,"context":"ئامێدی · دهۆک","category":"گوند"},"geometry":{"type":"Point","coordinates":[43.7113673,36.9090164]}},{"type":"Feature","id":"osm-node-7633098647","properties":{"id":"osm-node-7633098647","name":"چەم هەرزن","kind":"village","tier":"locality","priority":300,"context":"شێخان · نەینەوا","category":"گوند"},"geometry":{"type":"Point","coordinates":[43.6281589,36.7692062]}},{"type":"Feature","id":"geonames-91938","properties":{"id":"geonames-91938","name":"ڕدێنیا","kind":"village","tier":"locality","priority":300,"context":"ئامێدی · دهۆک","category":"گوند"},"geometry":{"type":"Point","coordinates":[43.59051,36.98727]}},{"type":"Feature","id":"osm-node-2488236386","properties":{"id":"osm-node-2488236386","name":"ڕویلک","kind":"village","tier":"locality","priority":300,"context":"شێخان · نەینەوا","category":"گوند"},"geometry":{"type":"Point","coordinates":[43.5525909,36.7770551]}},{"type":"Feature","id":"geonames-95045","properties":{"id":"geonames-95045","name":"کافیا","kind":"village","tier":"locality","priority":300,"context":"ئاکرێ · نەینەوا","category":"گوند"},"geometry":{"type":"Point","coordinates":[43.72104,36.95644]}},{"type":"Feature","id":"osm-node-12139539270","properties":{"id":"osm-node-12139539270","name":"کانی فەلا","kind":"village","tier":"locality","priority":300,"context":"شێخان · نەینەوا","category":"گوند"},"geometry":{"type":"Point","coordinates":[43.5065793,36.7549055]}},{"type":"Feature","id":"osm-node-12139618965","properties":{"id":"osm-node-12139618965","name":"کانی کول","kind":"village","tier":"locality","priority":300,"context":"شێخان · نەینەوا","category":"گوند"},"geometry":{"type":"Point","coordinates":[43.5979698,36.7643913]}},{"type":"Feature","id":"geonames-445829","properties":{"id":"geonames-445829","name":"کشکافە","kind":"village","tier":"locality","priority":300,"context":"ئامێدی · دهۆک","category":"گوند"},"geometry":{"type":"Point","coordinates":[43.70218,36.84883]}},{"type":"Feature","id":"geonames-445821","properties":{"id":"geonames-445821","name":"کفرە","kind":"village","tier":"locality","priority":300,"context":"شێخان · نەینەوا","category":"گوند"},"geometry":{"type":"Point","coordinates":[43.58741,36.81442]}},{"type":"Feature","id":"osm-way-966216856","properties":{"id":"osm-way-966216856","name":"کوپێ","kind":"village","tier":"locality","priority":300,"context":"شێخان · نەینەوا","category":"گوند"},"geometry":{"type":"Point","coordinates":[43.568129076915824,36.76706445]}},{"type":"Feature","id":"osm-node-2482500620","properties":{"id":"osm-node-2482500620","name":"کێریا","kind":"village","tier":"locality","priority":300,"context":"ئامێدی · دهۆک","category":"گوند"},"geometry":{"type":"Point","coordinates":[43.6464056,36.9687712]}},{"type":"Feature","id":"osm-node-2482503327","properties":{"id":"osm-node-2482503327","name":"کەشکاڤا","kind":"village","tier":"locality","priority":300,"context":"ئامێدی · دهۆک","category":"گوند"},"geometry":{"type":"Point","coordinates":[43.7127732,36.864986]}},{"type":"Feature","id":"osm-node-2488236181","properties":{"id":"osm-node-2488236181","name":"کەمێ","kind":"village","tier":"locality","priority":300,"context":"شێخان · نەینەوا","category":"گوند"},"geometry":{"type":"Point","coordinates":[43.533612,36.7502047]}},{"type":"Feature","id":"osm-node-7634327075","properties":{"id":"osm-node-7634327075","name":"کەندێ","kind":"village","tier":"locality","priority":300,"context":"شێخان · نەینەوا","category":"گوند"},"geometry":{"type":"Point","coordinates":[43.6338976,36.7842473]}},{"type":"Feature","id":"osm-node-4779993224","properties":{"id":"osm-node-4779993224","name":"کەڤرە سۆر","kind":"village","tier":"locality","priority":300,"context":"شێخان · نەینەوا","category":"گوند"},"geometry":{"type":"Point","coordinates":[43.5583218,36.7783591]}},{"type":"Feature","id":"osm-node-7633054630","properties":{"id":"osm-node-7633054630","name":"گورانکا مام شیخا","kind":"village","tier":"locality","priority":300,"context":"ئاکرێ · نەینەوا","category":"گوند"},"geometry":{"type":"Point","coordinates":[43.7304052,36.7500387]}},{"type":"Feature","id":"osm-node-12141744035","properties":{"id":"osm-node-12141744035","name":"گڤارا","kind":"village","tier":"locality","priority":300,"context":"شێخان · نەینەوا","category":"گوند"},"geometry":{"type":"Point","coordinates":[43.6013756,36.8135476]}},{"type":"Feature","id":"osm-node-12046804569","properties":{"id":"osm-node-12046804569","name":"یەکماڵە","kind":"village","tier":"locality","priority":300,"context":"ئاکرێ · نەینەوا","category":"گوند"},"geometry":{"type":"Point","coordinates":[43.6679192,36.9655197]}},{"type":"Feature","id":"osm-natural-stream-f544c5dc87e9bd","properties":{"id":"osm-natural-stream-f544c5dc87e9bd","name":"Av-a Habari","kind":"natural","tier":"natural","priority":180,"context":"جۆگە · العمادية · دهۆک","category":"جۆگە"},"geometry":{"type":"Point","coordinates":[43.56361,36.92722]}},{"type":"Feature","id":"osm-natural-stream-a49658a53a3bc9","properties":{"id":"osm-natural-stream-a49658a53a3bc9","name":"Av-e Karaf","kind":"natural","tier":"natural","priority":180,"context":"جۆگە · العمادية · دهۆک","category":"جۆگە"},"geometry":{"type":"Point","coordinates":[43.57472,36.92667]}},{"type":"Feature","id":"osm-natural-stream-7555eb3fb970ca","properties":{"id":"osm-natural-stream-7555eb3fb970ca","name":"Av-e Shikhar","kind":"natural","tier":"natural","priority":180,"context":"جۆگە · العمادية · دهۆک","category":"جۆگە"},"geometry":{"type":"Point","coordinates":[43.56333,36.92778]}},{"type":"Feature","id":"osm-natural-stream-25001a8777d632","properties":{"id":"osm-natural-stream-25001a8777d632","name":"Barah Shawr","kind":"natural","tier":"natural","priority":180,"context":"جۆگە · العمادية · دهۆک","category":"جۆگە"},"geometry":{"type":"Point","coordinates":[43.66667,36.85]}},{"type":"Feature","id":"osm-natural-valley-56627f9192bd75","properties":{"id":"osm-natural-valley-56627f9192bd75","name":"Chamshert Valley","kind":"natural","tier":"natural","priority":180,"context":"دۆڵ · العمادية · دهۆک","category":"دۆڵ"},"geometry":{"type":"Point","coordinates":[43.72245,36.92368]}},{"type":"Feature","id":"osm-natural-mountain_pass-88ea905f3f5746","properties":{"id":"osm-natural-mountain_pass-88ea905f3f5746","name":"Chem-i Shirine","kind":"natural","tier":"natural","priority":180,"context":"دەروازەی شاخ · العمادية · دهۆک","category":"دەروازەی شاخ"},"geometry":{"type":"Point","coordinates":[43.64917,36.97056]}},{"type":"Feature","id":"osm-natural-mountain-cb292de0cde896","properties":{"id":"osm-natural-mountain-cb292de0cde896","name":"Chiya Kira Dagh","kind":"natural","tier":"natural","priority":180,"context":"شاخ · العمادية · دهۆک","category":"شاخ"},"geometry":{"type":"Point","coordinates":[43.51667,36.85]}},{"type":"Feature","id":"osm-natural-mountain-159c5242d1c3de","properties":{"id":"osm-natural-mountain-159c5242d1c3de","name":"Chiya-e Khosho","kind":"natural","tier":"natural","priority":180,"context":"شاخ · العمادية · دهۆک","category":"شاخ"},"geometry":{"type":"Point","coordinates":[43.61472,36.88139]}},{"type":"Feature","id":"osm-natural-mountain-9de93510aec7c5","properties":{"id":"osm-natural-mountain-9de93510aec7c5","name":"Chiya-e Toba","kind":"natural","tier":"natural","priority":180,"context":"شاخ · ئاکرێ · نەینەوا","category":"شاخ"},"geometry":{"type":"Point","coordinates":[43.685,36.96333]}},{"type":"Feature","id":"osm-natural-valley-87173d80b978b8","properties":{"id":"osm-natural-valley-87173d80b978b8","name":"Dol-e Ash-e Ashah","kind":"natural","tier":"natural","priority":180,"context":"دۆڵ · العمادية · دهۆک","category":"دۆڵ"},"geometry":{"type":"Point","coordinates":[43.52889,36.88139]}},{"type":"Feature","id":"osm-natural-valley-3a2361e920aea5","properties":{"id":"osm-natural-valley-3a2361e920aea5","name":"Dol-e Bile","kind":"natural","tier":"natural","priority":180,"context":"دۆڵ · العمادية · دهۆک","category":"دۆڵ"},"geometry":{"type":"Point","coordinates":[43.505,36.90583]}},{"type":"Feature","id":"osm-natural-valley-d49e3a32e5e29e","properties":{"id":"osm-natural-valley-d49e3a32e5e29e","name":"Dol-e Garmokala","kind":"natural","tier":"natural","priority":180,"context":"دۆڵ · ئاکرێ · نەینەوا","category":"دۆڵ"},"geometry":{"type":"Point","coordinates":[43.64889,36.75611]}},{"type":"Feature","id":"osm-natural-valley-31323a904bda78","properties":{"id":"osm-natural-valley-31323a904bda78","name":"Dol-e Kan","kind":"natural","tier":"natural","priority":180,"context":"دۆڵ · العمادية · دهۆک","category":"دۆڵ"},"geometry":{"type":"Point","coordinates":[43.51611,36.89694]}},{"type":"Feature","id":"osm-natural-valley-fcb508b94c0c44","properties":{"id":"osm-natural-valley-fcb508b94c0c44","name":"Dol-e Kani Binesa","kind":"natural","tier":"natural","priority":180,"context":"دۆڵ · ئاکرێ · نەینەوا","category":"دۆڵ"},"geometry":{"type":"Point","coordinates":[43.72861,36.93778]}},{"type":"Feature","id":"osm-natural-valley-9c7da5479867bb","properties":{"id":"osm-natural-valley-9c7da5479867bb","name":"Dol-e Mazuna","kind":"natural","tier":"natural","priority":180,"context":"دۆڵ · ئاکرێ · نەینەوا","category":"دۆڵ"},"geometry":{"type":"Point","coordinates":[43.72972,36.94083]}},{"type":"Feature","id":"osm-natural-valley-17892728a16028","properties":{"id":"osm-natural-valley-17892728a16028","name":"Dol-e Palawa","kind":"natural","tier":"natural","priority":180,"context":"دۆڵ · العمادية · دهۆک","category":"دۆڵ"},"geometry":{"type":"Point","coordinates":[43.55139,36.88472]}},{"type":"Feature","id":"osm-natural-valley-9ce7c1b704c4b8","properties":{"id":"osm-natural-valley-9ce7c1b704c4b8","name":"Dol-e Sarki","kind":"natural","tier":"natural","priority":180,"context":"دۆڵ · العمادية · دهۆک","category":"دۆڵ"},"geometry":{"type":"Point","coordinates":[43.58,36.98528]}},{"type":"Feature","id":"osm-natural-mountain_pass-dcc5fa1b1a82d3","properties":{"id":"osm-natural-mountain_pass-dcc5fa1b1a82d3","name":"Gali Ale","kind":"natural","tier":"natural","priority":180,"context":"دەروازەی شاخ · العمادية · دهۆک","category":"دەروازەی شاخ"},"geometry":{"type":"Point","coordinates":[43.65639,36.98194]}},{"type":"Feature","id":"osm-natural-stream-c41c22ce74e0f0","properties":{"id":"osm-natural-stream-c41c22ce74e0f0","name":"Gali Argin","kind":"natural","tier":"natural","priority":180,"context":"جۆگە · العمادية · دهۆک","category":"جۆگە"},"geometry":{"type":"Point","coordinates":[43.62327,36.92922]}},{"type":"Feature","id":"osm-natural-mountain_pass-d1db810332d12b","properties":{"id":"osm-natural-mountain_pass-d1db810332d12b","name":"Gali Asmawi","kind":"natural","tier":"natural","priority":180,"context":"دەروازەی شاخ · العمادية · دهۆک","category":"دەروازەی شاخ"},"geometry":{"type":"Point","coordinates":[43.64833,36.85]}},{"type":"Feature","id":"osm-natural-mountain_pass-76bb29c9fbcd96","properties":{"id":"osm-natural-mountain_pass-76bb29c9fbcd96","name":"Gali Deri","kind":"natural","tier":"natural","priority":180,"context":"دەروازەی شاخ · ئاکرێ · نەینەوا","category":"دەروازەی شاخ"},"geometry":{"type":"Point","coordinates":[43.72528,36.96917]}},{"type":"Feature","id":"osm-natural-mountain_pass-349665e9fce8e9","properties":{"id":"osm-natural-mountain_pass-349665e9fce8e9","name":"Gali Khalka","kind":"natural","tier":"natural","priority":180,"context":"دەروازەی شاخ · ئاکرێ · نەینەوا","category":"دەروازەی شاخ"},"geometry":{"type":"Point","coordinates":[43.7325,36.97333]}},{"type":"Feature","id":"osm-natural-mountain_pass-42c8ae6fdc246e","properties":{"id":"osm-natural-mountain_pass-42c8ae6fdc246e","name":"Gali Khushka","kind":"natural","tier":"natural","priority":180,"context":"دەروازەی شاخ · العمادية · دهۆک","category":"دەروازەی شاخ"},"geometry":{"type":"Point","coordinates":[43.60472,36.87861]}},{"type":"Feature","id":"osm-natural-mountain_pass-bafbeab85d01d6","properties":{"id":"osm-natural-mountain_pass-bafbeab85d01d6","name":"Gali Nanlik","kind":"natural","tier":"natural","priority":180,"context":"دەروازەی شاخ · العمادية · دهۆک","category":"دەروازەی شاخ"},"geometry":{"type":"Point","coordinates":[43.62556,36.96806]}},{"type":"Feature","id":"osm-natural-mountain_pass-8dfb9ea37661b5","properties":{"id":"osm-natural-mountain_pass-8dfb9ea37661b5","name":"Gali Pubula","kind":"natural","tier":"natural","priority":180,"context":"دەروازەی شاخ · ئاکرێ · نەینەوا","category":"دەروازەی شاخ"},"geometry":{"type":"Point","coordinates":[43.73,36.9575]}},{"type":"Feature","id":"osm-natural-river-f499380df1acd0","properties":{"id":"osm-natural-river-f499380df1acd0","name":"Gali Rubarki","kind":"natural","tier":"natural","priority":180,"context":"ڕووبار · العمادية · دهۆک","category":"ڕووبار"},"geometry":{"type":"Point","coordinates":[43.70084,36.90729]}},{"type":"Feature","id":"osm-natural-mountain_pass-3f679c9d27ce10","properties":{"id":"osm-natural-mountain_pass-3f679c9d27ce10","name":"Gali Toba","kind":"natural","tier":"natural","priority":180,"context":"دەروازەی شاخ · ئاکرێ · نەینەوا","category":"دەروازەی شاخ"},"geometry":{"type":"Point","coordinates":[43.72,36.96278]}},{"type":"Feature","id":"osm-natural-mountain-5fdd2729146bfb","properties":{"id":"osm-natural-mountain-5fdd2729146bfb","name":"Gir-e Kashkava","kind":"natural","tier":"natural","priority":180,"context":"شاخ · العمادية · دهۆک","category":"شاخ"},"geometry":{"type":"Point","coordinates":[43.70944,36.85444]}},{"type":"Feature","id":"osm-natural-mountain-9ceecebf4128aa","properties":{"id":"osm-natural-mountain-9ceecebf4128aa","name":"Gir-e Sur","kind":"natural","tier":"natural","priority":180,"context":"شاخ · ئاکرێ · نەینەوا","category":"شاخ"},"geometry":{"type":"Point","coordinates":[43.73556,36.86694]}},{"type":"Feature","id":"osm-natural-mountain-9d42c26b92b0b2","properties":{"id":"osm-natural-mountain-9d42c26b92b0b2","name":"Gird-e Haftiyari","kind":"natural","tier":"natural","priority":180,"context":"شاخ · شێخان · نەینەوا","category":"شاخ"},"geometry":{"type":"Point","coordinates":[43.54389,36.75806]}},{"type":"Feature","id":"osm-natural-mountain-8250dd6ef4f7b4","properties":{"id":"osm-natural-mountain-8250dd6ef4f7b4","name":"Gird-e Khior","kind":"natural","tier":"natural","priority":180,"context":"شاخ · شێخان · نەینەوا","category":"شاخ"},"geometry":{"type":"Point","coordinates":[43.50556,36.81806]}},{"type":"Feature","id":"osm-natural-mountain-4c0cc3da571c29","properties":{"id":"osm-natural-mountain-4c0cc3da571c29","name":"Gird-e Qashan","kind":"natural","tier":"natural","priority":180,"context":"شاخ · العمادية · دهۆک","category":"شاخ"},"geometry":{"type":"Point","coordinates":[43.72444,36.83278]}},{"type":"Feature","id":"osm-natural-mountain-906d6a9e192cb3","properties":{"id":"osm-natural-mountain-906d6a9e192cb3","name":"Gird-e Talan","kind":"natural","tier":"natural","priority":180,"context":"شاخ · ئاکرێ · نەینەوا","category":"شاخ"},"geometry":{"type":"Point","coordinates":[43.74944,36.83333]}},{"type":"Feature","id":"osm-natural-mountain-0f8bbedb1a4d17","properties":{"id":"osm-natural-mountain-0f8bbedb1a4d17","name":"Jabal Garah","kind":"natural","tier":"natural","priority":180,"context":"شاخ · العمادية · دهۆک","category":"شاخ"},"geometry":{"type":"Point","coordinates":[43.58272,36.96499]}},{"type":"Feature","id":"osm-natural-mountain-9aff188ddd16ca","properties":{"id":"osm-natural-mountain-9aff188ddd16ca","name":"Jabal Tati Hisang","kind":"natural","tier":"natural","priority":180,"context":"شاخ · العمادية · دهۆک","category":"شاخ"},"geometry":{"type":"Point","coordinates":[43.66993,36.88609]}},{"type":"Feature","id":"osm-natural-mountain-acec15d5a53856","properties":{"id":"osm-natural-mountain-acec15d5a53856","name":"Kandilah 'Asi","kind":"natural","tier":"natural","priority":180,"context":"شاخ · العمادية · دهۆک","category":"شاخ"},"geometry":{"type":"Point","coordinates":[43.65,36.88333]}},{"type":"Feature","id":"osm-natural-mountain_pass-dd5b370a01bf5d","properties":{"id":"osm-natural-mountain_pass-dd5b370a01bf5d","name":"Meruke","kind":"natural","tier":"natural","priority":180,"context":"دەروازەی شاخ · العمادية · دهۆک","category":"دەروازەی شاخ"},"geometry":{"type":"Point","coordinates":[43.62453,36.8725]}},{"type":"Feature","id":"osm-natural-mountain_pass-88ed9026145299","properties":{"id":"osm-natural-mountain_pass-88ed9026145299","name":"Nizar-e Gali Bishkala","kind":"natural","tier":"natural","priority":180,"context":"دەروازەی شاخ · ئاکرێ · نەینەوا","category":"دەروازەی شاخ"},"geometry":{"type":"Point","coordinates":[43.70917,36.95667]}},{"type":"Feature","id":"osm-natural-stream-26e468f9961727","properties":{"id":"osm-natural-stream-26e468f9961727","name":"Ru Zark","kind":"natural","tier":"natural","priority":180,"context":"جۆگە · العمادية · دهۆک","category":"جۆگە"},"geometry":{"type":"Point","coordinates":[43.66667,36.85]}},{"type":"Feature","id":"osm-natural-stream-f159c30a9eac92","properties":{"id":"osm-natural-stream-f159c30a9eac92","name":"Ruzah Shawr","kind":"natural","tier":"natural","priority":180,"context":"جۆگە · العمادية · دهۆک","category":"جۆگە"},"geometry":{"type":"Point","coordinates":[43.6625,36.85417]}},{"type":"Feature","id":"osm-natural-valley-86ef804e118f6f","properties":{"id":"osm-natural-valley-86ef804e118f6f","name":"Shiv Kulki","kind":"natural","tier":"natural","priority":180,"context":"دۆڵ · العمادية · دهۆک","category":"دۆڵ"},"geometry":{"type":"Point","coordinates":[43.64083,36.98444]}},{"type":"Feature","id":"osm-natural-valley-3e94836429fe15","properties":{"id":"osm-natural-valley-3e94836429fe15","name":"Shiv-a Gir-e Sur","kind":"natural","tier":"natural","priority":180,"context":"دۆڵ · العمادية · دهۆک","category":"دۆڵ"},"geometry":{"type":"Point","coordinates":[43.71694,36.84583]}},{"type":"Feature","id":"osm-natural-valley-2f1a0b4728ff91","properties":{"id":"osm-natural-valley-2f1a0b4728ff91","name":"Shiv-a Selan","kind":"natural","tier":"natural","priority":180,"context":"دۆڵ · ئاکرێ · نەینەوا","category":"دۆڵ"},"geometry":{"type":"Point","coordinates":[43.68944,36.77]}},{"type":"Feature","id":"osm-natural-valley-22a1fa8ff1fbbf","properties":{"id":"osm-natural-valley-22a1fa8ff1fbbf","name":"Shiv-e Binako","kind":"natural","tier":"natural","priority":180,"context":"دۆڵ · ئاکرێ · نەینەوا","category":"دۆڵ"},"geometry":{"type":"Point","coordinates":[43.72639,36.94694]}},{"type":"Feature","id":"osm-natural-valley-8736ba5a5dec0e","properties":{"id":"osm-natural-valley-8736ba5a5dec0e","name":"Shiv-e Shaladi","kind":"natural","tier":"natural","priority":180,"context":"دۆڵ · ئاکرێ · نەینەوا","category":"دۆڵ"},"geometry":{"type":"Point","coordinates":[43.74306,36.905]}},{"type":"Feature","id":"osm-natural-valley-6157d0cc6f42c5","properties":{"id":"osm-natural-valley-6157d0cc6f42c5","name":"Shiva Birarash","kind":"natural","tier":"natural","priority":180,"context":"دۆڵ · ئاکرێ · نەینەوا","category":"دۆڵ"},"geometry":{"type":"Point","coordinates":[43.68,36.97306]}},{"type":"Feature","id":"osm-natural-mountain_pass-c83512b42d2fde","properties":{"id":"osm-natural-mountain_pass-c83512b42d2fde","name":"Siyan","kind":"natural","tier":"natural","priority":180,"context":"دەروازەی شاخ · العمادية · دهۆک","category":"دەروازەی شاخ"},"geometry":{"type":"Point","coordinates":[43.64639,36.93139]}},{"type":"Feature","id":"osm-natural-valley-490e1dd9b60f40","properties":{"id":"osm-natural-valley-490e1dd9b60f40","name":"Wadi Aw Gali Sidarah","kind":"natural","tier":"natural","priority":180,"context":"دۆڵ · العمادية · دهۆک","category":"دۆڵ"},"geometry":{"type":"Point","coordinates":[43.51373,36.94624]}},{"type":"Feature","id":"osm-natural-lake-70c9d81ccbc4f6","properties":{"id":"osm-natural-lake-70c9d81ccbc4f6","name":"بەنداڤا گوندێ کوپێ","kind":"natural","tier":"natural","priority":180,"context":"دەریاچە · شێخان · نەینەوا","category":"دەریاچە"},"geometry":{"type":"Point","coordinates":[43.5699397,36.7588607]}},{"type":"Feature","id":"osm-natural-mountain-d26d384f954902","properties":{"id":"osm-natural-mountain-d26d384f954902","name":"جبل بانيك","kind":"natural","tier":"natural","priority":180,"context":"شاخ · شێخان · نەینەوا","category":"شاخ"},"geometry":{"type":"Point","coordinates":[43.51132,36.7908]}},{"type":"Feature","id":"osm-natural-mountain-a36dbfa053807b","properties":{"id":"osm-natural-mountain-a36dbfa053807b","name":"جبل بيشه","kind":"natural","tier":"natural","priority":180,"context":"شاخ · ئاکرێ · نەینەوا","category":"شاخ"},"geometry":{"type":"Point","coordinates":[43.73811,36.93596]}},{"type":"Feature","id":"osm-natural-mountain-b92cadc5527f27","properties":{"id":"osm-natural-mountain-b92cadc5527f27","name":"جبل بيكسير","kind":"natural","tier":"natural","priority":180,"context":"شاخ · العمادية · دهۆک","category":"شاخ"},"geometry":{"type":"Point","coordinates":[43.64419,36.85724]}},{"type":"Feature","id":"osm-natural-mountain-aa994546ec8595","properties":{"id":"osm-natural-mountain-aa994546ec8595","name":"جبل حسنك","kind":"natural","tier":"natural","priority":180,"context":"شاخ · العمادية · دهۆک","category":"شاخ"},"geometry":{"type":"Point","coordinates":[43.67781,36.8324]}},{"type":"Feature","id":"osm-natural-mountain-3097859290195c","properties":{"id":"osm-natural-mountain-3097859290195c","name":"جبل كريا","kind":"natural","tier":"natural","priority":180,"context":"شاخ · ئاکرێ · نەینەوا","category":"شاخ"},"geometry":{"type":"Point","coordinates":[43.71111,36.99238]}},{"type":"Feature","id":"osm-natural-mountain-900d057cdf24aa","properties":{"id":"osm-natural-mountain-900d057cdf24aa","name":"جبل كيري ربتكي","kind":"natural","tier":"natural","priority":180,"context":"شاخ · العمادية · دهۆک","category":"شاخ"},"geometry":{"type":"Point","coordinates":[43.52622,36.85255]}},{"type":"Feature","id":"osm-natural-mountain-f932e80810f3ef","properties":{"id":"osm-natural-mountain-f932e80810f3ef","name":"جبل ميروكي","kind":"natural","tier":"natural","priority":180,"context":"شاخ · العمادية · دهۆک","category":"شاخ"},"geometry":{"type":"Point","coordinates":[43.63158,36.90228]}},{"type":"Feature","id":"osm-natural-stream-fbc3655f5526fc","properties":{"id":"osm-natural-stream-fbc3655f5526fc","name":"روبارێ شرمن","kind":"natural","tier":"natural","priority":180,"context":"جۆگە · ئاکرێ · نەینەوا","category":"جۆگە"},"geometry":{"type":"Point","coordinates":[43.7254055,36.7650906]}},{"type":"Feature","id":"osm-natural-peak-ec7bc2c99d053a","properties":{"id":"osm-natural-peak-ec7bc2c99d053a","name":"قمة جبل سيان","kind":"natural","tier":"natural","priority":180,"context":"لوتکە · العمادية · دهۆک","category":"لوتکە"},"geometry":{"type":"Point","coordinates":[43.69014,36.93548]}},{"type":"Feature","id":"osm-natural-stream-be52fa2b6f0c86","properties":{"id":"osm-natural-stream-be52fa2b6f0c86","name":"كلي روبركي","kind":"natural","tier":"natural","priority":180,"context":"جۆگە · العمادية · دهۆک","category":"جۆگە"},"geometry":{"type":"Point","coordinates":[43.632514,36.9185335]}},{"type":"Feature","id":"osm-natural-stream-4f8fdcb0cb935e","properties":{"id":"osm-natural-stream-4f8fdcb0cb935e","name":"نهر روزر","kind":"natural","tier":"natural","priority":180,"context":"جۆگە · العمادية · دهۆک","category":"جۆگە"},"geometry":{"type":"Point","coordinates":[43.66248,36.85392]}},{"type":"Feature","id":"osm-natural-valley-bbca6166d18733","properties":{"id":"osm-natural-valley-bbca6166d18733","name":"وادي اركين","kind":"natural","tier":"natural","priority":180,"context":"دۆڵ · العمادية · دهۆک","category":"دۆڵ"},"geometry":{"type":"Point","coordinates":[43.62341,36.92496]}},{"type":"Feature","id":"osm-natural-valley-ddab1084da3600","properties":{"id":"osm-natural-valley-ddab1084da3600","name":"وادي داكان","kind":"natural","tier":"natural","priority":180,"context":"دۆڵ · ئاکرێ · نەینەوا","category":"دۆڵ"},"geometry":{"type":"Point","coordinates":[43.65041,36.80745]}},{"type":"Feature","id":"osm-natural-valley-86936c56915181","properties":{"id":"osm-natural-valley-86936c56915181","name":"وادي رودينه","kind":"natural","tier":"natural","priority":180,"context":"دۆڵ · العمادية · دهۆک","category":"دۆڵ"},"geometry":{"type":"Point","coordinates":[43.62538,36.98456]}},{"type":"Feature","id":"osm-natural-valley-7788dbc618d0b9","properties":{"id":"osm-natural-valley-7788dbc618d0b9","name":"وادي شيرنه","kind":"natural","tier":"natural","priority":180,"context":"دۆڵ · العمادية · دهۆک","category":"دۆڵ"},"geometry":{"type":"Point","coordinates":[43.63849,36.98528]}},{"type":"Feature","id":"osm-natural-stream-4b8c02b2699b42","properties":{"id":"osm-natural-stream-4b8c02b2699b42","name":"ڕوباری گوندی گورانكا مه زن","kind":"natural","tier":"natural","priority":180,"context":"جۆگە · ئاکرێ · نەینەوا","category":"جۆگە"},"geometry":{"type":"Point","coordinates":[43.7438596,36.7554974]}},{"type":"Feature","id":"osm-natural-river-c8948ea9253539","properties":{"id":"osm-natural-river-c8948ea9253539","name":"ڕووباری خازر","kind":"natural","tier":"natural","priority":180,"context":"ڕووبار · العمادية · دهۆک","category":"ڕووبار"},"geometry":{"type":"Point","coordinates":[43.7054774,36.8992198]}},{"type":"Feature","id":"osm-natural-river-b853de8668960a","properties":{"id":"osm-natural-river-b853de8668960a","name":"ڕووباری خازر","kind":"natural","tier":"natural","priority":180,"context":"ڕووبار · ئاکرێ · نەینەوا","category":"ڕووبار"},"geometry":{"type":"Point","coordinates":[43.6451797,36.8016238]}},{"type":"Feature","id":"road-label-osm-way-985653548","properties":{"id":"road-label-osm-way-985653548","name":"جسر نالا","kind":"road","tier":"road","priority":72,"context":"secondary · العمادية · دهۆک","category":"ڕێگا"},"geometry":{"type":"Point","coordinates":[43.663852,36.85485]}},{"type":"Feature","id":"road-label-osm-way-959926352","properties":{"id":"road-label-osm-way-959926352","name":"طريق بكرمان","kind":"road","tier":"road","priority":72,"context":"secondary · ئاکرێ · نەینەوا","category":"ڕێگا"},"geometry":{"type":"Point","coordinates":[43.675256,36.823486]}},{"type":"Feature","id":"road-label-osm-way-1055685451","properties":{"id":"road-label-osm-way-1055685451","name":"طريق وادي نالا","kind":"road","tier":"road","priority":72,"context":"secondary · العمادية · دهۆک","category":"ڕێگا"},"geometry":{"type":"Point","coordinates":[43.656072,36.841312]}},{"type":"Feature","id":"road-label-osm-way-959926353","properties":{"id":"road-label-osm-way-959926353","name":"ڕێگای ئاکرێ","kind":"road","tier":"road","priority":72,"context":"secondary · ئاکرێ · نەینەوا","category":"ڕێگا"},"geometry":{"type":"Point","coordinates":[43.706684,36.807241]}},{"type":"Feature","id":"road-label-osm-way-558316124","properties":{"id":"road-label-osm-way-558316124","name":"Goranka Mam ShexaRoad","kind":"road","tier":"road","priority":55,"context":"tertiary · ئاکرێ · نەینەوا","category":"ڕێگا"},"geometry":{"type":"Point","coordinates":[43.73852,36.75906]}},{"type":"Feature","id":"road-label-osm-way-1056232664","properties":{"id":"road-label-osm-way-1056232664","name":"Goranka Mazn Road","kind":"road","tier":"road","priority":55,"context":"tertiary · ئاکرێ · نەینەوا","category":"ڕێگا"},"geometry":{"type":"Point","coordinates":[43.740786,36.750339]}},{"type":"Feature","id":"road-label-osm-way-440625083","properties":{"id":"road-label-osm-way-440625083","name":"Zhulee Road","kind":"road","tier":"road","priority":55,"context":"tertiary · العمادية · دهۆک","category":"ڕێگا"},"geometry":{"type":"Point","coordinates":[43.700488,36.868308]}},{"type":"Feature","id":"road-label-osm-way-1077687722","properties":{"id":"road-label-osm-way-1077687722","name":"طريق قرية كشكاوا","kind":"road","tier":"road","priority":55,"context":"tertiary · العمادية · دهۆک","category":"ڕێگا"},"geometry":{"type":"Point","coordinates":[43.710796,36.865311]}},{"type":"Feature","id":"road-label-osm-way-1077683189","properties":{"id":"road-label-osm-way-1077683189","name":"طريق مصيف كشكاوا","kind":"road","tier":"road","priority":55,"context":"tertiary · العمادية · دهۆک","category":"ڕێگا"},"geometry":{"type":"Point","coordinates":[43.707805,36.863824]}},{"type":"Feature","id":"road-label-osm-way-959926356","properties":{"id":"road-label-osm-way-959926356","name":"طريق وادي نالا","kind":"road","tier":"road","priority":55,"context":"tertiary · العمادية · دهۆک","category":"ڕێگا"},"geometry":{"type":"Point","coordinates":[43.688724,36.862654]}},{"type":"Feature","id":"osm-node-4283421093-fuel","properties":{"id":"osm-node-4283421093-fuel","name":"وێستگەی سوتەمەنی شەرمن","kind":"poi","tier":"poi_regional","priority":82.094,"context":"وێستگەی سووتەمەنی","category":"وێستگەی سووتەمەنی"},"geometry":{"type":"Point","coordinates":[43.7286139,36.7847684]}},{"type":"Feature","id":"osm-node-13785869945-police","properties":{"id":"osm-node-13785869945-police","name":"خالا بشکنینی","kind":"poi","tier":"poi_regional","priority":77.1,"context":"بنکەی پۆلیس","category":"بنکەی پۆلیس"},"geometry":{"type":"Point","coordinates":[43.7295948,36.7854713]}},{"type":"Feature","id":"osm-node-8941913828-swimming_pool","properties":{"id":"osm-node-8941913828-swimming_pool","name":"هافیکه ها که شکاوا","kind":"poi","tier":"poi_regional","priority":74.1,"context":"مەسبەح","category":"مەسبەح"},"geometry":{"type":"Point","coordinates":[43.71076,36.8634262]}},{"type":"Feature","id":"osm-way-841976379-residential","properties":{"id":"osm-way-841976379-residential","name":"Zhulee","kind":"poi","tier":"poi_local","priority":68.045,"context":"کۆمپاوندی نیشتەجێبوون","category":"کۆمپاوندی نیشتەجێبوون"},"geometry":{"type":"Point","coordinates":[43.7048027,36.868184]}},{"type":"Feature","id":"osm-way-841976380-residential","properties":{"id":"osm-way-841976380-residential","name":"Zhulee","kind":"poi","tier":"poi_local","priority":68.045,"context":"کۆمپاوندی نیشتەجێبوون","category":"کۆمپاوندی نیشتەجێبوون"},"geometry":{"type":"Point","coordinates":[43.700983,36.8679523]}},{"type":"Feature","id":"osm-way-17982877-residential","properties":{"id":"osm-way-17982877-residential","name":"ئستەنگین","kind":"poi","tier":"poi_local","priority":68.045,"context":"کۆمپاوندی نیشتەجێبوون","category":"کۆمپاوندی نیشتەجێبوون"},"geometry":{"type":"Point","coordinates":[43.5874963,36.81431]}},{"type":"Feature","id":"osm-way-866154101-residential","properties":{"id":"osm-way-866154101-residential","name":"باسکەدێر","kind":"poi","tier":"poi_local","priority":68.045,"context":"کۆمپاوندی نیشتەجێبوون","category":"کۆمپاوندی نیشتەجێبوون"},"geometry":{"type":"Point","coordinates":[43.5368095,36.8197687]}},{"type":"Feature","id":"osm-way-841794064-residential","properties":{"id":"osm-way-841794064-residential","name":"بلمندی","kind":"poi","tier":"poi_local","priority":68.045,"context":"کۆمپاوندی نیشتەجێبوون","category":"کۆمپاوندی نیشتەجێبوون"},"geometry":{"type":"Point","coordinates":[43.6731305,36.8617638]}},{"type":"Feature","id":"osm-way-966163738-residential","properties":{"id":"osm-way-966163738-residential","name":"خرابا شەرەفا","kind":"poi","tier":"poi_local","priority":68.045,"context":"کۆمپاوندی نیشتەجێبوون","category":"کۆمپاوندی نیشتەجێبوون"},"geometry":{"type":"Point","coordinates":[43.5299655,36.7680873]}},{"type":"Feature","id":"osm-way-17985387-residential","properties":{"id":"osm-way-17985387-residential","name":"خورتا بچیک","kind":"poi","tier":"poi_local","priority":68.045,"context":"کۆمپاوندی نیشتەجێبوون","category":"کۆمپاوندی نیشتەجێبوون"},"geometry":{"type":"Point","coordinates":[43.6076322,36.8227317]}},{"type":"Feature","id":"osm-way-17985363-residential","properties":{"id":"osm-way-17985363-residential","name":"خورتا مەزن","kind":"poi","tier":"poi_local","priority":68.045,"context":"کۆمپاوندی نیشتەجێبوون","category":"کۆمپاوندی نیشتەجێبوون"},"geometry":{"type":"Point","coordinates":[43.5919844,36.8279148]}},{"type":"Feature","id":"osm-way-17982415-residential","properties":{"id":"osm-way-17982415-residential","name":"دەکان","kind":"poi","tier":"poi_local","priority":68.045,"context":"کۆمپاوندی نیشتەجێبوون","category":"کۆمپاوندی نیشتەجێبوون"},"geometry":{"type":"Point","coordinates":[43.6425768,36.8141586]}},{"type":"Feature","id":"osm-way-866154102-residential","properties":{"id":"osm-way-866154102-residential","name":"سەرکاف","kind":"poi","tier":"poi_local","priority":68.045,"context":"کۆمپاوندی نیشتەجێبوون","category":"کۆمپاوندی نیشتەجێبوون"},"geometry":{"type":"Point","coordinates":[43.5503036,36.826622]}},{"type":"Feature","id":"osm-way-966157661-residential","properties":{"id":"osm-way-966157661-residential","name":"مرێبا","kind":"poi","tier":"poi_local","priority":68.045,"context":"کۆمپاوندی نیشتەجێبوون","category":"کۆمپاوندی نیشتەجێبوون"},"geometry":{"type":"Point","coordinates":[43.521636,36.7649634]}},{"type":"Feature","id":"osm-way-889991982-residential","properties":{"id":"osm-way-889991982-residential","name":"ملکیشان","kind":"poi","tier":"poi_local","priority":68.045,"context":"کۆمپاوندی نیشتەجێبوون","category":"کۆمپاوندی نیشتەجێبوون"},"geometry":{"type":"Point","coordinates":[43.5119328,36.8058559]}},{"type":"Feature","id":"osm-way-889991974-residential","properties":{"id":"osm-way-889991974-residential","name":"میتکا ژووری","kind":"poi","tier":"poi_local","priority":68.045,"context":"کۆمپاوندی نیشتەجێبوون","category":"کۆمپاوندی نیشتەجێبوون"},"geometry":{"type":"Point","coordinates":[43.5527592,36.7887737]}},{"type":"Feature","id":"osm-way-889991969-residential","properties":{"id":"osm-way-889991969-residential","name":"میتکا ژێری","kind":"poi","tier":"poi_local","priority":68.045,"context":"کۆمپاوندی نیشتەجێبوون","category":"کۆمپاوندی نیشتەجێبوون"},"geometry":{"type":"Point","coordinates":[43.5655077,36.7810781]}},{"type":"Feature","id":"osm-way-866154077-residential","properties":{"id":"osm-way-866154077-residential","name":"میرسیدا ئیکی","kind":"poi","tier":"poi_local","priority":68.045,"context":"کۆمپاوندی نیشتەجێبوون","category":"کۆمپاوندی نیشتەجێبوون"},"geometry":{"type":"Point","coordinates":[43.5003785,36.8222072]}},{"type":"Feature","id":"osm-way-842032732-residential","properties":{"id":"osm-way-842032732-residential","name":"میروکی","kind":"poi","tier":"poi_local","priority":68.045,"context":"کۆمپاوندی نیشتەجێبوون","category":"کۆمپاوندی نیشتەجێبوون"},"geometry":{"type":"Point","coordinates":[43.6287163,36.881514]}},{"type":"Feature","id":"osm-way-866154096-residential","properties":{"id":"osm-way-866154096-residential","name":"مێرسیدا دوو","kind":"poi","tier":"poi_local","priority":68.045,"context":"کۆمپاوندی نیشتەجێبوون","category":"کۆمپاوندی نیشتەجێبوون"},"geometry":{"type":"Point","coordinates":[43.5343445,36.8242928]}},{"type":"Feature","id":"osm-way-17985937-residential","properties":{"id":"osm-way-17985937-residential","name":"مێرگەبیێ","kind":"poi","tier":"poi_local","priority":68.045,"context":"کۆمپاوندی نیشتەجێبوون","category":"کۆمپاوندی نیشتەجێبوون"},"geometry":{"type":"Point","coordinates":[43.5688902,36.8172835]}},{"type":"Feature","id":"osm-way-762843293-residential","properties":{"id":"osm-way-762843293-residential","name":"نێروەک","kind":"poi","tier":"poi_local","priority":68.045,"context":"کۆمپاوندی نیشتەجێبوون","category":"کۆمپاوندی نیشتەجێبوون"},"geometry":{"type":"Point","coordinates":[43.6455961,36.8066149]}},{"type":"Feature","id":"osm-way-17989515-residential","properties":{"id":"osm-way-17989515-residential","name":"پیرمادینا","kind":"poi","tier":"poi_local","priority":68.045,"context":"کۆمپاوندی نیشتەجێبوون","category":"کۆمپاوندی نیشتەجێبوون"},"geometry":{"type":"Point","coordinates":[43.563184,36.7970966]}},{"type":"Feature","id":"osm-way-889400658-residential","properties":{"id":"osm-way-889400658-residential","name":"چەم هەرزن","kind":"poi","tier":"poi_local","priority":68.045,"context":"کۆمپاوندی نیشتەجێبوون","category":"کۆمپاوندی نیشتەجێبوون"},"geometry":{"type":"Point","coordinates":[43.6277161,36.768394]}},{"type":"Feature","id":"osm-way-889993262-residential","properties":{"id":"osm-way-889993262-residential","name":"ڕویلک","kind":"poi","tier":"poi_local","priority":68.045,"context":"کۆمپاوندی نیشتەجێبوون","category":"کۆمپاوندی نیشتەجێبوون"},"geometry":{"type":"Point","coordinates":[43.5515135,36.7775874]}},{"type":"Feature","id":"osm-way-966151422-residential","properties":{"id":"osm-way-966151422-residential","name":"کانی فەلا","kind":"poi","tier":"poi_local","priority":68.045,"context":"کۆمپاوندی نیشتەجێبوون","category":"کۆمپاوندی نیشتەجێبوون"},"geometry":{"type":"Point","coordinates":[43.506518,36.7550692]}},{"type":"Feature","id":"osm-way-966301690-residential","properties":{"id":"osm-way-966301690-residential","name":"کانی کول","kind":"poi","tier":"poi_local","priority":68.045,"context":"کۆمپاوندی نیشتەجێبوون","category":"کۆمپاوندی نیشتەجێبوون"},"geometry":{"type":"Point","coordinates":[43.5975778,36.7652133]}},{"type":"Feature","id":"osm-way-966216856-residential","properties":{"id":"osm-way-966216856-residential","name":"کوپێ","kind":"poi","tier":"poi_local","priority":68.045,"context":"کۆمپاوندی نیشتەجێبوون","category":"کۆمپاوندی نیشتەجێبوون"},"geometry":{"type":"Point","coordinates":[43.5681291,36.7670644]}},{"type":"Feature","id":"osm-way-889399326-residential","properties":{"id":"osm-way-889399326-residential","name":"کەندێ","kind":"poi","tier":"poi_local","priority":68.045,"context":"کۆمپاوندی نیشتەجێبوون","category":"کۆمپاوندی نیشتەجێبوون"},"geometry":{"type":"Point","coordinates":[43.6344567,36.784341]}},{"type":"Feature","id":"osm-way-17982380-residential","properties":{"id":"osm-way-17982380-residential","name":"گڤارا","kind":"poi","tier":"poi_local","priority":68.045,"context":"کۆمپاوندی نیشتەجێبوون","category":"کۆمپاوندی نیشتەجێبوون"},"geometry":{"type":"Point","coordinates":[43.6017271,36.8134835]}},{"type":"Feature","id":"osm-way-301620170-industrial","properties":{"id":"osm-way-301620170-industrial","name":"SH-5","kind":"poi","tier":"poi_local","priority":66.045,"context":"ناوچەی پیشەسازی","category":"ناوچەی پیشەسازی"},"geometry":{"type":"Point","coordinates":[43.511239,36.7909715]}},{"type":"Feature","id":"osm-way-1098748762-industrial","properties":{"id":"osm-way-1098748762-industrial","name":"SH-6","kind":"poi","tier":"poi_local","priority":66.045,"context":"ناوچەی پیشەسازی","category":"ناوچەی پیشەسازی"},"geometry":{"type":"Point","coordinates":[43.5403029,36.7759288]}},{"type":"Feature","id":"osm-node-11160767205-school","properties":{"id":"osm-node-11160767205-school","name":"قوتابخانا سێلان مامک","kind":"poi","tier":"poi_detail","priority":50.1,"context":"قوتابخانە","category":"قوتابخانە"},"geometry":{"type":"Point","coordinates":[43.7059029,36.8001983]}},{"type":"Feature","id":"osm-way-1459691613-building","properties":{"id":"osm-way-1459691613-building","name":"قوتابخانا گوندی کوپێ","kind":"poi","tier":"poi_detail","priority":50.055,"context":"قوتابخانە","category":"قوتابخانە"},"geometry":{"type":"Point","coordinates":[43.5673649,36.7663489]}},{"type":"Feature","id":"osm-node-8561771317-viewpoint","properties":{"id":"osm-node-8561771317-viewpoint","name":"شوینی گشیاری باکۆرمان٪","kind":"poi","tier":"poi_detail","priority":50.1,"context":"شوێنی سەیران","category":"شوێنی سەیران"},"geometry":{"type":"Point","coordinates":[43.6696277,36.8573943]}},{"type":"Feature","id":"osm-node-13405874362-hairdresser","properties":{"id":"osm-node-13405874362-hairdresser","name":"محمد حلاق","kind":"poi","tier":"poi_detail","priority":50.1,"context":"سەرتاشخانە","category":"سەرتاشخانە"},"geometry":{"type":"Point","coordinates":[43.5694853,36.7671785]}},{"type":"Feature","id":"osm-node-4779996421-viewpoint","properties":{"id":"osm-node-4779996421-viewpoint","name":"مریبا","kind":"poi","tier":"poi_detail","priority":50.1,"context":"شوێنی سەیران","category":"شوێنی سەیران"},"geometry":{"type":"Point","coordinates":[43.5211994,36.7592396]}},{"type":"Feature","id":"osm-node-4798792124-viewpoint","properties":{"id":"osm-node-4798792124-viewpoint","name":"مریبا","kind":"poi","tier":"poi_detail","priority":50.1,"context":"شوێنی سەیران","category":"شوێنی سەیران"},"geometry":{"type":"Point","coordinates":[43.5214255,36.7593823]}},{"type":"Feature","id":"osm-node-9899345621-tourist_info","properties":{"id":"osm-node-9899345621-tourist_info","name":"مصیف اسماوە","kind":"poi","tier":"poi_detail","priority":50.1,"context":"زانیاری گەشتیاری","category":"زانیاری گەشتیاری"},"geometry":{"type":"Point","coordinates":[43.6535068,36.8096682]}},{"type":"Feature","id":"osm-node-4798792125-viewpoint","properties":{"id":"osm-node-4798792125-viewpoint","name":"ملکیشان","kind":"poi","tier":"poi_detail","priority":50.1,"context":"شوێنی سەیران","category":"شوێنی سەیران"},"geometry":{"type":"Point","coordinates":[43.5353741,36.7975121]}},{"type":"Feature","id":"osm-node-4699669290-bakery","properties":{"id":"osm-node-4699669290-bakery","name":"نانپێزیا احمد لاس","kind":"poi","tier":"poi_detail","priority":50.1,"context":"نانەواخانە","category":"نانەواخانە"},"geometry":{"type":"Point","coordinates":[43.7246032,36.8026616]}},{"type":"Feature","id":"osm-node-11160732705-alpine_hut","properties":{"id":"osm-node-11160732705-alpine_hut","name":"چیایێ رابیشاد","kind":"poi","tier":"poi_detail","priority":50.1,"context":"کەپر","category":"کەپر"},"geometry":{"type":"Point","coordinates":[43.6964337,36.8038566]}},{"type":"Feature","id":"osm-node-4779993223-viewpoint","properties":{"id":"osm-node-4779993223-viewpoint","name":"کلی قسروک شلال","kind":"poi","tier":"poi_detail","priority":50.1,"context":"شوێنی سەیران","category":"شوێنی سەیران"},"geometry":{"type":"Point","coordinates":[43.5413975,36.7950508]}},{"type":"Feature","id":"osm-node-5155203021-muslim","properties":{"id":"osm-node-5155203021-muslim","name":"مزگەفتا شەرمن یامەزن","kind":"poi","tier":"poi_detail","priority":50.098,"context":"مزگەوت","category":"مزگەوت"},"geometry":{"type":"Point","coordinates":[43.7245119,36.8017071]}},{"type":"Feature","id":"osm-node-5896655285-waterfall","properties":{"id":"osm-node-5896655285-waterfall","name":"گلی باکرمان","kind":"poi","tier":"poi_detail","priority":50.094,"context":"ئاوشار","category":"ئاوشار"},"geometry":{"type":"Point","coordinates":[43.7037975,36.8461213]}},{"type":"Feature","id":"osm-way-1459691610-pitch","properties":{"id":"osm-way-1459691610-pitch","name":"یاریگەها کوپێ","kind":"poi","tier":"poi_detail","priority":50.092,"context":"ناوەندی وەرزش","category":"ناوەندی وەرزش"},"geometry":{"type":"Point","coordinates":[43.5698747,36.7694704]}},{"type":"Feature","id":"osm-way-1498913723-muslim","properties":{"id":"osm-way-1498913723-muslim","name":"مزگه فتاگورانکا مام شیخا","kind":"poi","tier":"poi_detail","priority":50.09,"context":"مزگەوت","category":"مزگەوت"},"geometry":{"type":"Point","coordinates":[43.7313938,36.7502933]}}]}