{"type":"FeatureCollection","features":[{"type":"Feature","id":"osm-node-7969179647","properties":{"id":"osm-node-7969179647","name":"بیرەکەپران","kind":"village","tier":"locality","priority":327.612,"context":"مەخموور · هەولێر","category":"گوند"},"geometry":{"type":"Point","coordinates":[43.6711903,36.1667908]}},{"type":"Feature","id":"osm-node-10589763528","properties":{"id":"osm-node-10589763528","name":"حومڕە","kind":"village","tier":"locality","priority":324,"context":"حەمدانییە · نەینەوا","category":"گوند"},"geometry":{"type":"Point","coordinates":[43.5008619,36.133747]}},{"type":"Feature","id":"osm-node-12434994602","properties":{"id":"osm-node-12434994602","name":"ئوم ڕگیبە","kind":"village","tier":"locality","priority":300,"context":"مەخموور · هەولێر","category":"گوند"},"geometry":{"type":"Point","coordinates":[43.5938848,36.1103528]}},{"type":"Feature","id":"osm-node-3420107490","properties":{"id":"osm-node-3420107490","name":"ئەبزەخ","kind":"village","tier":"locality","priority":300,"context":"حەمدانییە · نەینەوا","category":"گوند"},"geometry":{"type":"Point","coordinates":[43.5240943,36.14909]}},{"type":"Feature","id":"osm-node-12435024930","properties":{"id":"osm-node-12435024930","name":"ئەبو جەردەی نوێ","kind":"village","tier":"locality","priority":300,"context":"مەخموور · هەولێر","category":"گوند"},"geometry":{"type":"Point","coordinates":[43.6133181,36.0919296]}},{"type":"Feature","id":"osm-node-12435030043","properties":{"id":"osm-node-12435030043","name":"ئەبوجەردە","kind":"village","tier":"locality","priority":300,"context":"مەخموور · هەولێر","category":"گوند"},"geometry":{"type":"Point","coordinates":[43.6015909,36.0832754]}},{"type":"Feature","id":"osm-node-12435013148","properties":{"id":"osm-node-12435013148","name":"ئەبوجەردەی شێخ تەها","kind":"village","tier":"locality","priority":300,"context":"مەخموور · هەولێر","category":"گوند"},"geometry":{"type":"Point","coordinates":[43.592398,36.0724231]}},{"type":"Feature","id":"osm-node-12434990444","properties":{"id":"osm-node-12434990444","name":"ئەبوشێتە","kind":"village","tier":"locality","priority":300,"context":"مەخموور · هەولێر","category":"گوند"},"geometry":{"type":"Point","coordinates":[43.5576757,36.1127055]}},{"type":"Feature","id":"geonames-7018320","properties":{"id":"geonames-7018320","name":"برزاوە","kind":"village","tier":"locality","priority":300,"context":"مەخموور · هەولێر","category":"گوند"},"geometry":{"type":"Point","coordinates":[43.66397,36.00964]}},{"type":"Feature","id":"osm-node-12469759338","properties":{"id":"osm-node-12469759338","name":"بەرزەوار","kind":"village","tier":"locality","priority":300,"context":"مەخموور · هەولێر","category":"گوند"},"geometry":{"type":"Point","coordinates":[43.6641724,36.0091228]}},{"type":"Feature","id":"osm-node-7577624596","properties":{"id":"osm-node-7577624596","name":"بەستامی گەورە","kind":"village","tier":"locality","priority":300,"context":"حەمدانییە · نەینەوا","category":"گوند"},"geometry":{"type":"Point","coordinates":[43.650642,36.2467745]}},{"type":"Feature","id":"osm-node-7650433900","properties":{"id":"osm-node-7650433900","name":"تولەبەن","kind":"village","tier":"locality","priority":300,"context":"حەمدانییە · نەینەوا","category":"گوند"},"geometry":{"type":"Point","coordinates":[43.5394503,36.2097083]}},{"type":"Feature","id":"osm-node-12435016190","properties":{"id":"osm-node-12435016190","name":"تەڕاش","kind":"village","tier":"locality","priority":300,"context":"مەخموور · هەولێر","category":"گوند"},"geometry":{"type":"Point","coordinates":[43.635053,36.0914857]}},{"type":"Feature","id":"geonames-7018404","properties":{"id":"geonames-7018404","name":"حومرە","kind":"village","tier":"locality","priority":300,"context":"حەمدانییە · نەینەوا","category":"گوند"},"geometry":{"type":"Point","coordinates":[43.51662,36.14579]}},{"type":"Feature","id":"geonames-96147","properties":{"id":"geonames-96147","name":"حەمدان","kind":"village","tier":"locality","priority":300,"context":"مەخموور · هەولێر","category":"گوند"},"geometry":{"type":"Point","coordinates":[43.63498,36.09129]}},{"type":"Feature","id":"osm-node-12434970949","properties":{"id":"osm-node-12434970949","name":"حەویجکە","kind":"village","tier":"locality","priority":300,"context":"مەخموور · هەولێر","category":"گوند"},"geometry":{"type":"Point","coordinates":[43.5606952,36.0837193]}},{"type":"Feature","id":"osm-node-4559262479","properties":{"id":"osm-node-4559262479","name":"خالند","kind":"village","tier":"locality","priority":300,"context":"مەخموور · هەولێر","category":"گوند"},"geometry":{"type":"Point","coordinates":[43.598312,36.1607271]}},{"type":"Feature","id":"geonames-7018397","properties":{"id":"geonames-7018397","name":"درە شیر ماغ","kind":"village","tier":"locality","priority":300,"context":"مەخموور · هەولێر","category":"گوند"},"geometry":{"type":"Point","coordinates":[43.67048,36.20774]}},{"type":"Feature","id":"osm-node-12434443609","properties":{"id":"osm-node-12434443609","name":"دێرێ بێش بەرماغ","kind":"village","tier":"locality","priority":300,"context":"مەخموور · هەولێر","category":"گوند"},"geometry":{"type":"Point","coordinates":[43.6698808,36.2075564]}},{"type":"Feature","id":"osm-node-2484149775","properties":{"id":"osm-node-2484149775","name":"دەرماناوە","kind":"village","tier":"locality","priority":300,"context":"مەخموور · هەولێر","category":"گوند"},"geometry":{"type":"Point","coordinates":[43.5284704,36.0227025]}},{"type":"Feature","id":"osm-node-4559262364","properties":{"id":"osm-node-4559262364","name":"زاگە","kind":"village","tier":"locality","priority":300,"context":"مەخموور · هەولێر","category":"گوند"},"geometry":{"type":"Point","coordinates":[43.6382393,36.1173074]}},{"type":"Feature","id":"geonames-89550","properties":{"id":"geonames-89550","name":"زمزمۆک","kind":"village","tier":"locality","priority":300,"context":"مەخموور · هەولێر","category":"گوند"},"geometry":{"type":"Point","coordinates":[43.6386,36.03758]}},{"type":"Feature","id":"osm-node-12431440408","properties":{"id":"osm-node-12431440408","name":"زەمزەمۆکی عەرەبان","kind":"village","tier":"locality","priority":300,"context":"مەخموور · هەولێر","category":"گوند"},"geometry":{"type":"Point","coordinates":[43.6301358,36.0336813]}},{"type":"Feature","id":"osm-node-12430876802","properties":{"id":"osm-node-12430876802","name":"زەمزەمۆکی کوردان","kind":"village","tier":"locality","priority":300,"context":"مەخموور · هەولێر","category":"گوند"},"geometry":{"type":"Point","coordinates":[43.626981,36.0255942]}},{"type":"Feature","id":"osm-node-7654938587","properties":{"id":"osm-node-7654938587","name":"زەنگەڵ","kind":"village","tier":"locality","priority":300,"context":"حەمدانییە · نەینەوا","category":"گوند"},"geometry":{"type":"Point","coordinates":[43.6076164,36.2321948]}},{"type":"Feature","id":"osm-node-7490534054","properties":{"id":"osm-node-7490534054","name":"سفەیە","kind":"village","tier":"locality","priority":300,"context":"حەمدانییە · نەینەوا","category":"گوند"},"geometry":{"type":"Point","coordinates":[43.5917162,36.1971959]}},{"type":"Feature","id":"osm-node-12430810323","properties":{"id":"osm-node-12430810323","name":"سێچاڵە","kind":"village","tier":"locality","priority":300,"context":"مەخموور · هەولێر","category":"گوند"},"geometry":{"type":"Point","coordinates":[43.5523255,36.003988]}},{"type":"Feature","id":"osm-node-2482428422","properties":{"id":"osm-node-2482428422","name":"سەیدەمین","kind":"village","tier":"locality","priority":300,"context":"مەخموور · هەولێر","category":"گوند"},"geometry":{"type":"Point","coordinates":[43.6539471,36.056441]}},{"type":"Feature","id":"osm-node-2488231243","properties":{"id":"osm-node-2488231243","name":"شێخ شەروان","kind":"village","tier":"locality","priority":300,"context":"هەولێر · هەولێر","category":"گوند"},"geometry":{"type":"Point","coordinates":[43.7275836,36.034644]}},{"type":"Feature","id":"osm-node-12434990388","properties":{"id":"osm-node-12434990388","name":"شەرایع","kind":"village","tier":"locality","priority":300,"context":"مەخموور · هەولێر","category":"گوند"},"geometry":{"type":"Point","coordinates":[43.5776004,36.079405]}},{"type":"Feature","id":"osm-node-4559230070","properties":{"id":"osm-node-4559230070","name":"شەمامەر","kind":"village","tier":"locality","priority":300,"context":"مەخموور · هەولێر","category":"گوند"},"geometry":{"type":"Point","coordinates":[43.7153612,36.1289082]}},{"type":"Feature","id":"osm-node-4559262385","properties":{"id":"osm-node-4559262385","name":"شەمشوولە","kind":"village","tier":"locality","priority":300,"context":"مەخموور · هەولێر","category":"گوند"},"geometry":{"type":"Point","coordinates":[43.640296,36.1217105]}},{"type":"Feature","id":"osm-node-12435062876","properties":{"id":"osm-node-12435062876","name":"عەباسیە","kind":"village","tier":"locality","priority":300,"context":"مەخموور · هەولێر","category":"گوند"},"geometry":{"type":"Point","coordinates":[43.6628905,36.1256194]}},{"type":"Feature","id":"osm-node-2484152585","properties":{"id":"osm-node-2484152585","name":"عەلی مەلا داود","kind":"village","tier":"locality","priority":300,"context":"مەخموور · هەولێر","category":"گوند"},"geometry":{"type":"Point","coordinates":[43.6558492,36.0888417]}},{"type":"Feature","id":"osm-node-12431464730","properties":{"id":"osm-node-12431464730","name":"عەوێنە","kind":"village","tier":"locality","priority":300,"context":"مەخموور · هەولێر","category":"گوند"},"geometry":{"type":"Point","coordinates":[43.6970842,36.0605828]}},{"type":"Feature","id":"geonames-96696","properties":{"id":"geonames-96696","name":"غایتلی","kind":"village","tier":"locality","priority":300,"context":"حەمدانییە · نەینەوا","category":"گوند"},"geometry":{"type":"Point","coordinates":[43.54375,36.16111]}},{"type":"Feature","id":"osm-node-2484152607","properties":{"id":"osm-node-2484152607","name":"قاوغ","kind":"village","tier":"locality","priority":300,"context":"مەخموور · هەولێر","category":"گوند"},"geometry":{"type":"Point","coordinates":[43.6925579,36.1515793]}},{"type":"Feature","id":"osm-node-12431541959","properties":{"id":"osm-node-12431541959","name":"قشڵە","kind":"village","tier":"locality","priority":300,"context":"هەولێر · هەولێر","category":"گوند"},"geometry":{"type":"Point","coordinates":[43.7434724,36.081225]}},{"type":"Feature","id":"osm-node-12430860502","properties":{"id":"osm-node-12430860502","name":"ماجیداوە","kind":"village","tier":"locality","priority":300,"context":"مەخموور · هەولێر","category":"گوند"},"geometry":{"type":"Point","coordinates":[43.6004002,36.0295455]}},{"type":"Feature","id":"osm-node-2484152596","properties":{"id":"osm-node-2484152596","name":"میل سەید عەبدولکەریم","kind":"village","tier":"locality","priority":300,"context":"مەخموور · هەولێر","category":"گوند"},"geometry":{"type":"Point","coordinates":[43.6911799,36.0923121]}},{"type":"Feature","id":"osm-node-2488231180","properties":{"id":"osm-node-2488231180","name":"میل سەید محەمەد","kind":"village","tier":"locality","priority":300,"context":"هەولێر · هەولێر","category":"گوند"},"geometry":{"type":"Point","coordinates":[43.7143201,36.0875888]}},{"type":"Feature","id":"osm-node-12434965738","properties":{"id":"osm-node-12434965738","name":"مەتراد سارەلوو","kind":"village","tier":"locality","priority":300,"context":"حەمدانییە · نەینەوا","category":"گوند"},"geometry":{"type":"Point","coordinates":[43.5437673,36.1610703]}},{"type":"Feature","id":"osm-node-9668813727","properties":{"id":"osm-node-9668813727","name":"مەتراد شەرابی","kind":"village","tier":"locality","priority":300,"context":"حەمدانییە · نەینەوا","category":"گوند"},"geometry":{"type":"Point","coordinates":[43.5423152,36.1490291]}},{"type":"Feature","id":"osm-node-12434989958","properties":{"id":"osm-node-12434989958","name":"مەجید خەلیفە","kind":"village","tier":"locality","priority":300,"context":"مەخموور · هەولێر","category":"گوند"},"geometry":{"type":"Point","coordinates":[43.550104,36.0765977]}},{"type":"Feature","id":"osm-node-12281640640","properties":{"id":"osm-node-12281640640","name":"مەلا عومەر","kind":"village","tier":"locality","priority":300,"context":"حەمدانییە · نەینەوا","category":"گوند"},"geometry":{"type":"Point","coordinates":[43.6192974,36.2122085]}},{"type":"Feature","id":"osm-node-2482428405","properties":{"id":"osm-node-2482428405","name":"مەچلوبە","kind":"village","tier":"locality","priority":300,"context":"مەخموور · هەولێر","category":"گوند"},"geometry":{"type":"Point","coordinates":[43.5771272,36.0473318]}},{"type":"Feature","id":"osm-node-4559230086","properties":{"id":"osm-node-4559230086","name":"نۆغەران","kind":"village","tier":"locality","priority":300,"context":"مەخموور · هەولێر","category":"گوند"},"geometry":{"type":"Point","coordinates":[43.7198405,36.1767727]}},{"type":"Feature","id":"osm-node-4407359536","properties":{"id":"osm-node-4407359536","name":"هەوێرە","kind":"village","tier":"locality","priority":300,"context":"مەخموور · هەولێر","category":"گوند"},"geometry":{"type":"Point","coordinates":[43.5969619,36.119076]}},{"type":"Feature","id":"osm-node-7650436536","properties":{"id":"osm-node-7650436536","name":"وەردەک","kind":"village","tier":"locality","priority":300,"context":"حەمدانییە · نەینەوا","category":"گوند"},"geometry":{"type":"Point","coordinates":[43.5381181,36.1846372]}},{"type":"Feature","id":"osm-node-2484152586","properties":{"id":"osm-node-2484152586","name":"پێمەڕەبڕ","kind":"village","tier":"locality","priority":300,"context":"مەخموور · هەولێر","category":"گوند"},"geometry":{"type":"Point","coordinates":[43.6881045,36.1222559]}},{"type":"Feature","id":"osm-node-12435024908","properties":{"id":"osm-node-12435024908","name":"چادرۆک","kind":"village","tier":"locality","priority":300,"context":"مەخموور · هەولێر","category":"گوند"},"geometry":{"type":"Point","coordinates":[43.6034821,36.073524]}},{"type":"Feature","id":"osm-way-300953907","properties":{"id":"osm-way-300953907","name":"چالوک گەورە","kind":"village","tier":"locality","priority":300,"context":"هەولێر · هەولێر","category":"گوند"},"geometry":{"type":"Point","coordinates":[43.74697780681066,36.239960749999995]}},{"type":"Feature","id":"geonames-7018394","properties":{"id":"geonames-7018394","name":"چەمە دبس","kind":"village","tier":"locality","priority":300,"context":"حەمدانییە · نەینەوا","category":"گوند"},"geometry":{"type":"Point","coordinates":[43.63085,36.22711]}},{"type":"Feature","id":"osm-node-12281652441","properties":{"id":"osm-node-12281652441","name":"چەمە دووبز","kind":"village","tier":"locality","priority":300,"context":"حەمدانییە · نەینەوا","category":"گوند"},"geometry":{"type":"Point","coordinates":[43.6371121,36.2338557]}},{"type":"Feature","id":"osm-node-12281624031","properties":{"id":"osm-node-12281624031","name":"چەمە دووبزی هەرکی","kind":"village","tier":"locality","priority":300,"context":"حەمدانییە · نەینەوا","category":"گوند"},"geometry":{"type":"Point","coordinates":[43.6309102,36.2267332]}},{"type":"Feature","id":"osm-node-2482437109","properties":{"id":"osm-node-2482437109","name":"کڵاو ڕەش","kind":"village","tier":"locality","priority":300,"context":"مەخموور · هەولێر","category":"گوند"},"geometry":{"type":"Point","coordinates":[43.5693001,36.0519362]}},{"type":"Feature","id":"osm-node-12434429145","properties":{"id":"osm-node-12434429145","name":"کەور","kind":"village","tier":"locality","priority":300,"context":"مەخموور · هەولێر","category":"گوند"},"geometry":{"type":"Point","coordinates":[43.6511736,36.1730901]}},{"type":"Feature","id":"osm-node-12430813293","properties":{"id":"osm-node-12430813293","name":"کەپران","kind":"village","tier":"locality","priority":300,"context":"مەخموور · هەولێر","category":"گوند"},"geometry":{"type":"Point","coordinates":[43.5072574,36.0602598]}},{"type":"Feature","id":"osm-node-12434986134","properties":{"id":"osm-node-12434986134","name":"گامێش تەپە","kind":"village","tier":"locality","priority":300,"context":"مەخموور · هەولێر","category":"گوند"},"geometry":{"type":"Point","coordinates":[43.5425709,36.0856309]}},{"type":"Feature","id":"osm-node-3420122463","properties":{"id":"osm-node-3420122463","name":"گعێتل","kind":"village","tier":"locality","priority":300,"context":"مەخموور · هەولێر","category":"گوند"},"geometry":{"type":"Point","coordinates":[43.5784767,36.1445304]}},{"type":"Feature","id":"osm-node-12281605779","properties":{"id":"osm-node-12281605779","name":"گوندک","kind":"village","tier":"locality","priority":300,"context":"حەمدانییە · نەینەوا","category":"گوند"},"geometry":{"type":"Point","coordinates":[43.647216,36.2454001]}},{"type":"Feature","id":"osm-node-7650436535","properties":{"id":"osm-node-7650436535","name":"گوڵەبۆر","kind":"village","tier":"locality","priority":300,"context":"حەمدانییە · نەینەوا","category":"گوند"},"geometry":{"type":"Point","coordinates":[43.5590275,36.1929611]}},{"type":"Feature","id":"osm-node-7650436534","properties":{"id":"osm-node-7650436534","name":"گەزەکان","kind":"village","tier":"locality","priority":300,"context":"حەمدانییە · نەینەوا","category":"گوند"},"geometry":{"type":"Point","coordinates":[43.5256404,36.2107232]}},{"type":"Feature","id":"osm-natural-mountain-f105229a0acfc5","properties":{"id":"osm-natural-mountain-f105229a0acfc5","name":"Demir Dagh","kind":"natural","tier":"natural","priority":180,"context":"شاخ · اربيل · هەولێر","category":"شاخ"},"geometry":{"type":"Point","coordinates":[43.73417,36.21]}},{"type":"Feature","id":"osm-natural-stream-d7ff1bfe91d095","properties":{"id":"osm-natural-stream-d7ff1bfe91d095","name":"Shiw-a Sur","kind":"natural","tier":"natural","priority":180,"context":"جۆگە · مخمور · هەولێر","category":"جۆگە"},"geometry":{"type":"Point","coordinates":[43.54472,36.0975]}},{"type":"Feature","id":"osm-natural-valley-99e74699b64a42","properties":{"id":"osm-natural-valley-99e74699b64a42","name":"Wadi Az Zarchi","kind":"natural","tier":"natural","priority":180,"context":"دۆڵ · حەمدانییە · نەینەوا","category":"دۆڵ"},"geometry":{"type":"Point","coordinates":[43.52264,36.10305]}},{"type":"Feature","id":"osm-natural-valley-d110809e98d00d","properties":{"id":"osm-natural-valley-d110809e98d00d","name":"Wadi Shur Kachiyah","kind":"natural","tier":"natural","priority":180,"context":"دۆڵ · مخمور · هەولێر","category":"دۆڵ"},"geometry":{"type":"Point","coordinates":[43.51736,36.05488]}},{"type":"Feature","id":"osm-natural-stream-08f266c3f2e155","properties":{"id":"osm-natural-stream-08f266c3f2e155","name":"nazanraw","kind":"natural","tier":"natural","priority":180,"context":"جۆگە · مخمور · هەولێر","category":"جۆگە"},"geometry":{"type":"Point","coordinates":[43.7021879,36.1238293]}},{"type":"Feature","id":"osm-natural-stream-3419a178c64e5f","properties":{"id":"osm-natural-stream-3419a178c64e5f","name":"علی مجید گعیتلی","kind":"natural","tier":"natural","priority":180,"context":"جۆگە · مخمور · هەولێر","category":"جۆگە"},"geometry":{"type":"Point","coordinates":[43.5663699,36.1426575]}},{"type":"Feature","id":"osm-natural-stream-9e45b4c2c58f1d","properties":{"id":"osm-natural-stream-9e45b4c2c58f1d","name":"نهر الخازر","kind":"natural","tier":"natural","priority":180,"context":"جۆگە · حەمدانییە · نەینەوا","category":"جۆگە"},"geometry":{"type":"Point","coordinates":[43.54001,36.16865]}},{"type":"Feature","id":"osm-natural-valley-fe48314b3c84e6","properties":{"id":"osm-natural-valley-fe48314b3c84e6","name":"وادي الحمرة","kind":"natural","tier":"natural","priority":180,"context":"دۆڵ · حەمدانییە · نەینەوا","category":"دۆڵ"},"geometry":{"type":"Point","coordinates":[43.5321,36.15563]}},{"type":"Feature","id":"osm-natural-valley-c40f5360c987e9","properties":{"id":"osm-natural-valley-c40f5360c987e9","name":"وادي بير دكان","kind":"natural","tier":"natural","priority":180,"context":"دۆڵ · مخمور · هەولێر","category":"دۆڵ"},"geometry":{"type":"Point","coordinates":[43.74171,36.17516]}},{"type":"Feature","id":"osm-natural-valley-c80d797a642c21","properties":{"id":"osm-natural-valley-c80d797a642c21","name":"وادي خرحمة دبس","kind":"natural","tier":"natural","priority":180,"context":"دۆڵ · حەمدانییە · نەینەوا","category":"دۆڵ"},"geometry":{"type":"Point","coordinates":[43.62498,36.21995]}},{"type":"Feature","id":"osm-natural-valley-0fc7022f68cfae","properties":{"id":"osm-natural-valley-0fc7022f68cfae","name":"وادي زانيمية","kind":"natural","tier":"natural","priority":180,"context":"دۆڵ · مخمور · هەولێر","category":"دۆڵ"},"geometry":{"type":"Point","coordinates":[43.62835,36.02224]}},{"type":"Feature","id":"osm-natural-valley-c53b375ba735c3","properties":{"id":"osm-natural-valley-c53b375ba735c3","name":"وادي شراسور","kind":"natural","tier":"natural","priority":180,"context":"دۆڵ · اربيل · هەولێر","category":"دۆڵ"},"geometry":{"type":"Point","coordinates":[43.7295,36.06589]}},{"type":"Feature","id":"osm-natural-valley-1da1f9fc004535","properties":{"id":"osm-natural-valley-1da1f9fc004535","name":"وادي عليس تبن","kind":"natural","tier":"natural","priority":180,"context":"دۆڵ · اربيل · هەولێر","category":"دۆڵ"},"geometry":{"type":"Point","coordinates":[43.73038,36.06588]}},{"type":"Feature","id":"osm-natural-valley-11a5b4a483e13c","properties":{"id":"osm-natural-valley-11a5b4a483e13c","name":"وادي كردرة","kind":"natural","tier":"natural","priority":180,"context":"دۆڵ · مخمور · هەولێر","category":"دۆڵ"},"geometry":{"type":"Point","coordinates":[43.54454,36.09697]}},{"type":"Feature","id":"osm-natural-valley-9e8248b277c45a","properties":{"id":"osm-natural-valley-9e8248b277c45a","name":"وادي كندي","kind":"natural","tier":"natural","priority":180,"context":"دۆڵ · مخمور · هەولێر","category":"دۆڵ"},"geometry":{"type":"Point","coordinates":[43.53315,36.0531]}},{"type":"Feature","id":"osm-natural-valley-3df74440950fe1","properties":{"id":"osm-natural-valley-3df74440950fe1","name":"وادي كندي عقار","kind":"natural","tier":"natural","priority":180,"context":"دۆڵ · مخمور · هەولێر","category":"دۆڵ"},"geometry":{"type":"Point","coordinates":[43.60929,36.17168]}},{"type":"Feature","id":"osm-natural-valley-000d9d739c931f","properties":{"id":"osm-natural-valley-000d9d739c931f","name":"وادي كندي كبرر","kind":"natural","tier":"natural","priority":180,"context":"دۆڵ · مخمور · هەولێر","category":"دۆڵ"},"geometry":{"type":"Point","coordinates":[43.63392,36.1532]}},{"type":"Feature","id":"osm-natural-valley-acce1afe154cfa","properties":{"id":"osm-natural-valley-acce1afe154cfa","name":"وادي كندي لدمه","kind":"natural","tier":"natural","priority":180,"context":"دۆڵ · اربيل · هەولێر","category":"دۆڵ"},"geometry":{"type":"Point","coordinates":[43.71524,36.07999]}},{"type":"Feature","id":"osm-natural-valley-61279477f19709","properties":{"id":"osm-natural-valley-61279477f19709","name":"وادي كندي نوال","kind":"natural","tier":"natural","priority":180,"context":"دۆڵ · اربيل · هەولێر","category":"دۆڵ"},"geometry":{"type":"Point","coordinates":[43.71956,36.07147]}},{"type":"Feature","id":"osm-natural-valley-cc2c549eae389b","properties":{"id":"osm-natural-valley-cc2c549eae389b","name":"وادي كور","kind":"natural","tier":"natural","priority":180,"context":"دۆڵ · مخمور · هەولێر","category":"دۆڵ"},"geometry":{"type":"Point","coordinates":[43.61154,36.18324]}},{"type":"Feature","id":"road-label-osm-way-1214775052","properties":{"id":"road-label-osm-way-1214775052","name":"80","kind":"road","tier":"road","priority":95,"context":"trunk · مخمور · هەولێر","category":"ڕێگا"},"geometry":{"type":"Point","coordinates":[43.553376,36.000237]}},{"type":"Feature","id":"road-label-osm-way-1178232898","properties":{"id":"road-label-osm-way-1178232898","name":"ڕێگای هەولێر-گوێڕ","kind":"road","tier":"road","priority":95,"context":"trunk · مخمور · هەولێر","category":"ڕێگا"},"geometry":{"type":"Point","coordinates":[43.637607,36.12249]}},{"type":"Feature","id":"road-label-osm-way-320800590","properties":{"id":"road-label-osm-way-320800590","name":"ڕێگای کەرکووک - موسڵ","kind":"road","tier":"road","priority":95,"context":"trunk · مخمور · هەولێر","category":"ڕێگا"},"geometry":{"type":"Point","coordinates":[43.551053,36.00192]}},{"type":"Feature","id":"road-label-osm-way-320786088","properties":{"id":"road-label-osm-way-320786088","name":"ڕێگای گوێڕ","kind":"road","tier":"road","priority":95,"context":"trunk · مخمور · هەولێر","category":"ڕێگا"},"geometry":{"type":"Point","coordinates":[43.701606,36.126893]}},{"type":"Feature","id":"road-label-osm-way-243529978","properties":{"id":"road-label-osm-way-243529978","name":"ڕێگای وێستگەی باکوور","kind":"road","tier":"road","priority":72,"context":"secondary · اربيل · هەولێر","category":"ڕێگا"},"geometry":{"type":"Point","coordinates":[43.724708,36.021892]}},{"type":"Feature","id":"road-label-osm-way-322783141","properties":{"id":"road-label-osm-way-322783141","name":"علی مجید گعیتلی","kind":"road","tier":"road","priority":55,"context":"tertiary · مخمور · هەولێر","category":"ڕێگا"},"geometry":{"type":"Point","coordinates":[43.581907,36.148508]}},{"type":"Feature","id":"osm-node-8575603117-bank","properties":{"id":"osm-node-8575603117-bank","name":"KDN 9","kind":"poi","tier":"poi_landmark","priority":92.1,"context":"بانک","category":"بانک"},"geometry":{"type":"Point","coordinates":[43.6589615,36.0494509]}},{"type":"Feature","id":"osm-node-8574820022-bank","properties":{"id":"osm-node-8574820022-bank","name":"kdn 9","kind":"poi","tier":"poi_landmark","priority":92.1,"context":"بانک","category":"بانک"},"geometry":{"type":"Point","coordinates":[43.6594928,36.0496177]}},{"type":"Feature","id":"osm-node-7982541490-attraction","properties":{"id":"osm-node-7982541490-attraction","name":"مجید الخلیفە","kind":"poi","tier":"poi_detail","priority":50.1,"context":"شوێنی گەشتیاری","category":"شوێنی گەشتیاری"},"geometry":{"type":"Point","coordinates":[43.5492501,36.0738739]}},{"type":"Feature","id":"osm-node-12468254701-fuel","properties":{"id":"osm-node-12468254701-fuel","name":"الضیاء","kind":"poi","tier":"poi_regional","priority":82.094,"context":"وێستگەی سووتەمەنی","category":"وێستگەی سووتەمەنی"},"geometry":{"type":"Point","coordinates":[43.5653932,36.1085578]}},{"type":"Feature","id":"osm-node-12468254702-fuel","properties":{"id":"osm-node-12468254702-fuel","name":"الضیاء","kind":"poi","tier":"poi_regional","priority":82.094,"context":"وێستگەی سووتەمەنی","category":"وێستگەی سووتەمەنی"},"geometry":{"type":"Point","coordinates":[43.5636883,36.107954]}},{"type":"Feature","id":"osm-node-10240110309-fuel","properties":{"id":"osm-node-10240110309-fuel","name":"بەنزینخانەی گوێر","kind":"poi","tier":"poi_regional","priority":82.094,"context":"وێستگەی سووتەمەنی","category":"وێستگەی سووتەمەنی"},"geometry":{"type":"Point","coordinates":[43.7276011,36.1273859]}},{"type":"Feature","id":"osm-node-11828983945-police","properties":{"id":"osm-node-11828983945-police","name":"سیطرە عوینه","kind":"poi","tier":"poi_regional","priority":77.1,"context":"بنکەی پۆلیس","category":"بنکەی پۆلیس"},"geometry":{"type":"Point","coordinates":[43.6790709,36.0605805]}},{"type":"Feature","id":"osm-node-11828956205-police","properties":{"id":"osm-node-11828956205-police","name":"نقطە 10","kind":"poi","tier":"poi_regional","priority":77.1,"context":"بنکەی پۆلیس","category":"بنکەی پۆلیس"},"geometry":{"type":"Point","coordinates":[43.6757457,36.0984399]}},{"type":"Feature","id":"osm-node-11828966414-police","properties":{"id":"osm-node-11828966414-police","name":"نقطە 11","kind":"poi","tier":"poi_regional","priority":77.1,"context":"بنکەی پۆلیس","category":"بنکەی پۆلیس"},"geometry":{"type":"Point","coordinates":[43.6778762,36.0916825]}},{"type":"Feature","id":"osm-node-11828955235-police","properties":{"id":"osm-node-11828955235-police","name":"نقطە 12","kind":"poi","tier":"poi_regional","priority":77.1,"context":"بنکەی پۆلیس","category":"بنکەی پۆلیس"},"geometry":{"type":"Point","coordinates":[43.6775632,36.0836548]}},{"type":"Feature","id":"osm-node-11828955242-police","properties":{"id":"osm-node-11828955242-police","name":"نقطە 13","kind":"poi","tier":"poi_regional","priority":77.1,"context":"بنکەی پۆلیس","category":"بنکەی پۆلیس"},"geometry":{"type":"Point","coordinates":[43.6778664,36.0729993]}},{"type":"Feature","id":"osm-node-11828953870-police","properties":{"id":"osm-node-11828953870-police","name":"نقطە 7","kind":"poi","tier":"poi_regional","priority":77.1,"context":"بنکەی پۆلیس","category":"بنکەی پۆلیس"},"geometry":{"type":"Point","coordinates":[43.6525777,36.1183707]}},{"type":"Feature","id":"osm-node-11828956206-police","properties":{"id":"osm-node-11828956206-police","name":"نقطە 8","kind":"poi","tier":"poi_regional","priority":77.1,"context":"بنکەی پۆلیس","category":"بنکەی پۆلیس"},"geometry":{"type":"Point","coordinates":[43.6548508,36.1094464]}},{"type":"Feature","id":"osm-node-11828956093-police","properties":{"id":"osm-node-11828956093-police","name":"نقطە 9","kind":"poi","tier":"poi_regional","priority":77.1,"context":"بنکەی پۆلیس","category":"بنکەی پۆلیس"},"geometry":{"type":"Point","coordinates":[43.6620899,36.1015453]}},{"type":"Feature","id":"osm-way-306626656-residential","properties":{"id":"osm-way-306626656-residential","name":"Ali Mulla Dawud","kind":"poi","tier":"poi_local","priority":68.045,"context":"کۆمپاوندی نیشتەجێبوون","category":"کۆمپاوندی نیشتەجێبوون"},"geometry":{"type":"Point","coordinates":[43.656515,36.0891465]}},{"type":"Feature","id":"osm-way-312528479-residential","properties":{"id":"osm-way-312528479-residential","name":"ئەبو جەردەی نوێ","kind":"poi","tier":"poi_local","priority":68.045,"context":"کۆمپاوندی نیشتەجێبوون","category":"کۆمپاوندی نیشتەجێبوون"},"geometry":{"type":"Point","coordinates":[43.6130033,36.0926098]}},{"type":"Feature","id":"osm-way-18443875-residential","properties":{"id":"osm-way-18443875-residential","name":"ئەبوجەردە","kind":"poi","tier":"poi_local","priority":68.045,"context":"کۆمپاوندی نیشتەجێبوون","category":"کۆمپاوندی نیشتەجێبوون"},"geometry":{"type":"Point","coordinates":[43.6008737,36.0821356]}},{"type":"Feature","id":"osm-way-18443833-residential","properties":{"id":"osm-way-18443833-residential","name":"ئەبوجەردەی شێخ تەها","kind":"poi","tier":"poi_local","priority":68.045,"context":"کۆمپاوندی نیشتەجێبوون","category":"کۆمپاوندی نیشتەجێبوون"},"geometry":{"type":"Point","coordinates":[43.5935092,36.0732929]}},{"type":"Feature","id":"osm-way-18443750-residential","properties":{"id":"osm-way-18443750-residential","name":"ئەبوشێتە","kind":"poi","tier":"poi_local","priority":68.045,"context":"کۆمپاوندی نیشتەجێبوون","category":"کۆمپاوندی نیشتەجێبوون"},"geometry":{"type":"Point","coordinates":[43.5565501,36.1127381]}},{"type":"Feature","id":"osm-way-292765000-residential","properties":{"id":"osm-way-292765000-residential","name":"ابزخ","kind":"poi","tier":"poi_local","priority":68.045,"context":"کۆمپاوندی نیشتەجێبوون","category":"کۆمپاوندی نیشتەجێبوون"},"geometry":{"type":"Point","coordinates":[43.5242397,36.1496509]}},{"type":"Feature","id":"osm-way-306058423-residential","properties":{"id":"osm-way-306058423-residential","name":"ام رکیبە","kind":"poi","tier":"poi_local","priority":68.045,"context":"کۆمپاوندی نیشتەجێبوون","category":"کۆمپاوندی نیشتەجێبوون"},"geometry":{"type":"Point","coordinates":[43.5939048,36.1101523]}},{"type":"Feature","id":"osm-way-862140272-residential","properties":{"id":"osm-way-862140272-residential","name":"بیرە کەپران","kind":"poi","tier":"poi_local","priority":68.045,"context":"کۆمپاوندی نیشتەجێبوون","category":"کۆمپاوندی نیشتەجێبوون"},"geometry":{"type":"Point","coordinates":[43.6712222,36.1663171]}},{"type":"Feature","id":"osm-way-18494569-residential","properties":{"id":"osm-way-18494569-residential","name":"بەرزەوار","kind":"poi","tier":"poi_local","priority":68.045,"context":"کۆمپاوندی نیشتەجێبوون","category":"کۆمپاوندی نیشتەجێبوون"},"geometry":{"type":"Point","coordinates":[43.6640289,36.0092104]}},{"type":"Feature","id":"osm-way-13489964-residential","properties":{"id":"osm-way-13489964-residential","name":"تولەبەند","kind":"poi","tier":"poi_local","priority":68.045,"context":"کۆمپاوندی نیشتەجێبوون","category":"کۆمپاوندی نیشتەجێبوون"},"geometry":{"type":"Point","coordinates":[43.5370453,36.2102612]}},{"type":"Feature","id":"osm-way-18443885-residential","properties":{"id":"osm-way-18443885-residential","name":"تەڕاش","kind":"poi","tier":"poi_local","priority":68.045,"context":"کۆمپاوندی نیشتەجێبوون","category":"کۆمپاوندی نیشتەجێبوون"},"geometry":{"type":"Point","coordinates":[43.6347709,36.0912365]}},{"type":"Feature","id":"osm-way-303328068-residential","properties":{"id":"osm-way-303328068-residential","name":"جمە دبس","kind":"poi","tier":"poi_local","priority":68.045,"context":"کۆمپاوندی نیشتەجێبوون","category":"کۆمپاوندی نیشتەجێبوون"},"geometry":{"type":"Point","coordinates":[43.6394005,36.2356682]}},{"type":"Feature","id":"osm-way-18443768-residential","properties":{"id":"osm-way-18443768-residential","name":"حەویجکە","kind":"poi","tier":"poi_local","priority":68.045,"context":"کۆمپاوندی نیشتەجێبوون","category":"کۆمپاوندی نیشتەجێبوون"},"geometry":{"type":"Point","coordinates":[43.5595362,36.0827309]}},{"type":"Feature","id":"osm-way-18442873-residential","properties":{"id":"osm-way-18442873-residential","name":"خالند","kind":"poi","tier":"poi_local","priority":68.045,"context":"کۆمپاوندی نیشتەجێبوون","category":"کۆمپاوندی نیشتەجێبوون"},"geometry":{"type":"Point","coordinates":[43.5979266,36.1605208]}},{"type":"Feature","id":"osm-way-18435882-residential","properties":{"id":"osm-way-18435882-residential","name":"درماناوە","kind":"poi","tier":"poi_local","priority":68.045,"context":"کۆمپاوندی نیشتەجێبوون","category":"کۆمپاوندی نیشتەجێبوون"},"geometry":{"type":"Point","coordinates":[43.5284377,36.0231481]}},{"type":"Feature","id":"osm-way-304765815-residential","properties":{"id":"osm-way-304765815-residential","name":"دێرێ بێش بەرماغ","kind":"poi","tier":"poi_local","priority":68.045,"context":"کۆمپاوندی نیشتەجێبوون","category":"کۆمپاوندی نیشتەجێبوون"},"geometry":{"type":"Point","coordinates":[43.6700253,36.2073205]}},{"type":"Feature","id":"osm-way-18443888-residential","properties":{"id":"osm-way-18443888-residential","name":"زاگە","kind":"poi","tier":"poi_local","priority":68.045,"context":"کۆمپاوندی نیشتەجێبوون","category":"کۆمپاوندی نیشتەجێبوون"},"geometry":{"type":"Point","coordinates":[43.6384838,36.1174528]}},{"type":"Feature","id":"osm-way-18437623-residential","properties":{"id":"osm-way-18437623-residential","name":"زەمزەمۆکی عەرەبان","kind":"poi","tier":"poi_local","priority":68.045,"context":"کۆمپاوندی نیشتەجێبوون","category":"کۆمپاوندی نیشتەجێبوون"},"geometry":{"type":"Point","coordinates":[43.6301743,36.0334848]}},{"type":"Feature","id":"osm-way-18436073-residential","properties":{"id":"osm-way-18436073-residential","name":"زەمزەمۆکی کوردان","kind":"poi","tier":"poi_local","priority":68.045,"context":"کۆمپاوندی نیشتەجێبوون","category":"کۆمپاوندی نیشتەجێبوون"},"geometry":{"type":"Point","coordinates":[43.6270561,36.025644]}},{"type":"Feature","id":"osm-way-299134595-residential","properties":{"id":"osm-way-299134595-residential","name":"زەنگەڵ","kind":"poi","tier":"poi_local","priority":68.045,"context":"کۆمپاوندی نیشتەجێبوون","category":"کۆمپاوندی نیشتەجێبوون"},"geometry":{"type":"Point","coordinates":[43.6073202,36.2326018]}},{"type":"Feature","id":"osm-way-303327310-residential","properties":{"id":"osm-way-303327310-residential","name":"سفەیە","kind":"poi","tier":"poi_local","priority":68.045,"context":"کۆمپاوندی نیشتەجێبوون","category":"کۆمپاوندی نیشتەجێبوون"},"geometry":{"type":"Point","coordinates":[43.5916296,36.1979934]}},{"type":"Feature","id":"osm-way-18435913-residential","properties":{"id":"osm-way-18435913-residential","name":"سێچاڵە","kind":"poi","tier":"poi_local","priority":68.045,"context":"کۆمپاوندی نیشتەجێبوون","category":"کۆمپاوندی نیشتەجێبوون"},"geometry":{"type":"Point","coordinates":[43.5522533,36.003919]}},{"type":"Feature","id":"osm-way-18437690-residential","properties":{"id":"osm-way-18437690-residential","name":"سەیدەمین","kind":"poi","tier":"poi_local","priority":68.045,"context":"کۆمپاوندی نیشتەجێبوون","category":"کۆمپاوندی نیشتەجێبوون"},"geometry":{"type":"Point","coordinates":[43.6543676,36.0567815]}},{"type":"Feature","id":"osm-way-18443818-residential","properties":{"id":"osm-way-18443818-residential","name":"شەرایع","kind":"poi","tier":"poi_local","priority":68.045,"context":"کۆمپاوندی نیشتەجێبوون","category":"کۆمپاوندی نیشتەجێبوون"},"geometry":{"type":"Point","coordinates":[43.5803928,36.0785422]}},{"type":"Feature","id":"osm-way-18437897-residential","properties":{"id":"osm-way-18437897-residential","name":"شەمامەر","kind":"poi","tier":"poi_local","priority":68.045,"context":"کۆمپاوندی نیشتەجێبوون","category":"کۆمپاوندی نیشتەجێبوون"},"geometry":{"type":"Point","coordinates":[43.7149218,36.1295373]}},{"type":"Feature","id":"osm-way-306058027-residential","properties":{"id":"osm-way-306058027-residential","name":"شەمشوولە","kind":"poi","tier":"poi_local","priority":68.045,"context":"کۆمپاوندی نیشتەجێبوون","category":"کۆمپاوندی نیشتەجێبوون"},"geometry":{"type":"Point","coordinates":[43.6400416,36.1218528]}},{"type":"Feature","id":"osm-way-18443901-residential","properties":{"id":"osm-way-18443901-residential","name":"عەباسیە","kind":"poi","tier":"poi_local","priority":68.045,"context":"کۆمپاوندی نیشتەجێبوون","category":"کۆمپاوندی نیشتەجێبوون"},"geometry":{"type":"Point","coordinates":[43.6627514,36.1256789]}},{"type":"Feature","id":"osm-way-322373473-residential","properties":{"id":"osm-way-322373473-residential","name":"عەوێنە","kind":"poi","tier":"poi_local","priority":68.045,"context":"کۆمپاوندی نیشتەجێبوون","category":"کۆمپاوندی نیشتەجێبوون"},"geometry":{"type":"Point","coordinates":[43.6980053,36.0607643]}},{"type":"Feature","id":"osm-way-18442644-residential","properties":{"id":"osm-way-18442644-residential","name":"قاوغ","kind":"poi","tier":"poi_local","priority":68.045,"context":"کۆمپاوندی نیشتەجێبوون","category":"کۆمپاوندی نیشتەجێبوون"},"geometry":{"type":"Point","coordinates":[43.6929143,36.151614]}},{"type":"Feature","id":"osm-way-18437819-residential","properties":{"id":"osm-way-18437819-residential","name":"قشڵە","kind":"poi","tier":"poi_local","priority":68.045,"context":"کۆمپاوندی نیشتەجێبوون","category":"کۆمپاوندی نیشتەجێبوون"},"geometry":{"type":"Point","coordinates":[43.7433028,36.0812375]}},{"type":"Feature","id":"osm-way-18436036-residential","properties":{"id":"osm-way-18436036-residential","name":"ماجیداوە","kind":"poi","tier":"poi_local","priority":68.045,"context":"کۆمپاوندی نیشتەجێبوون","category":"کۆمپاوندی نیشتەجێبوون"},"geometry":{"type":"Point","coordinates":[43.6005006,36.0294431]}},{"type":"Feature","id":"osm-way-18443748-residential","properties":{"id":"osm-way-18443748-residential","name":"متراد شەرابی","kind":"poi","tier":"poi_local","priority":68.045,"context":"کۆمپاوندی نیشتەجێبوون","category":"کۆمپاوندی نیشتەجێبوون"},"geometry":{"type":"Point","coordinates":[43.5424595,36.1489698]}},{"type":"Feature","id":"osm-way-18437786-residential","properties":{"id":"osm-way-18437786-residential","name":"میل سەید عەبدولکەریم","kind":"poi","tier":"poi_local","priority":68.045,"context":"کۆمپاوندی نیشتەجێبوون","category":"کۆمپاوندی نیشتەجێبوون"},"geometry":{"type":"Point","coordinates":[43.6911068,36.0924515]}},{"type":"Feature","id":"osm-way-1253349068-residential","properties":{"id":"osm-way-1253349068-residential","name":"میل سەید محەمەد","kind":"poi","tier":"poi_local","priority":68.045,"context":"کۆمپاوندی نیشتەجێبوون","category":"کۆمپاوندی نیشتەجێبوون"},"geometry":{"type":"Point","coordinates":[43.7145118,36.0877415]}},{"type":"Feature","id":"osm-way-18443732-residential","properties":{"id":"osm-way-18443732-residential","name":"مەتراد سارەلوو","kind":"poi","tier":"poi_local","priority":68.045,"context":"کۆمپاوندی نیشتەجێبوون","category":"کۆمپاوندی نیشتەجێبوون"},"geometry":{"type":"Point","coordinates":[43.5434485,36.1609842]}},{"type":"Feature","id":"osm-way-18443764-residential","properties":{"id":"osm-way-18443764-residential","name":"مەجید خەلیفە","kind":"poi","tier":"poi_local","priority":68.045,"context":"کۆمپاوندی نیشتەجێبوون","category":"کۆمپاوندی نیشتەجێبوون"},"geometry":{"type":"Point","coordinates":[43.5506042,36.0765302]}},{"type":"Feature","id":"osm-way-304466372-residential","properties":{"id":"osm-way-304466372-residential","name":"مەلا عومەر","kind":"poi","tier":"poi_local","priority":68.045,"context":"کۆمپاوندی نیشتەجێبوون","category":"کۆمپاوندی نیشتەجێبوون"},"geometry":{"type":"Point","coordinates":[43.6205249,36.2131918]}},{"type":"Feature","id":"osm-way-18436012-residential","properties":{"id":"osm-way-18436012-residential","name":"مەچلوبە","kind":"poi","tier":"poi_local","priority":68.045,"context":"کۆمپاوندی نیشتەجێبوون","category":"کۆمپاوندی نیشتەجێبوون"},"geometry":{"type":"Point","coordinates":[43.5762114,36.0478212]}},{"type":"Feature","id":"osm-way-301907872-residential","properties":{"id":"osm-way-301907872-residential","name":"نو غران","kind":"poi","tier":"poi_local","priority":68.045,"context":"کۆمپاوندی نیشتەجێبوون","category":"کۆمپاوندی نیشتەجێبوون"},"geometry":{"type":"Point","coordinates":[43.7193309,36.1762245]}},{"type":"Feature","id":"osm-way-306058188-residential","properties":{"id":"osm-way-306058188-residential","name":"هوێرە","kind":"poi","tier":"poi_local","priority":68.045,"context":"کۆمپاوندی نیشتەجێبوون","category":"کۆمپاوندی نیشتەجێبوون"},"geometry":{"type":"Point","coordinates":[43.5966646,36.118746]}},{"type":"Feature","id":"osm-way-298843811-residential","properties":{"id":"osm-way-298843811-residential","name":"وەردەک","kind":"poi","tier":"poi_local","priority":68.045,"context":"کۆمپاوندی نیشتەجێبوون","category":"کۆمپاوندی نیشتەجێبوون"},"geometry":{"type":"Point","coordinates":[43.5365958,36.1862849]}},{"type":"Feature","id":"osm-way-18442676-residential","properties":{"id":"osm-way-18442676-residential","name":"پێمەڕەبڕ","kind":"poi","tier":"poi_local","priority":68.045,"context":"کۆمپاوندی نیشتەجێبوون","category":"کۆمپاوندی نیشتەجێبوون"},"geometry":{"type":"Point","coordinates":[43.6885783,36.1224214]}},{"type":"Feature","id":"osm-way-18443854-residential","properties":{"id":"osm-way-18443854-residential","name":"چادرۆک","kind":"poi","tier":"poi_local","priority":68.045,"context":"کۆمپاوندی نیشتەجێبوون","category":"کۆمپاوندی نیشتەجێبوون"},"geometry":{"type":"Point","coordinates":[43.6027,36.0734965]}},{"type":"Feature","id":"osm-way-300953907-residential","properties":{"id":"osm-way-300953907-residential","name":"چالوک گەورە","kind":"poi","tier":"poi_local","priority":68.045,"context":"کۆمپاوندی نیشتەجێبوون","category":"کۆمپاوندی نیشتەجێبوون"},"geometry":{"type":"Point","coordinates":[43.7469778,36.2399607]}},{"type":"Feature","id":"osm-way-18436017-residential","properties":{"id":"osm-way-18436017-residential","name":"کڵاوڕەش","kind":"poi","tier":"poi_local","priority":68.045,"context":"کۆمپاوندی نیشتەجێبوون","category":"کۆمپاوندی نیشتەجێبوون"},"geometry":{"type":"Point","coordinates":[43.5687763,36.0519654]}},{"type":"Feature","id":"osm-way-18442699-residential","properties":{"id":"osm-way-18442699-residential","name":"کەور","kind":"poi","tier":"poi_local","priority":68.045,"context":"کۆمپاوندی نیشتەجێبوون","category":"کۆمپاوندی نیشتەجێبوون"},"geometry":{"type":"Point","coordinates":[43.651285,36.1733982]}},{"type":"Feature","id":"osm-way-18435976-residential","properties":{"id":"osm-way-18435976-residential","name":"کەپران","kind":"poi","tier":"poi_local","priority":68.045,"context":"کۆمپاوندی نیشتەجێبوون","category":"کۆمپاوندی نیشتەجێبوون"},"geometry":{"type":"Point","coordinates":[43.507318,36.0607287]}},{"type":"Feature","id":"osm-way-304299188-residential","properties":{"id":"osm-way-304299188-residential","name":"گامێش تەپە","kind":"poi","tier":"poi_local","priority":68.045,"context":"کۆمپاوندی نیشتەجێبوون","category":"کۆمپاوندی نیشتەجێبوون"},"geometry":{"type":"Point","coordinates":[43.5426871,36.0857424]}},{"type":"Feature","id":"osm-way-310250023-residential","properties":{"id":"osm-way-310250023-residential","name":"گعێتل","kind":"poi","tier":"poi_local","priority":68.045,"context":"کۆمپاوندی نیشتەجێبوون","category":"کۆمپاوندی نیشتەجێبوون"},"geometry":{"type":"Point","coordinates":[43.5785359,36.1450709]}},{"type":"Feature","id":"osm-way-302691259-residential","properties":{"id":"osm-way-302691259-residential","name":"گوڵەبۆر","kind":"poi","tier":"poi_local","priority":68.045,"context":"کۆمپاوندی نیشتەجێبوون","category":"کۆمپاوندی نیشتەجێبوون"},"geometry":{"type":"Point","coordinates":[43.5592222,36.1927412]}},{"type":"Feature","id":"osm-way-13490172-residential","properties":{"id":"osm-way-13490172-residential","name":"گەزەکان","kind":"poi","tier":"poi_local","priority":68.045,"context":"کۆمپاوندی نیشتەجێبوون","category":"کۆمپاوندی نیشتەجێبوون"},"geometry":{"type":"Point","coordinates":[43.5258022,36.2111695]}},{"type":"Feature","id":"osm-way-1253189980-industrial","properties":{"id":"osm-way-1253189980-industrial","name":"karga","kind":"poi","tier":"poi_local","priority":66.045,"context":"ناوچەی پیشەسازی","category":"ناوچەی پیشەسازی"},"geometry":{"type":"Point","coordinates":[43.7041741,36.1244054]}},{"type":"Feature","id":"osm-way-1253191030-industrial","properties":{"id":"osm-way-1253191030-industrial","name":"karga","kind":"poi","tier":"poi_local","priority":66.045,"context":"ناوچەی پیشەسازی","category":"ناوچەی پیشەسازی"},"geometry":{"type":"Point","coordinates":[43.7055317,36.1209438]}},{"type":"Feature","id":"osm-way-243999474-industrial","properties":{"id":"osm-way-243999474-industrial","name":"محطە خورمالە الشمالیە","kind":"poi","tier":"poi_local","priority":66.045,"context":"ناوچەی پیشەسازی","category":"ناوچەی پیشەسازی"},"geometry":{"type":"Point","coordinates":[43.6850822,36.0185733]}},{"type":"Feature","id":"osm-way-1444782418-industrial","properties":{"id":"osm-way-1444782418-industrial","name":"وێستگەی کۆکردنەوەی گوێڕ","kind":"poi","tier":"poi_local","priority":66.045,"context":"ناوچەی پیشەسازی","category":"ناوچەی پیشەسازی"},"geometry":{"type":"Point","coordinates":[43.6307606,36.1008133]}},{"type":"Feature","id":"osm-node-5203597823-school","properties":{"id":"osm-node-5203597823-school","name":"ثانویە الفتوە المختلطە","kind":"poi","tier":"poi_detail","priority":50.1,"context":"قوتابخانە","category":"قوتابخانە"},"geometry":{"type":"Point","coordinates":[43.5813034,36.0723473]}},{"type":"Feature","id":"osm-node-9722543301-school","properties":{"id":"osm-node-9722543301-school","name":"قوتابخانەی سەرەتایی و دواناوەندیی شێخ شەروان","kind":"poi","tier":"poi_detail","priority":50.1,"context":"قوتابخانە","category":"قوتابخانە"},"geometry":{"type":"Point","coordinates":[43.729675,36.0372183]}},{"type":"Feature","id":"osm-node-9104288218-school","properties":{"id":"osm-node-9104288218-school","name":"قوتبانی خالند","kind":"poi","tier":"poi_detail","priority":50.1,"context":"قوتابخانە","category":"قوتابخانە"},"geometry":{"type":"Point","coordinates":[43.5961628,36.1592494]}},{"type":"Feature","id":"osm-node-9963608718-school","properties":{"id":"osm-node-9963608718-school","name":"متوسطە الشهید غازی الحنش للبنین","kind":"poi","tier":"poi_detail","priority":50.1,"context":"قوتابخانە","category":"قوتابخانە"},"geometry":{"type":"Point","coordinates":[43.5982806,36.1083125]}},{"type":"Feature","id":"osm-node-9963613517-school","properties":{"id":"osm-node-9963613517-school","name":"متوسطە الشهید غازی الحنش للبنین","kind":"poi","tier":"poi_detail","priority":50.1,"context":"قوتابخانە","category":"قوتابخانە"},"geometry":{"type":"Point","coordinates":[43.5983243,36.107834]}},{"type":"Feature","id":"osm-way-1253196851-supermarket","properties":{"id":"osm-way-1253196851-supermarket","name":"بازاڕی محمد شێخانی","kind":"poi","tier":"poi_detail","priority":50.092,"context":"سۆپەرمارکێت","category":"سۆپەرمارکێت"},"geometry":{"type":"Point","coordinates":[43.71598,36.1260075]}},{"type":"Feature","id":"osm-way-1263353867-supermarket","properties":{"id":"osm-way-1263353867-supermarket","name":"سوبرمارکت","kind":"poi","tier":"poi_detail","priority":50.092,"context":"سۆپەرمارکێت","category":"سۆپەرمارکێت"},"geometry":{"type":"Point","coordinates":[43.7156256,36.1266918]}},{"type":"Feature","id":"osm-way-1263353868-supermarket","properties":{"id":"osm-way-1263353868-supermarket","name":"سوبرمارکت","kind":"poi","tier":"poi_detail","priority":50.092,"context":"سۆپەرمارکێت","category":"سۆپەرمارکێت"},"geometry":{"type":"Point","coordinates":[43.7161621,36.1266674]}},{"type":"Feature","id":"osm-node-13551238295-community_centre","properties":{"id":"osm-node-13551238295-community_centre","name":"Ali Majed Gahetly","kind":"poi","tier":"poi_detail","priority":50.1,"context":"ناوەندی کۆمەڵایەتی","category":"ناوەندی کۆمەڵایەتی"},"geometry":{"type":"Point","coordinates":[43.5784147,36.1450394]}},{"type":"Feature","id":"osm-node-12848344001-viewpoint","properties":{"id":"osm-node-12848344001-viewpoint","name":"KHN","kind":"poi","tier":"poi_detail","priority":50.1,"context":"شوێنی سەیران","category":"شوێنی سەیران"},"geometry":{"type":"Point","coordinates":[43.6854163,36.0177781]}},{"type":"Feature","id":"osm-node-4738114421-viewpoint","properties":{"id":"osm-node-4738114421-viewpoint","name":"حمرە العباوی","kind":"poi","tier":"poi_detail","priority":50.1,"context":"شوێنی سەیران","category":"شوێنی سەیران"},"geometry":{"type":"Point","coordinates":[43.5004798,36.1334113]}},{"type":"Feature","id":"osm-node-11836772469-castle","properties":{"id":"osm-node-11836772469-castle","name":"خاڵی 14","kind":"poi","tier":"poi_detail","priority":50.1,"context":"قەڵا","category":"قەڵا"},"geometry":{"type":"Point","coordinates":[43.6794591,36.0450673]}},{"type":"Feature","id":"osm-node-9905698017-tourist_info","properties":{"id":"osm-node-9905698017-tourist_info","name":"مصیف تل اللبن","kind":"poi","tier":"poi_detail","priority":50.1,"context":"زانیاری گەشتیاری","category":"زانیاری گەشتیاری"},"geometry":{"type":"Point","coordinates":[43.5278419,36.2325517]}},{"type":"Feature","id":"osm-node-9532968917-library","properties":{"id":"osm-node-9532968917-library","name":"نووسینکه","kind":"poi","tier":"poi_detail","priority":50.1,"context":"کتێبخانە","category":"کتێبخانە"},"geometry":{"type":"Point","coordinates":[43.5488898,36.2173857]}},{"type":"Feature","id":"osm-node-5365369861-hairdresser","properties":{"id":"osm-node-5365369861-hairdresser","name":"هەویرە","kind":"poi","tier":"poi_detail","priority":50.1,"context":"سەرتاشخانە","category":"سەرتاشخانە"},"geometry":{"type":"Point","coordinates":[43.5985155,36.1187511]}}]}