{"type":"FeatureCollection","features":[{"type":"Feature","id":"osm-node-3789821662","properties":{"id":"osm-node-3789821662","name":"ئێزیداوه","kind":"village","tier":"locality","priority":300,"context":"هەولێر · هەولێر","category":"گوند"},"geometry":{"type":"Point","coordinates":[43.848451,36.0816268]}},{"type":"Feature","id":"osm-node-2484155414","properties":{"id":"osm-node-2484155414","name":"باترتۆق","kind":"village","tier":"locality","priority":300,"context":"هەولێر · هەولێر","category":"گوند"},"geometry":{"type":"Point","coordinates":[43.9158773,36.0727862]}},{"type":"Feature","id":"geonames-98175","properties":{"id":"geonames-98175","name":"باغلوو منارە","kind":"village","tier":"locality","priority":300,"context":"هەولێر · هەولێر","category":"گوند"},"geometry":{"type":"Point","coordinates":[43.95,36.13333]}},{"type":"Feature","id":"geonames-7018286","properties":{"id":"geonames-7018286","name":"بمبارس","kind":"village","tier":"locality","priority":300,"context":"هەولێر · هەولێر","category":"گوند"},"geometry":{"type":"Point","coordinates":[43.84597,36.14725]}},{"type":"Feature","id":"osm-node-4559230188","properties":{"id":"osm-node-4559230188","name":"بنبێرز","kind":"village","tier":"locality","priority":300,"context":"هەولێر · هەولێر","category":"گوند"},"geometry":{"type":"Point","coordinates":[43.845781,36.1474244]}},{"type":"Feature","id":"osm-node-2488260364","properties":{"id":"osm-node-2488260364","name":"تووڕەق","kind":"village","tier":"locality","priority":300,"context":"هەولێر · هەولێر","category":"گوند"},"geometry":{"type":"Point","coordinates":[43.9369428,36.1673163]}},{"type":"Feature","id":"osm-node-5158736325","properties":{"id":"osm-node-5158736325","name":"تۆبزاوە","kind":"village","tier":"locality","priority":300,"context":"هەولێر · هەولێر","category":"گوند"},"geometry":{"type":"Point","coordinates":[43.9998209,36.12044]}},{"type":"Feature","id":"osm-node-4559230013","properties":{"id":"osm-node-4559230013","name":"تەرجان","kind":"village","tier":"locality","priority":300,"context":"هەولێر · هەولێر","category":"گوند"},"geometry":{"type":"Point","coordinates":[43.7585475,36.121758]}},{"type":"Feature","id":"osm-node-4559229652","properties":{"id":"osm-node-4559229652","name":"تەندوورە","kind":"village","tier":"locality","priority":300,"context":"هەولێر · هەولێر","category":"گوند"},"geometry":{"type":"Point","coordinates":[43.8371743,36.0750689]}},{"type":"Feature","id":"osm-node-2488248115","properties":{"id":"osm-node-2488248115","name":"خەزنە","kind":"village","tier":"locality","priority":300,"context":"هەولێر · هەولێر","category":"گوند"},"geometry":{"type":"Point","coordinates":[43.7949781,36.1136545]}},{"type":"Feature","id":"osm-node-3779011859","properties":{"id":"osm-node-3779011859","name":"داڵداغان","kind":"village","tier":"locality","priority":300,"context":"هەولێر · هەولێر","category":"گوند"},"geometry":{"type":"Point","coordinates":[43.8864732,36.0736174]}},{"type":"Feature","id":"osm-node-4559230215","properties":{"id":"osm-node-4559230215","name":"دهێمات","kind":"village","tier":"locality","priority":300,"context":"هەولێر · هەولێر","category":"گوند"},"geometry":{"type":"Point","coordinates":[43.796223,36.0957141]}},{"type":"Feature","id":"osm-node-4559229632","properties":{"id":"osm-node-4559229632","name":"دوستهپه","kind":"village","tier":"locality","priority":300,"context":"هەولێر · هەولێر","category":"گوند"},"geometry":{"type":"Point","coordinates":[43.877988,36.1000956]}},{"type":"Feature","id":"osm-node-2488259533","properties":{"id":"osm-node-2488259533","name":"دووسەرە","kind":"village","tier":"locality","priority":300,"context":"هەولێر · هەولێر","category":"گوند"},"geometry":{"type":"Point","coordinates":[43.9115613,36.0230786]}},{"type":"Feature","id":"osm-node-4559229592","properties":{"id":"osm-node-4559229592","name":"دووسەرە جەبار","kind":"village","tier":"locality","priority":300,"context":"هەولێر · هەولێر","category":"گوند"},"geometry":{"type":"Point","coordinates":[43.898607,36.0517583]}},{"type":"Feature","id":"osm-way-301586939","properties":{"id":"osm-way-301586939","name":"دۆستەپە","kind":"village","tier":"locality","priority":300,"context":"هەولێر · هەولێر","category":"گوند"},"geometry":{"type":"Point","coordinates":[43.87827512820496,36.100737800000005]}},{"type":"Feature","id":"osm-node-6120232734","properties":{"id":"osm-node-6120232734","name":"دەلەگولی خوارێ","kind":"village","tier":"locality","priority":300,"context":"هەولێر · هەولێر","category":"گوند"},"geometry":{"type":"Point","coordinates":[43.8452115,36.102857]}},{"type":"Feature","id":"osm-node-2488248095","properties":{"id":"osm-node-2488248095","name":"دەلەگولی سەرێ","kind":"village","tier":"locality","priority":300,"context":"هەولێر · هەولێر","category":"گوند"},"geometry":{"type":"Point","coordinates":[43.8251555,36.112222]}},{"type":"Feature","id":"osm-node-4559230114","properties":{"id":"osm-node-4559230114","name":"ساتور","kind":"village","tier":"locality","priority":300,"context":"هەولێر · هەولێر","category":"گوند"},"geometry":{"type":"Point","coordinates":[43.7986514,36.1803763]}},{"type":"Feature","id":"osm-node-2488260328","properties":{"id":"osm-node-2488260328","name":"سوێری","kind":"village","tier":"locality","priority":300,"context":"هەولێر · هەولێر","category":"گوند"},"geometry":{"type":"Point","coordinates":[43.9034405,36.1582787]}},{"type":"Feature","id":"geonames-90634","properties":{"id":"geonames-90634","name":"سۆربەش","kind":"village","tier":"locality","priority":300,"context":"هەولێر · هەولێر","category":"گوند"},"geometry":{"type":"Point","coordinates":[43.87954,36.01823]}},{"type":"Feature","id":"osm-node-6157701259","properties":{"id":"osm-node-6157701259","name":"سۆربەش عەوێز","kind":"village","tier":"locality","priority":300,"context":"هەولێر · هەولێر","category":"گوند"},"geometry":{"type":"Point","coordinates":[43.881593,36.054735]}},{"type":"Feature","id":"osm-node-4559229357","properties":{"id":"osm-node-4559229357","name":"سۆربەش کاکەڵڵا","kind":"village","tier":"locality","priority":300,"context":"هەولێر · هەولێر","category":"گوند"},"geometry":{"type":"Point","coordinates":[43.8801335,36.0182736]}},{"type":"Feature","id":"osm-node-4559230376","properties":{"id":"osm-node-4559230376","name":"سیاو","kind":"village","tier":"locality","priority":300,"context":"هەولێر · هەولێر","category":"گوند"},"geometry":{"type":"Point","coordinates":[43.754521,36.0201924]}},{"type":"Feature","id":"osm-node-4559230304","properties":{"id":"osm-node-4559230304","name":"سیراوە","kind":"village","tier":"locality","priority":300,"context":"هەولێر · هەولێر","category":"گوند"},"geometry":{"type":"Point","coordinates":[43.7831283,36.0616092]}},{"type":"Feature","id":"osm-node-2488231232","properties":{"id":"osm-node-2488231232","name":"سەعداوە","kind":"village","tier":"locality","priority":300,"context":"هەولێر · هەولێر","category":"گوند"},"geometry":{"type":"Point","coordinates":[43.7505753,36.0995454]}},{"type":"Feature","id":"geonames-90635","properties":{"id":"geonames-90635","name":"شورباش عەزیز","kind":"village","tier":"locality","priority":300,"context":"هەولێر · هەولێر","category":"گوند"},"geometry":{"type":"Point","coordinates":[43.88194,36.05506]}},{"type":"Feature","id":"osm-node-2484155453","properties":{"id":"osm-node-2484155453","name":"شێراوە","kind":"village","tier":"locality","priority":300,"context":"هەولێر · هەولێر","category":"گوند"},"geometry":{"type":"Point","coordinates":[43.9646039,36.0682259]}},{"type":"Feature","id":"geonames-91124","properties":{"id":"geonames-91124","name":"شەماناوە","kind":"village","tier":"locality","priority":300,"context":"هەولێر · هەولێر","category":"گوند"},"geometry":{"type":"Point","coordinates":[43.93996,36.17717]}},{"type":"Feature","id":"osm-node-2488259177","properties":{"id":"osm-node-2488259177","name":"عەرەب کەندی","kind":"village","tier":"locality","priority":300,"context":"هەولێر · هەولێر","category":"گوند"},"geometry":{"type":"Point","coordinates":[43.8996461,36.1432874]}},{"type":"Feature","id":"osm-node-2488259203","properties":{"id":"osm-node-2488259203","name":"عەزە","kind":"village","tier":"locality","priority":300,"context":"هەولێر · هەولێر","category":"گوند"},"geometry":{"type":"Point","coordinates":[43.9215032,36.1206715]}},{"type":"Feature","id":"osm-node-6418470827","properties":{"id":"osm-node-6418470827","name":"عەلیاوە مەردان","kind":"village","tier":"locality","priority":300,"context":"هەولێر · هەولێر","category":"گوند"},"geometry":{"type":"Point","coordinates":[43.9727192,36.0743701]}},{"type":"Feature","id":"osm-node-2488259993","properties":{"id":"osm-node-2488259993","name":"قوچە بلباس","kind":"village","tier":"locality","priority":300,"context":"هەولێر · هەولێر","category":"گوند"},"geometry":{"type":"Point","coordinates":[43.9908884,36.0513642]}},{"type":"Feature","id":"osm-node-2488259986","properties":{"id":"osm-node-2488259986","name":"قۆریتان","kind":"village","tier":"locality","priority":300,"context":"هەولێر · هەولێر","category":"گوند"},"geometry":{"type":"Point","coordinates":[43.981177,36.090168]}},{"type":"Feature","id":"osm-node-2484155477","properties":{"id":"osm-node-2484155477","name":"قۆریتان ملا محمد","kind":"village","tier":"locality","priority":300,"context":"هەولێر · هەولێر","category":"گوند"},"geometry":{"type":"Point","coordinates":[43.8925727,36.0711956]}},{"type":"Feature","id":"geonames-92202","properties":{"id":"geonames-92202","name":"قۆچە بڵباس","kind":"village","tier":"locality","priority":300,"context":"هەولێر · هەولێر","category":"گوند"},"geometry":{"type":"Point","coordinates":[43.99075,36.05183]}},{"type":"Feature","id":"osm-node-2484155438","properties":{"id":"osm-node-2484155438","name":"قۆڕیتان","kind":"village","tier":"locality","priority":300,"context":"هەولێر · هەولێر","category":"گوند"},"geometry":{"type":"Point","coordinates":[43.947446,36.0785691]}},{"type":"Feature","id":"osm-way-277603274","properties":{"id":"osm-way-277603274","name":"قەراتکە","kind":"village","tier":"locality","priority":300,"context":"هەولێر · هەولێر","category":"گوند"},"geometry":{"type":"Point","coordinates":[43.86787763182254,36.249947]}},{"type":"Feature","id":"osm-node-9574677305","properties":{"id":"osm-node-9574677305","name":"قەریتاغ","kind":"village","tier":"locality","priority":300,"context":"هەولێر · هەولێر","category":"گوند"},"geometry":{"type":"Point","coordinates":[43.8819027,36.1615751]}},{"type":"Feature","id":"osm-node-12435672155","properties":{"id":"osm-node-12435672155","name":"قەڵاتە سۆران","kind":"village","tier":"locality","priority":300,"context":"مەخموور · هەولێر","category":"گوند"},"geometry":{"type":"Point","coordinates":[43.7622746,36.1658221]}},{"type":"Feature","id":"osm-node-12435564331","properties":{"id":"osm-node-12435564331","name":"لاجان","kind":"village","tier":"locality","priority":300,"context":"هەولێر · هەولێر","category":"گوند"},"geometry":{"type":"Point","coordinates":[43.7969349,36.130654]}},{"type":"Feature","id":"osm-node-4559229688","properties":{"id":"osm-node-4559229688","name":"ماستاوە","kind":"village","tier":"locality","priority":300,"context":"هەولێر · هەولێر","category":"گوند"},"geometry":{"type":"Point","coordinates":[43.8164604,36.0469607]}},{"type":"Feature","id":"osm-node-9350319432","properties":{"id":"osm-node-9350319432","name":"مزاحمد","kind":"village","tier":"locality","priority":300,"context":"هەولێر · هەولێر","category":"گوند"},"geometry":{"type":"Point","coordinates":[43.9535693,36.1125553]}},{"type":"Feature","id":"geonames-7018302","properties":{"id":"geonames-7018302","name":"پڵینگەی محەمەد ئاغا","kind":"village","tier":"locality","priority":300,"context":"هەولێر · هەولێر","category":"گوند"},"geometry":{"type":"Point","coordinates":[43.95772,36.00283]}},{"type":"Feature","id":"osm-node-2488259354","properties":{"id":"osm-node-2488259354","name":"پیرداود","kind":"village","tier":"locality","priority":300,"context":"هەولێر · هەولێر","category":"گوند"},"geometry":{"type":"Point","coordinates":[43.923217,36.0219159]}},{"type":"Feature","id":"osm-node-4559230187","properties":{"id":"osm-node-4559230187","name":"چمکە","kind":"village","tier":"locality","priority":300,"context":"هەولێر · هەولێر","category":"گوند"},"geometry":{"type":"Point","coordinates":[43.8433152,36.1414509]}},{"type":"Feature","id":"osm-node-4559230340","properties":{"id":"osm-node-4559230340","name":"چیمەن","kind":"village","tier":"locality","priority":300,"context":"هەولێر · هەولێر","category":"گوند"},"geometry":{"type":"Point","coordinates":[43.8704303,36.0746551]}},{"type":"Feature","id":"osm-node-2488260148","properties":{"id":"osm-node-2488260148","name":"ڕشکین","kind":"village","tier":"locality","priority":300,"context":"هەولێر · هەولێر","category":"گوند"},"geometry":{"type":"Point","coordinates":[43.936279,36.206502]}},{"type":"Feature","id":"osm-node-2484155451","properties":{"id":"osm-node-2484155451","name":"ڕکاوە","kind":"village","tier":"locality","priority":300,"context":"هەولێر · هەولێر","category":"گوند"},"geometry":{"type":"Point","coordinates":[43.9318469,36.103014]}},{"type":"Feature","id":"osm-node-2488248129","properties":{"id":"osm-node-2488248129","name":"ڕەختاوە","kind":"village","tier":"locality","priority":300,"context":"هەولێر · هەولێر","category":"گوند"},"geometry":{"type":"Point","coordinates":[43.7788188,36.0751332]}},{"type":"Feature","id":"osm-node-2479376293","properties":{"id":"osm-node-2479376293","name":"ڕەشکین","kind":"village","tier":"locality","priority":300,"context":"هەولێر · هەولێر","category":"گوند"},"geometry":{"type":"Point","coordinates":[43.9569582,36.2069669]}},{"type":"Feature","id":"osm-way-320868778","properties":{"id":"osm-way-320868778","name":"کانی قرژالە","kind":"village","tier":"locality","priority":300,"context":"هەولێر · هەولێر","category":"گوند"},"geometry":{"type":"Point","coordinates":[43.86188969806405,36.19548385]}},{"type":"Feature","id":"osm-way-299378314","properties":{"id":"osm-way-299378314","name":"کانی قرژالە","kind":"village","tier":"locality","priority":300,"context":"هەولێر · هەولێر","category":"گوند"},"geometry":{"type":"Point","coordinates":[43.859147199724134,36.20506745]}},{"type":"Feature","id":"osm-way-305477644","properties":{"id":"osm-way-305477644","name":"گرد عازەبان","kind":"village","tier":"locality","priority":300,"context":"هەولێر · هەولێر","category":"گوند"},"geometry":{"type":"Point","coordinates":[43.833110020281154,36.0051505]}},{"type":"Feature","id":"osm-node-4559230184","properties":{"id":"osm-node-4559230184","name":"یارمجە","kind":"village","tier":"locality","priority":300,"context":"هەولێر · هەولێر","category":"گوند"},"geometry":{"type":"Point","coordinates":[43.8310051,36.1338023]}},{"type":"Feature","id":"osm-way-305466916","properties":{"id":"osm-way-305466916","name":"عەلیاوە","kind":"hamlet","tier":"locality","priority":250,"context":"هەولێر · هەولێر","category":"گوندۆکە"},"geometry":{"type":"Point","coordinates":[43.81468673332296,36.0060061]}},{"type":"Feature","id":"osm-node-11500252513","properties":{"id":"osm-node-11500252513","name":"گەڕەکی نەسیج","kind":"suburb","tier":"locality","priority":245,"context":"هەولێر · هەولێر","category":"پاشکۆی شار"},"geometry":{"type":"Point","coordinates":[43.9901359,36.1668541]}},{"type":"Feature","id":"osm-natural-forest-c9a11e3c3e7547","properties":{"id":"osm-natural-forest-c9a11e3c3e7547","name":"woods-filed","kind":"natural","tier":"natural","priority":180,"context":"دارستان · اربيل · هەولێر","category":"دارستان"},"geometry":{"type":"Point","coordinates":[43.9881737,36.2076017]}},{"type":"Feature","id":"osm-natural-reservoir-c550374a1deefe","properties":{"id":"osm-natural-reservoir-c550374a1deefe","name":"بحيرة ١","kind":"natural","tier":"natural","priority":180,"context":"بەنداوی ئاو · اربيل · هەولێر","category":"بەنداوی ئاو"},"geometry":{"type":"Point","coordinates":[43.9878846,36.1916753]}},{"type":"Feature","id":"osm-natural-reservoir-de3a15f33b2c50","properties":{"id":"osm-natural-reservoir-de3a15f33b2c50","name":"بحيرة ٢","kind":"natural","tier":"natural","priority":180,"context":"بەنداوی ئاو · اربيل · هەولێر","category":"بەنداوی ئاو"},"geometry":{"type":"Point","coordinates":[43.9882989,36.1927393]}},{"type":"Feature","id":"osm-natural-stream-c7e973ac2dc0f1","properties":{"id":"osm-natural-stream-c7e973ac2dc0f1","name":"ساقية عبد الرحمن","kind":"natural","tier":"natural","priority":180,"context":"جۆگە · اربيل · هەولێر","category":"جۆگە"},"geometry":{"type":"Point","coordinates":[43.84127,36.04508]}},{"type":"Feature","id":"osm-natural-stream-5b6aba8ab059a6","properties":{"id":"osm-natural-stream-5b6aba8ab059a6","name":"ساقية عين كاوه","kind":"natural","tier":"natural","priority":180,"context":"جۆگە · اربيل · هەولێر","category":"جۆگە"},"geometry":{"type":"Point","coordinates":[43.9636,36.20616]}},{"type":"Feature","id":"osm-natural-valley-6b7322854817da","properties":{"id":"osm-natural-valley-6b7322854817da","name":"وادي اسعد افندي","kind":"natural","tier":"natural","priority":180,"context":"دۆڵ · اربيل · هەولێر","category":"دۆڵ"},"geometry":{"type":"Point","coordinates":[43.82713,36.05909]}},{"type":"Feature","id":"osm-natural-valley-1f8a30ae4dd285","properties":{"id":"osm-natural-valley-1f8a30ae4dd285","name":"وادي بسطي شبرود","kind":"natural","tier":"natural","priority":180,"context":"دۆڵ · اربيل · هەولێر","category":"دۆڵ"},"geometry":{"type":"Point","coordinates":[43.92379,36.04093]}},{"type":"Feature","id":"osm-natural-valley-42345a7936089b","properties":{"id":"osm-natural-valley-42345a7936089b","name":"وادي بسطي قيطسة","kind":"natural","tier":"natural","priority":180,"context":"دۆڵ · مخمور · هەولێر","category":"دۆڵ"},"geometry":{"type":"Point","coordinates":[43.75344,36.14987]}},{"type":"Feature","id":"osm-natural-valley-3b5baff83be73b","properties":{"id":"osm-natural-valley-3b5baff83be73b","name":"وادي تبة كرز","kind":"natural","tier":"natural","priority":180,"context":"دۆڵ · اربيل · هەولێر","category":"دۆڵ"},"geometry":{"type":"Point","coordinates":[43.81,36.05551]}},{"type":"Feature","id":"osm-natural-valley-052bfa16fa339a","properties":{"id":"osm-natural-valley-052bfa16fa339a","name":"وادي سيروة","kind":"natural","tier":"natural","priority":180,"context":"دۆڵ · اربيل · هەولێر","category":"دۆڵ"},"geometry":{"type":"Point","coordinates":[43.94976,36.21236]}},{"type":"Feature","id":"osm-natural-valley-e4f5caf7171024","properties":{"id":"osm-natural-valley-e4f5caf7171024","name":"وادي شيوة سور","kind":"natural","tier":"natural","priority":180,"context":"دۆڵ · اربيل · هەولێر","category":"دۆڵ"},"geometry":{"type":"Point","coordinates":[43.81544,36.00052]}},{"type":"Feature","id":"osm-natural-valley-bafccf7d3a54e9","properties":{"id":"osm-natural-valley-bafccf7d3a54e9","name":"وادي فاطمة خان","kind":"natural","tier":"natural","priority":180,"context":"دۆڵ · اربيل · هەولێر","category":"دۆڵ"},"geometry":{"type":"Point","coordinates":[43.82839,36.10017]}},{"type":"Feature","id":"osm-natural-valley-75631f5b6cc7dd","properties":{"id":"osm-natural-valley-75631f5b6cc7dd","name":"وادي كاريز شيخ زاده","kind":"natural","tier":"natural","priority":180,"context":"دۆڵ · اربيل · هەولێر","category":"دۆڵ"},"geometry":{"type":"Point","coordinates":[43.8757,36.13283]}},{"type":"Feature","id":"osm-natural-valley-3a945a2e371339","properties":{"id":"osm-natural-valley-3a945a2e371339","name":"وادي كاهردي","kind":"natural","tier":"natural","priority":180,"context":"دۆڵ · اربيل · هەولێر","category":"دۆڵ"},"geometry":{"type":"Point","coordinates":[43.85982,36.03912]}},{"type":"Feature","id":"osm-natural-valley-d12458d18d6db8","properties":{"id":"osm-natural-valley-d12458d18d6db8","name":"وادي كلكه موشك","kind":"natural","tier":"natural","priority":180,"context":"دۆڵ · اربيل · هەولێر","category":"دۆڵ"},"geometry":{"type":"Point","coordinates":[43.92504,36.1511]}},{"type":"Feature","id":"osm-natural-valley-d605277686d2f6","properties":{"id":"osm-natural-valley-d605277686d2f6","name":"وادي كندي شوزار","kind":"natural","tier":"natural","priority":180,"context":"دۆڵ · اربيل · هەولێر","category":"دۆڵ"},"geometry":{"type":"Point","coordinates":[43.92374,36.00228]}},{"type":"Feature","id":"osm-natural-valley-012d192a777113","properties":{"id":"osm-natural-valley-012d192a777113","name":"وادي كندي قوريتان","kind":"natural","tier":"natural","priority":180,"context":"دۆڵ · اربيل · هەولێر","category":"دۆڵ"},"geometry":{"type":"Point","coordinates":[43.94625,36.08218]}},{"type":"Feature","id":"osm-natural-valley-6979be31e93f26","properties":{"id":"osm-natural-valley-6979be31e93f26","name":"وادي كوردرة","kind":"natural","tier":"natural","priority":180,"context":"دۆڵ · اربيل · هەولێر","category":"دۆڵ"},"geometry":{"type":"Point","coordinates":[43.87414,36.08931]}},{"type":"Feature","id":"osm-natural-river-aadf397493dd8a","properties":{"id":"osm-natural-river-aadf397493dd8a","name":"چەمی شیوە سۆر","kind":"natural","tier":"natural","priority":180,"context":"ڕووبار · اربيل · هەولێر","category":"ڕووبار"},"geometry":{"type":"Point","coordinates":[43.9033547,36.0986684]}},{"type":"Feature","id":"osm-natural-wetland-b0627a3b05ab30","properties":{"id":"osm-natural-wetland-b0627a3b05ab30","name":"گۆماوی لهتیفاوه","kind":"natural","tier":"natural","priority":180,"context":"زەوی تەڕ · اربيل · هەولێر","category":"زەوی تەڕ"},"geometry":{"type":"Point","coordinates":[43.982339,36.1369002]}},{"type":"Feature","id":"road-label-osm-way-1063523128","properties":{"id":"road-label-osm-way-1063523128","name":"سێڕیانی لەیلا قاسم","kind":"road","tier":"road","priority":95,"context":"trunk · اربيل · هەولێر","category":"ڕێگا"},"geometry":{"type":"Point","coordinates":[43.995297,36.181932]}},{"type":"Feature","id":"road-label-osm-way-570785877","properties":{"id":"road-label-osm-way-570785877","name":"شەقامی دهۆک","kind":"road","tier":"road","priority":95,"context":"trunk · اربيل · هەولێر","category":"ڕێگا"},"geometry":{"type":"Point","coordinates":[43.98105,36.248465]}},{"type":"Feature","id":"road-label-osm-way-979867401","properties":{"id":"road-label-osm-way-979867401","name":"شەقامی سێر جۆن مێجەر","kind":"road","tier":"road","priority":95,"context":"trunk · اربيل · هەولێر","category":"ڕێگا"},"geometry":{"type":"Point","coordinates":[43.996954,36.211059]}},{"type":"Feature","id":"road-label-osm-way-778243649","properties":{"id":"road-label-osm-way-778243649","name":"شەقامی عەنکاوە","kind":"road","tier":"road","priority":95,"context":"trunk · اربيل · هەولێر","category":"ڕێگا"},"geometry":{"type":"Point","coordinates":[43.994026,36.217181]}},{"type":"Feature","id":"road-label-osm-way-683407517","properties":{"id":"road-label-osm-way-683407517","name":"شەقامی موسڵ","kind":"road","tier":"road","priority":95,"context":"trunk · اربيل · هەولێر","category":"ڕێگا"},"geometry":{"type":"Point","coordinates":[43.942897,36.175815]}},{"type":"Feature","id":"road-label-osm-way-48468538","properties":{"id":"road-label-osm-way-48468538","name":"شەقامی موسڵ","kind":"road","tier":"road","priority":95,"context":"trunk · اربيل · هەولێر","category":"ڕێگا"},"geometry":{"type":"Point","coordinates":[43.979733,36.183487]}},{"type":"Feature","id":"road-label-osm-way-193041764","properties":{"id":"road-label-osm-way-193041764","name":"شەقامی مەخموور","kind":"road","tier":"road","priority":95,"context":"trunk · اربيل · هەولێر","category":"ڕێگا"},"geometry":{"type":"Point","coordinates":[43.969615,36.122564]}},{"type":"Feature","id":"road-label-osm-way-444483343","properties":{"id":"road-label-osm-way-444483343","name":"شەقامی مەخموور","kind":"road","tier":"road","priority":95,"context":"trunk · اربيل · هەولێر","category":"ڕێگا"},"geometry":{"type":"Point","coordinates":[43.969017,36.119103]}},{"type":"Feature","id":"road-label-osm-way-444483344","properties":{"id":"road-label-osm-way-444483344","name":"شەقامی مەخموور","kind":"road","tier":"road","priority":95,"context":"trunk · اربيل · هەولێر","category":"ڕێگا"},"geometry":{"type":"Point","coordinates":[43.993992,36.161754]}},{"type":"Feature","id":"road-label-osm-way-392524258","properties":{"id":"road-label-osm-way-392524258","name":"شەقامی مەخموور","kind":"road","tier":"road","priority":95,"context":"trunk · اربيل · هەولێر","category":"ڕێگا"},"geometry":{"type":"Point","coordinates":[43.961509,36.104309]}},{"type":"Feature","id":"road-label-osm-way-1058269600","properties":{"id":"road-label-osm-way-1058269600","name":"شەقامی مەخموور","kind":"road","tier":"road","priority":95,"context":"trunk · اربيل · هەولێر","category":"ڕێگا"},"geometry":{"type":"Point","coordinates":[43.962946,36.106609]}},{"type":"Feature","id":"road-label-osm-way-276420428","properties":{"id":"road-label-osm-way-276420428","name":"شەقامی پێشەوا قازی","kind":"road","tier":"road","priority":95,"context":"trunk · اربيل · هەولێر","category":"ڕێگا"},"geometry":{"type":"Point","coordinates":[43.971088,36.160845]}},{"type":"Feature","id":"road-label-osm-way-1012432419","properties":{"id":"road-label-osm-way-1012432419","name":"ڕێگای هەولیر - موسڵ","kind":"road","tier":"road","priority":95,"context":"trunk · اربيل · هەولێر","category":"ڕێگا"},"geometry":{"type":"Point","coordinates":[43.92028,36.180857]}},{"type":"Feature","id":"road-label-osm-way-683407513","properties":{"id":"road-label-osm-way-683407513","name":"ڕێگای هەولێر - موسڵ","kind":"road","tier":"road","priority":95,"context":"trunk · اربيل · هەولێر","category":"ڕێگا"},"geometry":{"type":"Point","coordinates":[43.819122,36.23053]}},{"type":"Feature","id":"road-label-osm-way-392528017","properties":{"id":"road-label-osm-way-392528017","name":"ڕێگای هەولێر-مەخموور","kind":"road","tier":"road","priority":95,"context":"trunk · اربيل · هەولێر","category":"ڕێگا"},"geometry":{"type":"Point","coordinates":[43.93752,36.04606]}},{"type":"Feature","id":"road-label-osm-way-321903095","properties":{"id":"road-label-osm-way-321903095","name":"ڕێگای هەولێر-گوێڕ","kind":"road","tier":"road","priority":95,"context":"trunk · اربيل · هەولێر","category":"ڕێگا"},"geometry":{"type":"Point","coordinates":[43.820467,36.142157]}},{"type":"Feature","id":"road-label-osm-way-581288988","properties":{"id":"road-label-osm-way-581288988","name":"ڕێگای گوێڕ","kind":"road","tier":"road","priority":95,"context":"trunk · اربيل · هەولێر","category":"ڕێگا"},"geometry":{"type":"Point","coordinates":[43.923183,36.17722]}},{"type":"Feature","id":"road-label-osm-way-1485586660","properties":{"id":"road-label-osm-way-1485586660","name":"Van Steel U-Turn","kind":"road","tier":"road","priority":93,"context":"trunk · اربيل · هەولێر","category":"ڕێگا"},"geometry":{"type":"Point","coordinates":[43.958322,36.098347]}},{"type":"Feature","id":"road-label-osm-way-1040174411","properties":{"id":"road-label-osm-way-1040174411","name":"شەقامی مەخموور","kind":"road","tier":"road","priority":93,"context":"trunk · اربيل · هەولێر","category":"ڕێگا"},"geometry":{"type":"Point","coordinates":[43.991605,36.157188]}},{"type":"Feature","id":"road-label-osm-way-1040174413","properties":{"id":"road-label-osm-way-1040174413","name":"شەقامی پێشەوا قازی","kind":"road","tier":"road","priority":93,"context":"trunk · اربيل · هەولێر","category":"ڕێگا"},"geometry":{"type":"Point","coordinates":[43.990877,36.156797]}},{"type":"Feature","id":"road-label-osm-way-443675057","properties":{"id":"road-label-osm-way-443675057","name":"شەقامی زوورگەزراو","kind":"road","tier":"road","priority":88,"context":"primary · اربيل · هەولێر","category":"ڕێگا"},"geometry":{"type":"Point","coordinates":[43.992685,36.167948]}},{"type":"Feature","id":"road-label-osm-way-322466314","properties":{"id":"road-label-osm-way-322466314","name":"شەقامی فڕۆکەخانە","kind":"road","tier":"road","priority":88,"context":"primary · اربيل · هەولێر","category":"ڕێگا"},"geometry":{"type":"Point","coordinates":[43.958532,36.227812]}},{"type":"Feature","id":"road-label-osm-way-548785411","properties":{"id":"road-label-osm-way-548785411","name":"شەقامی فڕۆکەخانە","kind":"road","tier":"road","priority":88,"context":"primary · اربيل · هەولێر","category":"ڕێگا"},"geometry":{"type":"Point","coordinates":[43.968158,36.215842]}},{"type":"Feature","id":"road-label-osm-way-458367842","properties":{"id":"road-label-osm-way-458367842","name":"شەقامی فڕۆکەخانە","kind":"road","tier":"road","priority":88,"context":"primary · اربيل · هەولێر","category":"ڕێگا"},"geometry":{"type":"Point","coordinates":[43.956634,36.233537]}},{"type":"Feature","id":"road-label-osm-way-548785413","properties":{"id":"road-label-osm-way-548785413","name":"شەقامی فڕۆکەخانە","kind":"road","tier":"road","priority":88,"context":"primary · اربيل · هەولێر","category":"ڕێگا"},"geometry":{"type":"Point","coordinates":[43.964989,36.217571]}},{"type":"Feature","id":"road-label-osm-way-990444147","properties":{"id":"road-label-osm-way-990444147","name":"شەقامی نەورۆز","kind":"road","tier":"road","priority":88,"context":"primary · اربيل · هەولێر","category":"ڕێگا"},"geometry":{"type":"Point","coordinates":[43.976287,36.167904]}},{"type":"Feature","id":"road-label-osm-way-443674651","properties":{"id":"road-label-osm-way-443674651","name":"شەقامی نەورۆز","kind":"road","tier":"road","priority":88,"context":"primary · اربيل · هەولێر","category":"ڕێگا"},"geometry":{"type":"Point","coordinates":[43.968458,36.162189]}},{"type":"Feature","id":"road-label-osm-way-192989508","properties":{"id":"road-label-osm-way-192989508","name":"شەقامی هەڵەبجە","kind":"road","tier":"road","priority":88,"context":"primary · اربيل · هەولێر","category":"ڕێگا"},"geometry":{"type":"Point","coordinates":[43.999594,36.182691]}},{"type":"Feature","id":"road-label-osm-way-74913634","properties":{"id":"road-label-osm-way-74913634","name":"شەقامی ڕەمزی نافع","kind":"road","tier":"road","priority":88,"context":"primary · اربيل · هەولێر","category":"ڕێگا"},"geometry":{"type":"Point","coordinates":[43.981423,36.208976]}},{"type":"Feature","id":"road-label-osm-way-778243647","properties":{"id":"road-label-osm-way-778243647","name":"شەقامی گوڵان","kind":"road","tier":"road","priority":88,"context":"primary · اربيل · هەولێر","category":"ڕێگا"},"geometry":{"type":"Point","coordinates":[43.986508,36.208809]}},{"type":"Feature","id":"road-label-osm-way-770816525","properties":{"id":"road-label-osm-way-770816525","name":"شەقامی گوڵان","kind":"road","tier":"road","priority":88,"context":"primary · اربيل · هەولێر","category":"ڕێگا"},"geometry":{"type":"Point","coordinates":[43.975944,36.191647]}},{"type":"Feature","id":"road-label-osm-way-243521044","properties":{"id":"road-label-osm-way-243521044","name":"Khormala Oil & Gas Project road","kind":"road","tier":"road","priority":72,"context":"secondary · اربيل · هەولێر","category":"ڕێگا"},"geometry":{"type":"Point","coordinates":[43.828294,36.006814]}},{"type":"Feature","id":"road-label-osm-way-243521041","properties":{"id":"road-label-osm-way-243521041","name":"Khormala Road","kind":"road","tier":"road","priority":72,"context":"secondary · اربيل · هەولێر","category":"ڕێگا"},"geometry":{"type":"Point","coordinates":[43.892314,36.020897]}},{"type":"Feature","id":"road-label-osm-way-243612850","properties":{"id":"road-label-osm-way-243612850","name":"Mastawa - aliyawa road","kind":"road","tier":"road","priority":72,"context":"secondary · اربيل · هەولێر","category":"ڕێگا"},"geometry":{"type":"Point","coordinates":[43.812681,36.024708]}},{"type":"Feature","id":"road-label-osm-way-374499134","properties":{"id":"road-label-osm-way-374499134","name":"Mastawa road","kind":"road","tier":"road","priority":72,"context":"secondary · اربيل · هەولێر","category":"ڕێگا"},"geometry":{"type":"Point","coordinates":[43.815073,36.04815]}},{"type":"Feature","id":"road-label-osm-way-203755546","properties":{"id":"road-label-osm-way-203755546","name":"Qoritan-Tandura-Mosul road","kind":"road","tier":"road","priority":72,"context":"secondary · اربيل · هەولێر","category":"ڕێگا"},"geometry":{"type":"Point","coordinates":[43.893329,36.076388]}},{"type":"Feature","id":"road-label-osm-way-1095219318","properties":{"id":"road-label-osm-way-1095219318","name":"Salahaddin Street","kind":"road","tier":"road","priority":72,"context":"secondary · اربيل · هەولێر","category":"ڕێگا"},"geometry":{"type":"Point","coordinates":[43.999941,36.1933]}},{"type":"Feature","id":"road-label-osm-way-203753455","properties":{"id":"road-label-osm-way-203753455","name":"Sarkarez Street","kind":"road","tier":"road","priority":72,"context":"secondary · اربيل · هەولێر","category":"ڕێگا"},"geometry":{"type":"Point","coordinates":[43.967832,36.129627]}},{"type":"Feature","id":"road-label-osm-way-374499031","properties":{"id":"road-label-osm-way-374499031","name":"Tandura - Mastawa road","kind":"road","tier":"road","priority":72,"context":"secondary · اربيل · هەولێر","category":"ڕێگا"},"geometry":{"type":"Point","coordinates":[43.828697,36.061287]}},{"type":"Feature","id":"road-label-osm-way-637582604","properties":{"id":"road-label-osm-way-637582604","name":"شارع شلاما","kind":"road","tier":"road","priority":72,"context":"secondary · اربيل · هەولێر","category":"ڕێگا"},"geometry":{"type":"Point","coordinates":[43.995068,36.241119]}},{"type":"Feature","id":"road-label-osm-way-194372814","properties":{"id":"road-label-osm-way-194372814","name":"شەقامی سامی شۆڕش","kind":"road","tier":"road","priority":72,"context":"secondary · اربيل · هەولێر","category":"ڕێگا"},"geometry":{"type":"Point","coordinates":[43.991507,36.20325]}},{"type":"Feature","id":"road-label-osm-way-343061364","properties":{"id":"road-label-osm-way-343061364","name":"شەقامی شلاما","kind":"road","tier":"road","priority":72,"context":"secondary · اربيل · هەولێر","category":"ڕێگا"},"geometry":{"type":"Point","coordinates":[43.998148,36.231196]}},{"type":"Feature","id":"road-label-osm-way-304904722","properties":{"id":"road-label-osm-way-304904722","name":"شەقامی عەلی هەژار","kind":"road","tier":"road","priority":72,"context":"secondary · اربيل · هەولێر","category":"ڕێگا"},"geometry":{"type":"Point","coordinates":[43.98496,36.183316]}},{"type":"Feature","id":"road-label-osm-way-248057687","properties":{"id":"road-label-osm-way-248057687","name":"شەقامی فڕۆکەخانە","kind":"road","tier":"road","priority":72,"context":"secondary · اربيل · هەولێر","category":"ڕێگا"},"geometry":{"type":"Point","coordinates":[43.987515,36.197587]}},{"type":"Feature","id":"road-label-osm-way-248057689","properties":{"id":"road-label-osm-way-248057689","name":"شەقامی فڕۆکەخانە","kind":"road","tier":"road","priority":72,"context":"secondary · اربيل · هەولێر","category":"ڕێگا"},"geometry":{"type":"Point","coordinates":[43.973686,36.202134]}},{"type":"Feature","id":"road-label-osm-way-322347196","properties":{"id":"road-label-osm-way-322347196","name":"شەقامی فڕۆکەخانە","kind":"road","tier":"road","priority":72,"context":"secondary · اربيل · هەولێر","category":"ڕێگا"},"geometry":{"type":"Point","coordinates":[43.956438,36.232418]}},{"type":"Feature","id":"road-label-osm-way-1216646208","properties":{"id":"road-label-osm-way-1216646208","name":"شەقامی مامۆستا عەلی عەبدوڵڵا","kind":"road","tier":"road","priority":72,"context":"secondary · اربيل · هەولێر","category":"ڕێگا"},"geometry":{"type":"Point","coordinates":[43.96033,36.206787]}},{"type":"Feature","id":"road-label-osm-way-569881883","properties":{"id":"road-label-osm-way-569881883","name":"Adi Sher Street","kind":"road","tier":"road","priority":55,"context":"tertiary · اربيل · هەولێر","category":"ڕێگا"},"geometry":{"type":"Point","coordinates":[43.985949,36.237664]}},{"type":"Feature","id":"road-label-osm-way-193403763","properties":{"id":"road-label-osm-way-193403763","name":"Ainkawa","kind":"road","tier":"road","priority":55,"context":"tertiary · اربيل · هەولێر","category":"ڕێگا"},"geometry":{"type":"Point","coordinates":[43.986465,36.235526]}},{"type":"Feature","id":"road-label-osm-way-437565280","properties":{"id":"road-label-osm-way-437565280","name":"Ankawa","kind":"road","tier":"road","priority":55,"context":"tertiary · اربيل · هەولێر","category":"ڕێگا"},"geometry":{"type":"Point","coordinates":[43.989013,36.229781]}},{"type":"Feature","id":"road-label-osm-way-437565275","properties":{"id":"road-label-osm-way-437565275","name":"Bahrka - Ainkawa Road","kind":"road","tier":"road","priority":55,"context":"tertiary · اربيل · هەولێر","category":"ڕێگا"},"geometry":{"type":"Point","coordinates":[43.990038,36.231453]}},{"type":"Feature","id":"road-label-osm-way-437565276","properties":{"id":"road-label-osm-way-437565276","name":"Bahrka - Ankawa Road","kind":"road","tier":"road","priority":55,"context":"tertiary · اربيل · هەولێر","category":"ڕێگا"},"geometry":{"type":"Point","coordinates":[43.990853,36.232871]}},{"type":"Feature","id":"road-label-osm-way-1365141316","properties":{"id":"road-label-osm-way-1365141316","name":"Diyari City Street","kind":"road","tier":"road","priority":55,"context":"tertiary · اربيل · هەولێر","category":"ڕێگا"},"geometry":{"type":"Point","coordinates":[43.907099,36.15485]}},{"type":"Feature","id":"road-label-osm-way-195240065","properties":{"id":"road-label-osm-way-195240065","name":"Gas Sale","kind":"road","tier":"road","priority":55,"context":"tertiary · اربيل · هەولێر","category":"ڕێگا"},"geometry":{"type":"Point","coordinates":[43.989302,36.185136]}},{"type":"Feature","id":"road-label-osm-way-437565278","properties":{"id":"road-label-osm-way-437565278","name":"Kani Street","kind":"road","tier":"road","priority":55,"context":"tertiary · اربيل · هەولێر","category":"ڕێگا"},"geometry":{"type":"Point","coordinates":[43.989758,36.231374]}},{"type":"Feature","id":"road-label-osm-way-980123858","properties":{"id":"road-label-osm-way-980123858","name":"Mz Ahmad","kind":"road","tier":"road","priority":55,"context":"tertiary · اربيل · هەولێر","category":"ڕێگا"},"geometry":{"type":"Point","coordinates":[43.960997,36.112133]}},{"type":"Feature","id":"road-label-osm-way-198654719","properties":{"id":"road-label-osm-way-198654719","name":"Qasra Street","kind":"road","tier":"road","priority":55,"context":"tertiary · اربيل · هەولێر","category":"ڕێگا"},"geometry":{"type":"Point","coordinates":[43.991294,36.234437]}},{"type":"Feature","id":"road-label-osm-way-861224555","properties":{"id":"road-label-osm-way-861224555","name":"dream city","kind":"road","tier":"road","priority":55,"context":"tertiary · اربيل · هەولێر","category":"ڕێگا"},"geometry":{"type":"Point","coordinates":[43.971331,36.203107]}},{"type":"Feature","id":"road-label-osm-way-203754213","properties":{"id":"road-label-osm-way-203754213","name":"رێگای قوچەبلباس","kind":"road","tier":"road","priority":55,"context":"tertiary · اربيل · هەولێر","category":"ڕێگا"},"geometry":{"type":"Point","coordinates":[43.98214,36.057169]}},{"type":"Feature","id":"road-label-osm-way-198654736","properties":{"id":"road-label-osm-way-198654736","name":"شارع المنتزه","kind":"road","tier":"road","priority":55,"context":"tertiary · اربيل · هەولێر","category":"ڕێگا"},"geometry":{"type":"Point","coordinates":[43.994163,36.23013]}},{"type":"Feature","id":"road-label-osm-way-198654725","properties":{"id":"road-label-osm-way-198654725","name":"شارع خبات","kind":"road","tier":"road","priority":55,"context":"tertiary · اربيل · هەولێر","category":"ڕێگا"},"geometry":{"type":"Point","coordinates":[43.99594,36.225641]}},{"type":"Feature","id":"road-label-osm-way-670502001","properties":{"id":"road-label-osm-way-670502001","name":"شارع صفين","kind":"road","tier":"road","priority":55,"context":"tertiary · اربيل · هەولێر","category":"ڕێگا"},"geometry":{"type":"Point","coordinates":[43.990732,36.234549]}},{"type":"Feature","id":"road-label-osm-way-976572491","properties":{"id":"road-label-osm-way-976572491","name":"شارع كاني","kind":"road","tier":"road","priority":55,"context":"tertiary · اربيل · هەولێر","category":"ڕێگا"},"geometry":{"type":"Point","coordinates":[43.998686,36.168882]}},{"type":"Feature","id":"road-label-osm-way-993438609","properties":{"id":"road-label-osm-way-993438609","name":"شارع كوران 2","kind":"road","tier":"road","priority":55,"context":"tertiary · اربيل · هەولێر","category":"ڕێگا"},"geometry":{"type":"Point","coordinates":[43.992104,36.175964]}},{"type":"Feature","id":"road-label-osm-way-372345616","properties":{"id":"road-label-osm-way-372345616","name":"شارع نوهدرا","kind":"road","tier":"road","priority":55,"context":"tertiary · اربيل · هەولێر","category":"ڕێگا"},"geometry":{"type":"Point","coordinates":[43.991857,36.229668]}},{"type":"Feature","id":"road-label-osm-way-198670614","properties":{"id":"road-label-osm-way-198670614","name":"شەقامی ئادی شێر","kind":"road","tier":"road","priority":55,"context":"tertiary · اربيل · هەولێر","category":"ڕێگا"},"geometry":{"type":"Point","coordinates":[43.988288,36.238112]}},{"type":"Feature","id":"road-label-osm-way-198198400","properties":{"id":"road-label-osm-way-198198400","name":"شەقامی ئیبراهیم بەربەر","kind":"road","tier":"road","priority":55,"context":"tertiary · اربيل · هەولێر","category":"ڕێگا"},"geometry":{"type":"Point","coordinates":[43.996697,36.187805]}},{"type":"Feature","id":"road-label-osm-way-934352320","properties":{"id":"road-label-osm-way-934352320","name":"شەقامی ئیحسان شێرزاد","kind":"road","tier":"road","priority":55,"context":"tertiary · اربيل · هەولێر","category":"ڕێگا"},"geometry":{"type":"Point","coordinates":[43.957219,36.191951]}},{"type":"Feature","id":"road-label-osm-way-198521592","properties":{"id":"road-label-osm-way-198521592","name":"شەقامی ئەحمەد ڕۆژبەیانی","kind":"road","tier":"road","priority":55,"context":"tertiary · اربيل · هەولێر","category":"ڕێگا"},"geometry":{"type":"Point","coordinates":[43.99262,36.198786]}},{"type":"Feature","id":"road-label-osm-way-987056996","properties":{"id":"road-label-osm-way-987056996","name":"شەقامی ئەلبان","kind":"road","tier":"road","priority":55,"context":"tertiary · اربيل · هەولێر","category":"ڕێگا"},"geometry":{"type":"Point","coordinates":[43.993205,36.170992]}},{"type":"Feature","id":"road-label-osm-way-1181988452","properties":{"id":"road-label-osm-way-1181988452","name":"شەقامی ئەلبان","kind":"road","tier":"road","priority":55,"context":"tertiary · اربيل · هەولێر","category":"ڕێگا"},"geometry":{"type":"Point","coordinates":[43.991373,36.169304]}},{"type":"Feature","id":"road-label-osm-way-443680642","properties":{"id":"road-label-osm-way-443680642","name":"شەقامی ئەلبان","kind":"road","tier":"road","priority":55,"context":"tertiary · اربيل · هەولێر","category":"ڕێگا"},"geometry":{"type":"Point","coordinates":[43.999293,36.176454]}},{"type":"Feature","id":"road-label-osm-way-121534121","properties":{"id":"road-label-osm-way-121534121","name":"شەقامی جزیری","kind":"road","tier":"road","priority":55,"context":"tertiary · اربيل · هەولێر","category":"ڕێگا"},"geometry":{"type":"Point","coordinates":[43.96862,36.185953]}},{"type":"Feature","id":"road-label-osm-way-194402044","properties":{"id":"road-label-osm-way-194402044","name":"شەقامی حەبیب موحەمەد کەریم","kind":"road","tier":"road","priority":55,"context":"tertiary · اربيل · هەولێر","category":"ڕێگا"},"geometry":{"type":"Point","coordinates":[43.970217,36.195197]}},{"type":"Feature","id":"road-label-osm-way-195221615","properties":{"id":"road-label-osm-way-195221615","name":"شەقامی حەسەن حەیران","kind":"road","tier":"road","priority":55,"context":"tertiary · اربيل · هەولێر","category":"ڕێگا"},"geometry":{"type":"Point","coordinates":[43.966582,36.169546]}},{"type":"Feature","id":"road-label-osm-way-995218363","properties":{"id":"road-label-osm-way-995218363","name":"شەقامی دانیال قەساب","kind":"road","tier":"road","priority":55,"context":"tertiary · اربيل · هەولێر","category":"ڕێگا"},"geometry":{"type":"Point","coordinates":[43.988316,36.21531]}},{"type":"Feature","id":"road-label-osm-way-995218362","properties":{"id":"road-label-osm-way-995218362","name":"شەقامی دانیاڵ قەساب","kind":"road","tier":"road","priority":55,"context":"tertiary · اربيل · هەولێر","category":"ڕێگا"},"geometry":{"type":"Point","coordinates":[43.988462,36.215317]}},{"type":"Feature","id":"road-label-osm-way-990443119","properties":{"id":"road-label-osm-way-990443119","name":"شەقامی دایکی پێشمەرگە","kind":"road","tier":"road","priority":55,"context":"tertiary · اربيل · هەولێر","category":"ڕێگا"},"geometry":{"type":"Point","coordinates":[43.964801,36.158692]}},{"type":"Feature","id":"road-label-osm-way-1011691480","properties":{"id":"road-label-osm-way-1011691480","name":"شەقامی دکتۆر موحەمەد شێخۆ","kind":"road","tier":"road","priority":55,"context":"tertiary · اربيل · هەولێر","category":"ڕێگا"},"geometry":{"type":"Point","coordinates":[43.990779,36.210495]}},{"type":"Feature","id":"road-label-osm-way-107216484","properties":{"id":"road-label-osm-way-107216484","name":"شەقامی زازا","kind":"road","tier":"road","priority":55,"context":"tertiary · اربيل · هەولێر","category":"ڕێگا"},"geometry":{"type":"Point","coordinates":[43.996465,36.189895]}},{"type":"Feature","id":"road-label-osm-way-347998901","properties":{"id":"road-label-osm-way-347998901","name":"شەقامی سێوە","kind":"road","tier":"road","priority":55,"context":"tertiary · اربيل · هەولێر","category":"ڕێگا"},"geometry":{"type":"Point","coordinates":[43.991531,36.215554]}},{"type":"Feature","id":"road-label-osm-way-329884592","properties":{"id":"road-label-osm-way-329884592","name":"شەقامی سەفین","kind":"road","tier":"road","priority":55,"context":"tertiary · اربيل · هەولێر","category":"ڕێگا"},"geometry":{"type":"Point","coordinates":[43.990723,36.237031]}},{"type":"Feature","id":"road-label-osm-way-301204104","properties":{"id":"road-label-osm-way-301204104","name":"شەقامی عەبدولخالق سەرسام","kind":"road","tier":"road","priority":55,"context":"tertiary · اربيل · هەولێر","category":"ڕێگا"},"geometry":{"type":"Point","coordinates":[43.958609,36.184303]}},{"type":"Feature","id":"road-label-osm-way-993930443","properties":{"id":"road-label-osm-way-993930443","name":"شەقامی عەبدوڵڵا حەداد","kind":"road","tier":"road","priority":55,"context":"tertiary · اربيل · هەولێر","category":"ڕێگا"},"geometry":{"type":"Point","coordinates":[43.971459,36.154804]}},{"type":"Feature","id":"road-label-osm-way-195186434","properties":{"id":"road-label-osm-way-195186434","name":"شەقامی فواد ئەحمەد","kind":"road","tier":"road","priority":55,"context":"tertiary · اربيل · هەولێر","category":"ڕێگا"},"geometry":{"type":"Point","coordinates":[43.982888,36.16154]}},{"type":"Feature","id":"road-label-osm-way-1492442120","properties":{"id":"road-label-osm-way-1492442120","name":"شەقامی فواد ئەحمەد","kind":"road","tier":"road","priority":55,"context":"tertiary · اربيل · هەولێر","category":"ڕێگا"},"geometry":{"type":"Point","coordinates":[43.985947,36.164367]}},{"type":"Feature","id":"road-label-osm-way-1058514362","properties":{"id":"road-label-osm-way-1058514362","name":"شەقامی قامیشلۆ","kind":"road","tier":"road","priority":55,"context":"tertiary · اربيل · هەولێر","category":"ڕێگا"},"geometry":{"type":"Point","coordinates":[43.982342,36.151719]}},{"type":"Feature","id":"road-label-osm-way-195221612","properties":{"id":"road-label-osm-way-195221612","name":"شەقامی قەدەم خێر","kind":"road","tier":"road","priority":55,"context":"tertiary · اربيل · هەولێر","category":"ڕێگا"},"geometry":{"type":"Point","coordinates":[43.994442,36.205626]}},{"type":"Feature","id":"road-label-osm-way-437565277","properties":{"id":"road-label-osm-way-437565277","name":"شەقامی قەسرا","kind":"road","tier":"road","priority":55,"context":"tertiary · اربيل · هەولێر","category":"ڕێگا"},"geometry":{"type":"Point","coordinates":[43.994126,36.234946]}},{"type":"Feature","id":"road-label-osm-way-194402047","properties":{"id":"road-label-osm-way-194402047","name":"شەقامی مارف چیاوک","kind":"road","tier":"road","priority":55,"context":"tertiary · اربيل · هەولێر","category":"ڕێگا"},"geometry":{"type":"Point","coordinates":[43.969091,36.192021]}},{"type":"Feature","id":"road-label-osm-way-46891465","properties":{"id":"road-label-osm-way-46891465","name":"شەقامی منارە","kind":"road","tier":"road","priority":55,"context":"tertiary · اربيل · هەولێر","category":"ڕێگا"},"geometry":{"type":"Point","coordinates":[43.996663,36.186868]}},{"type":"Feature","id":"road-label-osm-way-992411586","properties":{"id":"road-label-osm-way-992411586","name":"شەقامی موحەمەد عارف","kind":"road","tier":"road","priority":55,"context":"tertiary · اربيل · هەولێر","category":"ڕێگا"},"geometry":{"type":"Point","coordinates":[43.973396,36.148809]}},{"type":"Feature","id":"road-label-osm-way-194565444","properties":{"id":"road-label-osm-way-194565444","name":"شەقامی مەلا محمد امین گوێزلینگی","kind":"road","tier":"road","priority":55,"context":"tertiary · اربيل · هەولێر","category":"ڕێگا"},"geometry":{"type":"Point","coordinates":[43.985242,36.202423]}},{"type":"Feature","id":"road-label-osm-way-824510514","properties":{"id":"road-label-osm-way-824510514","name":"شەقامی نوای ئارام","kind":"road","tier":"road","priority":55,"context":"tertiary · اربيل · هەولێر","category":"ڕێگا"},"geometry":{"type":"Point","coordinates":[43.998167,36.186554]}},{"type":"Feature","id":"road-label-osm-way-195221598","properties":{"id":"road-label-osm-way-195221598","name":"شەقامی هاشم عەبدوڵڵا ٢١٦-٤٧","kind":"road","tier":"road","priority":55,"context":"tertiary · اربيل · هەولێر","category":"ڕێگا"},"geometry":{"type":"Point","coordinates":[43.983255,36.212457]}},{"type":"Feature","id":"road-label-osm-way-952077184","properties":{"id":"road-label-osm-way-952077184","name":"شەقامی ڕۆژبەیانی","kind":"road","tier":"road","priority":55,"context":"tertiary · اربيل · هەولێر","category":"ڕێگا"},"geometry":{"type":"Point","coordinates":[43.958959,36.185661]}},{"type":"Feature","id":"road-label-osm-way-1065150609","properties":{"id":"road-label-osm-way-1065150609","name":"شەقامی ڕۆژبەیانی","kind":"road","tier":"road","priority":55,"context":"tertiary · اربيل · هەولێر","category":"ڕێگا"},"geometry":{"type":"Point","coordinates":[43.958114,36.191882]}},{"type":"Feature","id":"road-label-osm-way-437148056","properties":{"id":"road-label-osm-way-437148056","name":"شەقامی کانی","kind":"road","tier":"road","priority":55,"context":"tertiary · اربيل · هەولێر","category":"ڕێگا"},"geometry":{"type":"Point","coordinates":[43.991924,36.226804]}},{"type":"Feature","id":"road-label-osm-way-978075560","properties":{"id":"road-label-osm-way-978075560","name":"شەقامی کوران ١","kind":"road","tier":"road","priority":55,"context":"tertiary · اربيل · هەولێر","category":"ڕێگا"},"geometry":{"type":"Point","coordinates":[43.988682,36.166903]}},{"type":"Feature","id":"road-label-osm-way-987056992","properties":{"id":"road-label-osm-way-987056992","name":"شەقامی کوران ١","kind":"road","tier":"road","priority":55,"context":"tertiary · اربيل · هەولێر","category":"ڕێگا"},"geometry":{"type":"Point","coordinates":[43.986399,36.164787]}},{"type":"Feature","id":"road-label-osm-way-974000357","properties":{"id":"road-label-osm-way-974000357","name":"شەقامی کوران ٢","kind":"road","tier":"road","priority":55,"context":"tertiary · اربيل · هەولێر","category":"ڕێگا"},"geometry":{"type":"Point","coordinates":[43.983893,36.167972]}},{"type":"Feature","id":"road-label-osm-way-838574253","properties":{"id":"road-label-osm-way-838574253","name":"شەقامی کوران ٢","kind":"road","tier":"road","priority":55,"context":"tertiary · اربيل · هەولێر","category":"ڕێگا"},"geometry":{"type":"Point","coordinates":[43.989699,36.173364]}},{"type":"Feature","id":"road-label-osm-way-986907615","properties":{"id":"road-label-osm-way-986907615","name":"شەقامی یەحیا مەرجان","kind":"road","tier":"road","priority":55,"context":"tertiary · اربيل · هەولێر","category":"ڕێگا"},"geometry":{"type":"Point","coordinates":[43.956815,36.18773]}},{"type":"Feature","id":"road-label-osm-way-194402049","properties":{"id":"road-label-osm-way-194402049","name":"شەقامی یەڵماز گۆنای","kind":"road","tier":"road","priority":55,"context":"tertiary · اربيل · هەولێر","category":"ڕێگا"},"geometry":{"type":"Point","coordinates":[43.975445,36.197489]}},{"type":"Feature","id":"osm-way-12740360-airport","properties":{"id":"osm-way-12740360-airport","name":"فڕۆکهخانهی نیودهوڵهتی ههولێر","kind":"poi","tier":"poi_landmark","priority":100.088,"context":"فڕۆکەخانە","category":"فڕۆکەخانە"},"geometry":{"type":"Point","coordinates":[43.9465692,36.2404122]}},{"type":"Feature","id":"osm-node-13957637601-hospital","properties":{"id":"osm-node-13957637601-hospital","name":"Alliance Medical","kind":"poi","tier":"poi_landmark","priority":95.1,"context":"نەخۆشخانە","category":"نەخۆشخانە"},"geometry":{"type":"Point","coordinates":[43.9644434,36.2041569]}},{"type":"Feature","id":"osm-node-6841771745-hospital","properties":{"id":"osm-node-6841771745-hospital","name":"Emergency Erbil Hospital","kind":"poi","tier":"poi_landmark","priority":95.1,"context":"نەخۆشخانە","category":"نەخۆشخانە"},"geometry":{"type":"Point","coordinates":[43.9975016,36.1998033]}},{"type":"Feature","id":"osm-node-9062195275-hospital","properties":{"id":"osm-node-9062195275-hospital","name":"Lausanne Medical and Beauty Center","kind":"poi","tier":"poi_landmark","priority":95.1,"context":"نەخۆشخانە","category":"نەخۆشخانە"},"geometry":{"type":"Point","coordinates":[43.9973116,36.233369]}},{"type":"Feature","id":"osm-node-5095563021-hospital","properties":{"id":"osm-node-5095563021-hospital","name":"بنکه ی ته ندروستی کورانی عنکاوا","kind":"poi","tier":"poi_landmark","priority":95.1,"context":"نەخۆشخانە","category":"نەخۆشخانە"},"geometry":{"type":"Point","coordinates":[43.9929792,36.2196166]}},{"type":"Feature","id":"osm-node-4488285794-hospital","properties":{"id":"osm-node-4488285794-hospital","name":"بنکەی تەندروستی سەرکارێز","kind":"poi","tier":"poi_landmark","priority":95.1,"context":"نەخۆشخانە","category":"نەخۆشخانە"},"geometry":{"type":"Point","coordinates":[43.9672782,36.1150403]}},{"type":"Feature","id":"osm-node-9009149141-hospital","properties":{"id":"osm-node-9009149141-hospital","name":"بنکەی تەندروستی شەهید سۆران","kind":"poi","tier":"poi_landmark","priority":95.1,"context":"نەخۆشخانە","category":"نەخۆشخانە"},"geometry":{"type":"Point","coordinates":[43.9668196,36.1285673]}},{"type":"Feature","id":"osm-node-4430210889-hospital","properties":{"id":"osm-node-4430210889-hospital","name":"بنکەی تەندرووستی موحەمەد باجەلان","kind":"poi","tier":"poi_landmark","priority":95.1,"context":"نەخۆشخانە","category":"نەخۆشخانە"},"geometry":{"type":"Point","coordinates":[43.99071,36.1688753]}},{"type":"Feature","id":"osm-node-9737214772-hospital","properties":{"id":"osm-node-9737214772-hospital","name":"بنکەی هەولێر بۆ بوژانەوەی جەستەییی","kind":"poi","tier":"poi_landmark","priority":95.1,"context":"نەخۆشخانە","category":"نەخۆشخانە"},"geometry":{"type":"Point","coordinates":[43.975111,36.1454189]}},{"type":"Feature","id":"osm-node-9754458919-hospital","properties":{"id":"osm-node-9754458919-hospital","name":"دەرمانخانەی چرا","kind":"poi","tier":"poi_landmark","priority":95.1,"context":"نەخۆشخانە","category":"نەخۆشخانە"},"geometry":{"type":"Point","coordinates":[43.9585229,36.1880807]}},{"type":"Feature","id":"osm-node-10914223905-hospital","properties":{"id":"osm-node-10914223905-hospital","name":"سانتا ماریا","kind":"poi","tier":"poi_landmark","priority":95.1,"context":"نەخۆشخانە","category":"نەخۆشخانە"},"geometry":{"type":"Point","coordinates":[43.9910581,36.2266932]}},{"type":"Feature","id":"osm-node-9863932317-hospital","properties":{"id":"osm-node-9863932317-hospital","name":"صلیب احمر","kind":"poi","tier":"poi_landmark","priority":95.1,"context":"نەخۆشخانە","category":"نەخۆشخانە"},"geometry":{"type":"Point","coordinates":[43.9748645,36.1458553]}},{"type":"Feature","id":"osm-node-10058493017-hospital","properties":{"id":"osm-node-10058493017-hospital","name":"نۆرینگەی سەفا عیزەدین","kind":"poi","tier":"poi_landmark","priority":95.1,"context":"نەخۆشخانە","category":"نەخۆشخانە"},"geometry":{"type":"Point","coordinates":[43.9992324,36.1878263]}},{"type":"Feature","id":"osm-node-4192513998-hospital","properties":{"id":"osm-node-4192513998-hospital","name":"نەخۆشخانەی تایبەتی هەولێر","kind":"poi","tier":"poi_landmark","priority":95.1,"context":"نەخۆشخانە","category":"نەخۆشخانە"},"geometry":{"type":"Point","coordinates":[43.9861067,36.2174045]}},{"type":"Feature","id":"osm-node-5481102325-hospital","properties":{"id":"osm-node-5481102325-hospital","name":"نەخۆشخانەی رۆژ","kind":"poi","tier":"poi_landmark","priority":95.1,"context":"نەخۆشخانە","category":"نەخۆشخانە"},"geometry":{"type":"Point","coordinates":[43.9810218,36.1723198]}},{"type":"Feature","id":"osm-node-4394247391-hospital","properties":{"id":"osm-node-4394247391-hospital","name":"نەخۆشخانەی سەردەم","kind":"poi","tier":"poi_landmark","priority":95.1,"context":"نەخۆشخانە","category":"نەخۆشخانە"},"geometry":{"type":"Point","coordinates":[43.9763724,36.1676776]}},{"type":"Feature","id":"osm-node-6733510285-hospital","properties":{"id":"osm-node-6733510285-hospital","name":"نەخۆشخانەی سەنتەری تاڵاسیما","kind":"poi","tier":"poi_landmark","priority":95.1,"context":"نەخۆشخانە","category":"نەخۆشخانە"},"geometry":{"type":"Point","coordinates":[43.9860618,36.2429422]}},{"type":"Feature","id":"osm-node-2100576314-hospital","properties":{"id":"osm-node-2100576314-hospital","name":"نەخۆشخانەی فریاکەوتنی ڕۆژئاوای هەولێر","kind":"poi","tier":"poi_landmark","priority":95.1,"context":"نەخۆشخانە","category":"نەخۆشخانە"},"geometry":{"type":"Point","coordinates":[43.96897,36.161161]}},{"type":"Feature","id":"osm-node-9530770517-hospital","properties":{"id":"osm-node-9530770517-hospital","name":"نەخۆشخانەی لالاف","kind":"poi","tier":"poi_landmark","priority":95.1,"context":"نەخۆشخانە","category":"نەخۆشخانە"},"geometry":{"type":"Point","coordinates":[43.9672275,36.1601008]}},{"type":"Feature","id":"osm-node-9960518217-hospital","properties":{"id":"osm-node-9960518217-hospital","name":"نەخۆشخانەی مەریەمانە","kind":"poi","tier":"poi_landmark","priority":95.1,"context":"نەخۆشخانە","category":"نەخۆشخانە"},"geometry":{"type":"Point","coordinates":[43.9915332,36.2276888]}},{"type":"Feature","id":"osm-node-12137666339-hospital","properties":{"id":"osm-node-12137666339-hospital","name":"نەخۆشخانەی پاکی","kind":"poi","tier":"poi_landmark","priority":95.1,"context":"نەخۆشخانە","category":"نەخۆشخانە"},"geometry":{"type":"Point","coordinates":[43.9789833,36.1706849]}},{"type":"Feature","id":"osm-node-6009301185-hospital","properties":{"id":"osm-node-6009301185-hospital","name":"نەخۆشخانەی پێست","kind":"poi","tier":"poi_landmark","priority":95.1,"context":"نەخۆشخانە","category":"نەخۆشخانە"},"geometry":{"type":"Point","coordinates":[43.9775754,36.1555858]}},{"type":"Feature","id":"osm-way-327496634-hospital","properties":{"id":"osm-way-327496634-hospital","name":"Ankawa Specialized Lab","kind":"poi","tier":"poi_landmark","priority":95.092,"context":"نەخۆشخانە","category":"نەخۆشخانە"},"geometry":{"type":"Point","coordinates":[43.9881932,36.2307029]}},{"type":"Feature","id":"osm-way-973950979-hospital","properties":{"id":"osm-way-973950979-hospital","name":"بنکەی تەندرووستی موحەمەد باجەلان","kind":"poi","tier":"poi_landmark","priority":95.092,"context":"نەخۆشخانە","category":"نەخۆشخانە"},"geometry":{"type":"Point","coordinates":[43.9902,36.169308]}},{"type":"Feature","id":"osm-way-367981123-hospital","properties":{"id":"osm-way-367981123-hospital","name":"نەخۆشخانەی ئیمرجنسی","kind":"poi","tier":"poi_landmark","priority":95.092,"context":"نەخۆشخانە","category":"نەخۆشخانە"},"geometry":{"type":"Point","coordinates":[43.9975156,36.2003543]}},{"type":"Feature","id":"osm-way-590885009-hospital","properties":{"id":"osm-way-590885009-hospital","name":"نەخۆشخانەی فریاکەوتنی ڕۆژئاوای هەولێر","kind":"poi","tier":"poi_landmark","priority":95.092,"context":"نەخۆشخانە","category":"نەخۆشخانە"},"geometry":{"type":"Point","coordinates":[43.9685864,36.1605346]}},{"type":"Feature","id":"osm-way-767635501-hospital","properties":{"id":"osm-way-767635501-hospital","name":"نەخۆشخانەی نێودەوڵەتی هەولێر","kind":"poi","tier":"poi_landmark","priority":95.092,"context":"نەخۆشخانە","category":"نەخۆشخانە"},"geometry":{"type":"Point","coordinates":[43.9823408,36.1576952]}},{"type":"Feature","id":"osm-way-1029300021-building","properties":{"id":"osm-way-1029300021-building","name":"نەخۆشخانەی سەردەمی تایبەت","kind":"poi","tier":"poi_landmark","priority":95.055,"context":"نەخۆشخانە","category":"نەخۆشخانە"},"geometry":{"type":"Point","coordinates":[43.9765785,36.1675399]}},{"type":"Feature","id":"osm-node-3889077850-university","properties":{"id":"osm-node-3889077850-university","name":"الجامعە اربیل الکاثولیکیە","kind":"poi","tier":"poi_landmark","priority":94.1,"context":"زانکۆ","category":"زانکۆ"},"geometry":{"type":"Point","coordinates":[43.9960069,36.226812]}},{"type":"Feature","id":"osm-node-4668350389-university","properties":{"id":"osm-node-4668350389-university","name":"زانکۆی لوبنانیی فەڕەنسیی","kind":"poi","tier":"poi_landmark","priority":94.1,"context":"زانکۆ","category":"زانکۆ"},"geometry":{"type":"Point","coordinates":[43.9530847,36.1709393]}},{"type":"Feature","id":"osm-node-9702364869-university","properties":{"id":"osm-node-9702364869-university","name":"زانکۆی نێودەوڵەتی تیشک","kind":"poi","tier":"poi_landmark","priority":94.1,"context":"زانکۆ","category":"زانکۆ"},"geometry":{"type":"Point","coordinates":[43.9574365,36.1693585]}},{"type":"Feature","id":"osm-way-527905263-university","properties":{"id":"osm-way-527905263-university","name":"زانکۆی جیهان","kind":"poi","tier":"poi_landmark","priority":94.092,"context":"زانکۆ","category":"زانکۆ"},"geometry":{"type":"Point","coordinates":[43.9668742,36.1722355]}},{"type":"Feature","id":"osm-way-590885006-university","properties":{"id":"osm-way-590885006-university","name":"زانکۆی لوبنانیی فەڕەنسیی","kind":"poi","tier":"poi_landmark","priority":94.092,"context":"زانکۆ","category":"زانکۆ"},"geometry":{"type":"Point","coordinates":[43.9554842,36.1700169]}},{"type":"Feature","id":"osm-way-334130947-university","properties":{"id":"osm-way-334130947-university","name":"زانکۆی نێونەتەوەییی تیشک","kind":"poi","tier":"poi_landmark","priority":94.092,"context":"زانکۆ","category":"زانکۆ"},"geometry":{"type":"Point","coordinates":[43.9567375,36.1681069]}},{"type":"Feature","id":"osm-way-801395351-building","properties":{"id":"osm-way-801395351-building","name":"Dentistry Building","kind":"poi","tier":"poi_landmark","priority":94.055,"context":"زانکۆ","category":"زانکۆ"},"geometry":{"type":"Point","coordinates":[43.9581147,36.1693087]}},{"type":"Feature","id":"osm-way-843594269-building","properties":{"id":"osm-way-843594269-building","name":"Hawler Computer Institute","kind":"poi","tier":"poi_landmark","priority":94.055,"context":"زانکۆ","category":"زانکۆ"},"geometry":{"type":"Point","coordinates":[43.9748614,36.1686336]}},{"type":"Feature","id":"osm-way-858200237-building","properties":{"id":"osm-way-858200237-building","name":"International University of Erbil","kind":"poi","tier":"poi_landmark","priority":94.055,"context":"زانکۆ","category":"زانکۆ"},"geometry":{"type":"Point","coordinates":[43.979407,36.1711056]}},{"type":"Feature","id":"osm-node-7470415588-bank","properties":{"id":"osm-node-7470415588-bank","name":"Al Bilad Islamic Bank","kind":"poi","tier":"poi_landmark","priority":92.1,"context":"بانک","category":"بانک"},"geometry":{"type":"Point","coordinates":[43.9623304,36.160712]}},{"type":"Feature","id":"osm-node-13828525701-bank","properties":{"id":"osm-node-13828525701-bank","name":"Cihan Bank 100m","kind":"poi","tier":"poi_landmark","priority":92.1,"context":"بانک","category":"بانک"},"geometry":{"type":"Point","coordinates":[43.9630692,36.173937]}},{"type":"Feature","id":"osm-node-10816818284-bank","properties":{"id":"osm-node-10816818284-bank","name":"Nawroz Bank","kind":"poi","tier":"poi_landmark","priority":92.1,"context":"بانک","category":"بانک"},"geometry":{"type":"Point","coordinates":[43.9714658,36.1664278]}},{"type":"Feature","id":"osm-node-8260343517-bank","properties":{"id":"osm-node-8260343517-bank","name":"المصرف الاهلی العراقی","kind":"poi","tier":"poi_landmark","priority":92.1,"context":"بانک","category":"بانک"},"geometry":{"type":"Point","coordinates":[43.9908937,36.2201423]}},{"type":"Feature","id":"osm-node-8380695117-bank","properties":{"id":"osm-node-8380695117-bank","name":"بانک عنکاوه","kind":"poi","tier":"poi_landmark","priority":92.1,"context":"بانک","category":"بانک"},"geometry":{"type":"Point","coordinates":[43.9985115,36.228786]}},{"type":"Feature","id":"osm-node-4757512726-bank","properties":{"id":"osm-node-4757512726-bank","name":"بانکی ئیش","kind":"poi","tier":"poi_landmark","priority":92.1,"context":"بانک","category":"بانک"},"geometry":{"type":"Point","coordinates":[43.9888564,36.2093626]}},{"type":"Feature","id":"osm-node-4315546892-bank","properties":{"id":"osm-node-4315546892-bank","name":"بانکی ئەقلیمی بازرگانی","kind":"poi","tier":"poi_landmark","priority":92.1,"context":"بانک","category":"بانک"},"geometry":{"type":"Point","coordinates":[43.9996916,36.2160206]}},{"type":"Feature","id":"osm-node-5360799324-bank","properties":{"id":"osm-node-5360799324-bank","name":"بانکی بازرگانی ئێراقی","kind":"poi","tier":"poi_landmark","priority":92.1,"context":"بانک","category":"بانک"},"geometry":{"type":"Point","coordinates":[43.9914053,36.1976993]}},{"type":"Feature","id":"osm-node-4561475719-bank","properties":{"id":"osm-node-4561475719-bank","name":"بانکی زاگروز","kind":"poi","tier":"poi_landmark","priority":92.1,"context":"بانک","category":"بانک"},"geometry":{"type":"Point","coordinates":[43.9985022,36.1890307]}},{"type":"Feature","id":"osm-node-7798224985-bank","properties":{"id":"osm-node-7798224985-bank","name":"بانکی سۆمەریە","kind":"poi","tier":"poi_landmark","priority":92.1,"context":"بانک","category":"بانک"},"geometry":{"type":"Point","coordinates":[43.9998881,36.2044979]}},{"type":"Feature","id":"osm-node-5108748725-bank","properties":{"id":"osm-node-5108748725-bank","name":"بانکی سەروەران","kind":"poi","tier":"poi_landmark","priority":92.1,"context":"بانک","category":"بانک"},"geometry":{"type":"Point","coordinates":[43.9898426,36.1677766]}},{"type":"Feature","id":"osm-node-6218496185-bank","properties":{"id":"osm-node-6218496185-bank","name":"بانکی عەنکاوە","kind":"poi","tier":"poi_landmark","priority":92.1,"context":"بانک","category":"بانک"},"geometry":{"type":"Point","coordinates":[43.9896363,36.2305136]}},{"type":"Feature","id":"osm-node-4526581195-bank","properties":{"id":"osm-node-4526581195-bank","name":"بانکی قەڵا","kind":"poi","tier":"poi_landmark","priority":92.1,"context":"بانک","category":"بانک"},"geometry":{"type":"Point","coordinates":[43.9685224,36.1624628]}},{"type":"Feature","id":"osm-node-4561475720-bank","properties":{"id":"osm-node-4561475720-bank","name":"بانکی چۆلی","kind":"poi","tier":"poi_landmark","priority":92.1,"context":"بانک","category":"بانک"},"geometry":{"type":"Point","coordinates":[43.9986212,36.1890964]}},{"type":"Feature","id":"osm-node-6654442785-bank","properties":{"id":"osm-node-6654442785-bank","name":"بریکاری فاستپەی","kind":"poi","tier":"poi_landmark","priority":92.1,"context":"بانک","category":"بانک"},"geometry":{"type":"Point","coordinates":[43.9916691,36.228214]}},{"type":"Feature","id":"osm-node-4865899422-bank","properties":{"id":"osm-node-4865899422-bank","name":"بنک عودە","kind":"poi","tier":"poi_landmark","priority":92.1,"context":"بانک","category":"بانک"},"geometry":{"type":"Point","coordinates":[43.9990839,36.2061831]}},{"type":"Feature","id":"osm-way-397585963-bank","properties":{"id":"osm-way-397585963-bank","name":"Kaka banq - erbil","kind":"poi","tier":"poi_landmark","priority":92.092,"context":"بانک","category":"بانک"},"geometry":{"type":"Point","coordinates":[43.9900404,36.21116]}},{"type":"Feature","id":"osm-way-1022214942-mall","properties":{"id":"osm-way-1022214942-mall","name":"Hafele iraq","kind":"poi","tier":"poi_regional","priority":78.092,"context":"مەوڵ","category":"مەوڵ"},"geometry":{"type":"Point","coordinates":[43.9893943,36.1542303]}},{"type":"Feature","id":"osm-way-1128068788-mall","properties":{"id":"osm-way-1128068788-mall","name":"گوڵان مۆڵ","kind":"poi","tier":"poi_regional","priority":78.092,"context":"مەوڵ","category":"مەوڵ"},"geometry":{"type":"Point","coordinates":[43.9922491,36.2121054]}},{"type":"Feature","id":"osm-way-327624139-building","properties":{"id":"osm-way-327624139-building","name":"Ankawa Mall","kind":"poi","tier":"poi_regional","priority":78.055,"context":"مەوڵ","category":"مەوڵ"},"geometry":{"type":"Point","coordinates":[43.9897006,36.2415649]}},{"type":"Feature","id":"osm-way-997212926-building","properties":{"id":"osm-way-997212926-building","name":"کۆمپانیای ئۆتۆمۆڵ بۆ بازرگانی ئۆتۆمبێل / سنوردار","kind":"poi","tier":"poi_regional","priority":78.055,"context":"مەوڵ","category":"مەوڵ"},"geometry":{"type":"Point","coordinates":[43.9925062,36.1571744]}},{"type":"Feature","id":"osm-way-264055332-stadium","properties":{"id":"osm-way-264055332-stadium","name":"Four in one football field","kind":"poi","tier":"poi_regional","priority":76.092,"context":"یاریگا","category":"یاریگا"},"geometry":{"type":"Point","coordinates":[43.9916026,36.2391306]}},{"type":"Feature","id":"osm-way-374499904-stadium","properties":{"id":"osm-way-374499904-stadium","name":"ناحية شمامك","kind":"poi","tier":"poi_regional","priority":76.092,"context":"یاریگا","category":"یاریگا"},"geometry":{"type":"Point","coordinates":[43.9194829,36.0221525]}},{"type":"Feature","id":"osm-way-374499972-stadium","properties":{"id":"osm-way-374499972-stadium","name":"پەروەردە","kind":"poi","tier":"poi_regional","priority":76.092,"context":"یاریگا","category":"یاریگا"},"geometry":{"type":"Point","coordinates":[43.9187359,36.0237206]}},{"type":"Feature","id":"osm-way-195248894-stadium","properties":{"id":"osm-way-195248894-stadium","name":"گۆڕەپانی ئاهەنگ","kind":"poi","tier":"poi_regional","priority":76.092,"context":"یاریگا","category":"یاریگا"},"geometry":{"type":"Point","coordinates":[43.9883419,36.1932848]}},{"type":"Feature","id":"osm-node-7470488566-attraction","properties":{"id":"osm-node-7470488566-attraction","name":"Areza tourism Community","kind":"poi","tier":"poi_detail","priority":50.1,"context":"شوێنی گەشتیاری","category":"شوێنی گەشتیاری"},"geometry":{"type":"Point","coordinates":[43.9818668,36.1577523]}},{"type":"Feature","id":"osm-node-7375071385-attraction","properties":{"id":"osm-node-7375071385-attraction","name":"Go lift 1.1","kind":"poi","tier":"poi_detail","priority":50.1,"context":"شوێنی گەشتیاری","category":"شوێنی گەشتیاری"},"geometry":{"type":"Point","coordinates":[43.9461664,36.0172363]}},{"type":"Feature","id":"osm-node-7222841085-college","properties":{"id":"osm-node-7222841085-college","name":"Goethe Institut","kind":"poi","tier":"poi_detail","priority":50.1,"context":"کۆلێژ","category":"کۆلێژ"},"geometry":{"type":"Point","coordinates":[43.9817534,36.1714303]}},{"type":"Feature","id":"osm-node-5000327322-college","properties":{"id":"osm-node-5000327322-college","name":"International University of Erbil","kind":"poi","tier":"poi_detail","priority":50.1,"context":"کۆلێژ","category":"کۆلێژ"},"geometry":{"type":"Point","coordinates":[43.9798179,36.1712757]}},{"type":"Feature","id":"osm-node-4738049428-attraction","properties":{"id":"osm-node-4738049428-attraction","name":"Oxfam","kind":"poi","tier":"poi_detail","priority":50.1,"context":"شوێنی گەشتیاری","category":"شوێنی گەشتیاری"},"geometry":{"type":"Point","coordinates":[43.9912271,36.2307002]}},{"type":"Feature","id":"osm-node-5851213604-college","properties":{"id":"osm-node-5851213604-college","name":"Palacky University Erbil Campus","kind":"poi","tier":"poi_detail","priority":50.1,"context":"کۆلێژ","category":"کۆلێژ"},"geometry":{"type":"Point","coordinates":[43.9985651,36.2180083]}},{"type":"Feature","id":"osm-node-4462743792-attraction","properties":{"id":"osm-node-4462743792-attraction","name":"TGH office","kind":"poi","tier":"poi_detail","priority":50.1,"context":"شوێنی گەشتیاری","category":"شوێنی گەشتیاری"},"geometry":{"type":"Point","coordinates":[43.9976627,36.2307499]}},{"type":"Feature","id":"osm-node-6982397885-attraction","properties":{"id":"osm-node-6982397885-attraction","name":"استئجار سیارات","kind":"poi","tier":"poi_detail","priority":50.1,"context":"شوێنی گەشتیاری","category":"شوێنی گەشتیاری"},"geometry":{"type":"Point","coordinates":[43.9767452,36.1916015]}},{"type":"Feature","id":"osm-node-11256869737-attraction","properties":{"id":"osm-node-11256869737-attraction","name":"الحی الصناعی خدمات کیا","kind":"poi","tier":"poi_detail","priority":50.1,"context":"شوێنی گەشتیاری","category":"شوێنی گەشتیاری"},"geometry":{"type":"Point","coordinates":[43.997166,36.1563854]}},{"type":"Feature","id":"osm-node-7622586585-attraction","properties":{"id":"osm-node-7622586585-attraction","name":"السیارات","kind":"poi","tier":"poi_detail","priority":50.1,"context":"شوێنی گەشتیاری","category":"شوێنی گەشتیاری"},"geometry":{"type":"Point","coordinates":[43.9767698,36.191606]}},{"type":"Feature","id":"osm-node-6076075515-attraction","properties":{"id":"osm-node-6076075515-attraction","name":"باب قریه الایطالیه 40","kind":"poi","tier":"poi_detail","priority":50.1,"context":"شوێنی گەشتیاری","category":"شوێنی گەشتیاری"},"geometry":{"type":"Point","coordinates":[43.9707767,36.1899593]}},{"type":"Feature","id":"osm-node-2057221505-attraction","properties":{"id":"osm-node-2057221505-attraction","name":"بارک سامی عبد الرحمن","kind":"poi","tier":"poi_detail","priority":50.1,"context":"شوێنی گەشتیاری","category":"شوێنی گەشتیاری"},"geometry":{"type":"Point","coordinates":[43.992138,36.1925298]}},{"type":"Feature","id":"osm-node-10921554605-attraction","properties":{"id":"osm-node-10921554605-attraction","name":"بوابە العجلات","kind":"poi","tier":"poi_detail","priority":50.1,"context":"شوێنی گەشتیاری","category":"شوێنی گەشتیاری"},"geometry":{"type":"Point","coordinates":[43.9775049,36.191718]}},{"type":"Feature","id":"osm-node-5071721122-attraction","properties":{"id":"osm-node-5071721122-attraction","name":"تسجیلات سلوان","kind":"poi","tier":"poi_detail","priority":50.1,"context":"شوێنی گەشتیاری","category":"شوێنی گەشتیاری"},"geometry":{"type":"Point","coordinates":[43.9929342,36.233439]}},{"type":"Feature","id":"osm-node-5188035025-attraction","properties":{"id":"osm-node-5188035025-attraction","name":"دائیرەمرورهەولیررەقەم زەرد","kind":"poi","tier":"poi_detail","priority":50.1,"context":"شوێنی گەشتیاری","category":"شوێنی گەشتیاری"},"geometry":{"type":"Point","coordinates":[43.9670546,36.1638413]}},{"type":"Feature","id":"osm-node-11294142269-attraction","properties":{"id":"osm-node-11294142269-attraction","name":"دار ابو حکم","kind":"poi","tier":"poi_detail","priority":50.1,"context":"شوێنی گەشتیاری","category":"شوێنی گەشتیاری"},"geometry":{"type":"Point","coordinates":[43.9688704,36.183915]}},{"type":"Feature","id":"osm-node-8116680017-attraction","properties":{"id":"osm-node-8116680017-attraction","name":"رانیسیا","kind":"poi","tier":"poi_detail","priority":50.1,"context":"شوێنی گەشتیاری","category":"شوێنی گەشتیاری"},"geometry":{"type":"Point","coordinates":[43.9912099,36.2219335]}},{"type":"Feature","id":"osm-node-8142435117-attraction","properties":{"id":"osm-node-8142435117-attraction","name":"رونی سولاقا","kind":"poi","tier":"poi_detail","priority":50.1,"context":"شوێنی گەشتیاری","category":"شوێنی گەشتیاری"},"geometry":{"type":"Point","coordinates":[43.9880528,36.2447291]}},{"type":"Feature","id":"osm-node-6575360978-college","properties":{"id":"osm-node-6575360978-college","name":"زانکۆی لوبنانی فەڕەنسی","kind":"poi","tier":"poi_detail","priority":50.1,"context":"کۆلێژ","category":"کۆلێژ"},"geometry":{"type":"Point","coordinates":[43.9616521,36.1730239]}},{"type":"Feature","id":"osm-node-5277836522-college","properties":{"id":"osm-node-5277836522-college","name":"سەنتری مەشق وراهینان. وزارەتی کارەبا","kind":"poi","tier":"poi_detail","priority":50.1,"context":"کۆلێژ","category":"کۆلێژ"},"geometry":{"type":"Point","coordinates":[43.9608893,36.1714852]}},{"type":"Feature","id":"osm-node-4771215226-attraction","properties":{"id":"osm-node-4771215226-attraction","name":"شاورما اللقمه الطیبە","kind":"poi","tier":"poi_detail","priority":50.1,"context":"شوێنی گەشتیاری","category":"شوێنی گەشتیاری"},"geometry":{"type":"Point","coordinates":[43.9935073,36.2321946]}},{"type":"Feature","id":"osm-node-9329145217-attraction","properties":{"id":"osm-node-9329145217-attraction","name":"فامیلی بوکس / برج العدالە","kind":"poi","tier":"poi_detail","priority":50.1,"context":"شوێنی گەشتیاری","category":"شوێنی گەشتیاری"},"geometry":{"type":"Point","coordinates":[43.9784227,36.1826651]}},{"type":"Feature","id":"osm-node-11328262270-attraction","properties":{"id":"osm-node-11328262270-attraction","name":"فندق دراکون","kind":"poi","tier":"poi_detail","priority":50.1,"context":"شوێنی گەشتیاری","category":"شوێنی گەشتیاری"},"geometry":{"type":"Point","coordinates":[43.9962384,36.2377282]}},{"type":"Feature","id":"osm-node-11048429105-attraction","properties":{"id":"osm-node-11048429105-attraction","name":"فندق سینا بار اربیل","kind":"poi","tier":"poi_detail","priority":50.1,"context":"شوێنی گەشتیاری","category":"شوێنی گەشتیاری"},"geometry":{"type":"Point","coordinates":[43.9958002,36.2351583]}},{"type":"Feature","id":"osm-node-5996524386-college","properties":{"id":"osm-node-5996524386-college","name":"قوتابخانەی نەمامی خێرا","kind":"poi","tier":"poi_detail","priority":50.1,"context":"کۆلێژ","category":"کۆلێژ"},"geometry":{"type":"Point","coordinates":[43.9915581,36.1651875]}},{"type":"Feature","id":"osm-node-7314865785-attraction","properties":{"id":"osm-node-7314865785-attraction","name":"مزرعە شادمان حداد","kind":"poi","tier":"poi_detail","priority":50.1,"context":"شوێنی گەشتیاری","category":"شوێنی گەشتیاری"},"geometry":{"type":"Point","coordinates":[43.8455032,36.1609169]}},{"type":"Feature","id":"osm-node-8788638231-attraction","properties":{"id":"osm-node-8788638231-attraction","name":"مطعم سله الاسماک","kind":"poi","tier":"poi_detail","priority":50.1,"context":"شوێنی گەشتیاری","category":"شوێنی گەشتیاری"},"geometry":{"type":"Point","coordinates":[43.9844844,36.2172488]}},{"type":"Feature","id":"osm-node-11196552339-attraction","properties":{"id":"osm-node-11196552339-attraction","name":"مطعم محمد سوادی","kind":"poi","tier":"poi_detail","priority":50.1,"context":"شوێنی گەشتیاری","category":"شوێنی گەشتیاری"},"geometry":{"type":"Point","coordinates":[43.9876048,36.2189179]}},{"type":"Feature","id":"osm-node-6992702003-attraction","properties":{"id":"osm-node-6992702003-attraction","name":"معرض اربیل الدولی","kind":"poi","tier":"poi_detail","priority":50.1,"context":"شوێنی گەشتیاری","category":"شوێنی گەشتیاری"},"geometry":{"type":"Point","coordinates":[43.9858345,36.1857415]}},{"type":"Feature","id":"osm-node-7516655396-attraction","properties":{"id":"osm-node-7516655396-attraction","name":"معرض مرسدس","kind":"poi","tier":"poi_detail","priority":50.1,"context":"شوێنی گەشتیاری","category":"شوێنی گەشتیاری"},"geometry":{"type":"Point","coordinates":[43.9940872,36.1871945]}},{"type":"Feature","id":"osm-node-9415905517-attraction","properties":{"id":"osm-node-9415905517-attraction","name":"معمل اومید","kind":"poi","tier":"poi_detail","priority":50.1,"context":"شوێنی گەشتیاری","category":"شوێنی گەشتیاری"},"geometry":{"type":"Point","coordinates":[43.9986034,36.1467578]}},{"type":"Feature","id":"osm-node-5038953621-college","properties":{"id":"osm-node-5038953621-college","name":"ممثلیە وزارە التربیە فی اربیل سابقا","kind":"poi","tier":"poi_detail","priority":50.1,"context":"کۆلێژ","category":"کۆلێژ"},"geometry":{"type":"Point","coordinates":[43.9939719,36.2119539]}},{"type":"Feature","id":"osm-node-9896312517-college","properties":{"id":"osm-node-9896312517-college","name":"پەیمانگای بەریتانی بۆژمێریاری و بەڕێوەبردن","kind":"poi","tier":"poi_detail","priority":50.1,"context":"کۆلێژ","category":"کۆلێژ"},"geometry":{"type":"Point","coordinates":[43.9907114,36.2112346]}},{"type":"Feature","id":"osm-node-10127031103-college","properties":{"id":"osm-node-10127031103-college","name":"پەیمانگای کۆمپیوتەری هەولێر","kind":"poi","tier":"poi_detail","priority":50.1,"context":"کۆلێژ","category":"کۆلێژ"},"geometry":{"type":"Point","coordinates":[43.9743608,36.1681668]}},{"type":"Feature","id":"osm-node-7436607085-college","properties":{"id":"osm-node-7436607085-college","name":"پەیمانگەی قەڵا و منارە بۆ زانستەکانی کۆمپیتەر","kind":"poi","tier":"poi_detail","priority":50.1,"context":"کۆلێژ","category":"کۆلێژ"},"geometry":{"type":"Point","coordinates":[43.9717513,36.1595673]}},{"type":"Feature","id":"osm-node-5663032721-attraction","properties":{"id":"osm-node-5663032721-attraction","name":"کارەبای عه نکاوە","kind":"poi","tier":"poi_detail","priority":50.1,"context":"شوێنی گەشتیاری","category":"شوێنی گەشتیاری"},"geometry":{"type":"Point","coordinates":[43.9867273,36.2400321]}},{"type":"Feature","id":"osm-node-6799163785-attraction","properties":{"id":"osm-node-6799163785-attraction","name":"کراج","kind":"poi","tier":"poi_detail","priority":50.1,"context":"شوێنی گەشتیاری","category":"شوێنی گەشتیاری"},"geometry":{"type":"Point","coordinates":[43.9945207,36.2302085]}},{"type":"Feature","id":"osm-node-5851213889-college","properties":{"id":"osm-node-5851213889-college","name":"کۆلێژی ستراتفۆرد","kind":"poi","tier":"poi_detail","priority":50.1,"context":"کۆلێژ","category":"کۆلێژ"},"geometry":{"type":"Point","coordinates":[43.9990417,36.2164772]}},{"type":"Feature","id":"osm-node-4512544852-archaeological","properties":{"id":"osm-node-4512544852-archaeological","name":"گردی کلک مشک","kind":"poi","tier":"poi_detail","priority":50.1,"context":"شوێنی شوێنەوار","category":"شوێنی شوێنەوار"},"geometry":{"type":"Point","coordinates":[43.9847531,36.1553213]}},{"type":"Feature","id":"osm-way-198222756-attraction","properties":{"id":"osm-way-198222756-attraction","name":"منارەی شێخی چۆلی","kind":"poi","tier":"poi_detail","priority":50.092,"context":"شوێنی گەشتیاری","category":"شوێنی گەشتیاری"},"geometry":{"type":"Point","coordinates":[43.9997087,36.1875105]}},{"type":"Feature","id":"osm-way-196570911-public_building","properties":{"id":"osm-way-196570911-public_building","name":"پەرلەمانی کوردستان - عێراق","kind":"poi","tier":"poi_detail","priority":50.092,"context":"نوسینگەی حکومی","category":"نوسینگەی حکومی"},"geometry":{"type":"Point","coordinates":[43.9960807,36.1931879]}},{"type":"Feature","id":"osm-way-1106699793-college","properties":{"id":"osm-way-1106699793-college","name":"پەیمانگای کۆمپیوتەری هەولێر","kind":"poi","tier":"poi_detail","priority":50.092,"context":"کۆلێژ","category":"کۆلێژ"},"geometry":{"type":"Point","coordinates":[43.974926,36.168556]}},{"type":"Feature","id":"osm-way-1258297516-archaeological","properties":{"id":"osm-way-1258297516-archaeological","name":"گردی تەندورە","kind":"poi","tier":"poi_detail","priority":50.092,"context":"شوێنی شوێنەوار","category":"شوێنی شوێنەوار"},"geometry":{"type":"Point","coordinates":[43.8225946,36.0773915]}},{"type":"Feature","id":"osm-way-373818939-archaeological","properties":{"id":"osm-way-373818939-archaeological","name":"گردی تەندورە","kind":"poi","tier":"poi_detail","priority":50.092,"context":"شوێنی شوێنەوار","category":"شوێنی شوێنەوار"},"geometry":{"type":"Point","coordinates":[43.8240655,36.0780455]}},{"type":"Feature","id":"osm-way-629114715-archaeological","properties":{"id":"osm-way-629114715-archaeological","name":"گردی کلک مشک","kind":"poi","tier":"poi_detail","priority":50.092,"context":"شوێنی شوێنەوار","category":"شوێنی شوێنەوار"},"geometry":{"type":"Point","coordinates":[43.9774782,36.1578653]}},{"type":"Feature","id":"osm-node-11657130476-kiosk","properties":{"id":"osm-node-11657130476-kiosk","name":"فاستپەی","kind":"poi","tier":"poi_landmark","priority":90.1,"context":"فاست‌پەی","category":"فاست‌پەی"},"geometry":{"type":"Point","coordinates":[43.9552,36.23337]}},{"type":"Feature","id":"osm-node-11657148726-convenience","properties":{"id":"osm-node-11657148726-convenience","name":"فاستپەی","kind":"poi","tier":"poi_landmark","priority":90.1,"context":"فاست‌پەی","category":"فاست‌پەی"},"geometry":{"type":"Point","coordinates":[43.98218,36.20878]}},{"type":"Feature","id":"osm-node-6654442685-bank","properties":{"id":"osm-node-6654442685-bank","name":"فاستپەی","kind":"poi","tier":"poi_landmark","priority":90.1,"context":"فاست‌پەی","category":"فاست‌پەی"},"geometry":{"type":"Point","coordinates":[43.9883545,36.231055]}},{"type":"Feature","id":"osm-way-973952700-building","properties":{"id":"osm-way-973952700-building","name":"فاستلینک - فاست پهی","kind":"poi","tier":"poi_landmark","priority":90.055,"context":"فاست‌پەی","category":"فاست‌پەی"},"geometry":{"type":"Point","coordinates":[43.9895441,36.1678744]}},{"type":"Feature","id":"osm-node-5106990336-mobile_phone_shop","properties":{"id":"osm-node-5106990336-mobile_phone_shop","name":"کۆڕەک تیلیکۆم","kind":"poi","tier":"poi_regional","priority":88.1,"context":"سەنتەری کۆڕەک","category":"سەنتەری کۆڕەک"},"geometry":{"type":"Point","coordinates":[43.9633807,36.1992017]}},{"type":"Feature","id":"osm-way-341421835-building","properties":{"id":"osm-way-341421835-building","name":"ئاسیاسێڵ","kind":"poi","tier":"poi_regional","priority":88.055,"context":"سەنتەری ئاسیاسێڵ","category":"سەنتەری ئاسیاسێڵ"},"geometry":{"type":"Point","coordinates":[43.9935279,36.1816776]}},{"type":"Feature","id":"osm-way-767642439-building","properties":{"id":"osm-way-767642439-building","name":"بەڕادی حاجی عابدین و خالید","kind":"poi","tier":"poi_regional","priority":88.055,"context":"سەنتەری زەین","category":"سەنتەری زەین"},"geometry":{"type":"Point","coordinates":[43.9249781,36.1757317]}},{"type":"Feature","id":"osm-node-6575416927-fuel","properties":{"id":"osm-node-6575416927-fuel","name":"AYMAN OIL","kind":"poi","tier":"poi_regional","priority":82.094,"context":"وێستگەی سووتەمەنی","category":"وێستگەی سووتەمەنی"},"geometry":{"type":"Point","coordinates":[43.9708112,36.1606939]}},{"type":"Feature","id":"osm-node-3548002048-fuel","properties":{"id":"osm-node-3548002048-fuel","name":"Abass gas station","kind":"poi","tier":"poi_regional","priority":82.094,"context":"وێستگەی سووتەمەنی","category":"وێستگەی سووتەمەنی"},"geometry":{"type":"Point","coordinates":[43.8506788,36.2206785]}},{"type":"Feature","id":"osm-node-12950440101-fuel","properties":{"id":"osm-node-12950440101-fuel","name":"Apex Oil","kind":"poi","tier":"poi_regional","priority":82.094,"context":"وێستگەی سووتەمەنی","category":"وێستگەی سووتەمەنی"},"geometry":{"type":"Point","coordinates":[43.9543633,36.1919741]}},{"type":"Feature","id":"osm-node-7450099982-fuel","properties":{"id":"osm-node-7450099982-fuel","name":"Ashti Gas Station","kind":"poi","tier":"poi_regional","priority":82.094,"context":"وێستگەی سووتەمەنی","category":"وێستگەی سووتەمەنی"},"geometry":{"type":"Point","coordinates":[43.9902416,36.2229109]}},{"type":"Feature","id":"osm-node-3562107175-fuel","properties":{"id":"osm-node-3562107175-fuel","name":"Gara Oil","kind":"poi","tier":"poi_regional","priority":82.094,"context":"وێستگەی سووتەمەنی","category":"وێستگەی سووتەمەنی"},"geometry":{"type":"Point","coordinates":[43.9543349,36.0887606]}},{"type":"Feature","id":"osm-node-5927037386-fuel","properties":{"id":"osm-node-5927037386-fuel","name":"Karezi Ankawa Gas Station","kind":"poi","tier":"poi_regional","priority":82.094,"context":"وێستگەی سووتەمەنی","category":"وێستگەی سووتەمەنی"},"geometry":{"type":"Point","coordinates":[43.9969329,36.2357039]}},{"type":"Feature","id":"osm-node-4289856989-fuel","properties":{"id":"osm-node-4289856989-fuel","name":"Kurdistan Oil","kind":"poi","tier":"poi_regional","priority":82.094,"context":"وێستگەی سووتەمەنی","category":"وێستگەی سووتەمەنی"},"geometry":{"type":"Point","coordinates":[43.9767516,36.1599576]}},{"type":"Feature","id":"osm-node-12950405901-fuel","properties":{"id":"osm-node-12950405901-fuel","name":"North Light Oil","kind":"poi","tier":"poi_regional","priority":82.094,"context":"وێستگەی سووتەمەنی","category":"وێستگەی سووتەمەنی"},"geometry":{"type":"Point","coordinates":[43.9660853,36.204167]}},{"type":"Feature","id":"osm-node-4811205082-fuel","properties":{"id":"osm-node-4811205082-fuel","name":"Petrol","kind":"poi","tier":"poi_regional","priority":82.094,"context":"وێستگەی سووتەمەنی","category":"وێستگەی سووتەمەنی"},"geometry":{"type":"Point","coordinates":[43.9908439,36.2367732]}},{"type":"Feature","id":"osm-node-6432440088-fuel","properties":{"id":"osm-node-6432440088-fuel","name":"Rang","kind":"poi","tier":"poi_regional","priority":82.094,"context":"وێستگەی سووتەمەنی","category":"وێستگەی سووتەمەنی"},"geometry":{"type":"Point","coordinates":[43.7710753,36.2463194]}},{"type":"Feature","id":"osm-node-12822629301-fuel","properties":{"id":"osm-node-12822629301-fuel","name":"Samsa oil","kind":"poi","tier":"poi_regional","priority":82.094,"context":"وێستگەی سووتەمەنی","category":"وێستگەی سووتەمەنی"},"geometry":{"type":"Point","coordinates":[43.8264433,36.2278137]}},{"type":"Feature","id":"osm-node-12822620801-fuel","properties":{"id":"osm-node-12822620801-fuel","name":"Sangin Oil","kind":"poi","tier":"poi_regional","priority":82.094,"context":"وێستگەی سووتەمەنی","category":"وێستگەی سووتەمەنی"},"geometry":{"type":"Point","coordinates":[43.918997,36.1822662]}},{"type":"Feature","id":"osm-node-3548002056-fuel","properties":{"id":"osm-node-3548002056-fuel","name":"Sehad oil","kind":"poi","tier":"poi_regional","priority":82.094,"context":"وێستگەی سووتەمەنی","category":"وێستگەی سووتەمەنی"},"geometry":{"type":"Point","coordinates":[43.7807071,36.2430902]}},{"type":"Feature","id":"osm-node-5029252321-fuel","properties":{"id":"osm-node-5029252321-fuel","name":"Shahan Oil","kind":"poi","tier":"poi_regional","priority":82.094,"context":"وێستگەی سووتەمەنی","category":"وێستگەی سووتەمەنی"},"geometry":{"type":"Point","coordinates":[43.9759856,36.1806305]}},{"type":"Feature","id":"osm-node-5313626973-fuel","properties":{"id":"osm-node-5313626973-fuel","name":"Solav Gas station","kind":"poi","tier":"poi_regional","priority":82.094,"context":"وێستگەی سووتەمەنی","category":"وێستگەی سووتەمەنی"},"geometry":{"type":"Point","coordinates":[43.9915186,36.2490201]}},{"type":"Feature","id":"osm-node-6435535187-fuel","properties":{"id":"osm-node-6435535187-fuel","name":"WAR oil","kind":"poi","tier":"poi_regional","priority":82.094,"context":"وێستگەی سووتەمەنی","category":"وێستگەی سووتەمەنی"},"geometry":{"type":"Point","coordinates":[43.7705963,36.2454368]}},{"type":"Feature","id":"osm-node-9876382519-fuel","properties":{"id":"osm-node-9876382519-fuel","name":"Wlat oil","kind":"poi","tier":"poi_regional","priority":82.094,"context":"وێستگەی سووتەمەنی","category":"وێستگەی سووتەمەنی"},"geometry":{"type":"Point","coordinates":[43.9281719,36.1758673]}},{"type":"Feature","id":"osm-node-4314216399-fuel","properties":{"id":"osm-node-4314216399-fuel","name":"karia oil","kind":"poi","tier":"poi_regional","priority":82.094,"context":"وێستگەی سووتەمەنی","category":"وێستگەی سووتەمەنی"},"geometry":{"type":"Point","coordinates":[43.9619663,36.1933453]}},{"type":"Feature","id":"osm-node-3548000210-fuel","properties":{"id":"osm-node-3548000210-fuel","name":"ئاڤان","kind":"poi","tier":"poi_regional","priority":82.094,"context":"وێستگەی سووتەمەنی","category":"وێستگەی سووتەمەنی"},"geometry":{"type":"Point","coordinates":[43.7807075,36.2421382]}},{"type":"Feature","id":"osm-node-3548002052-fuel","properties":{"id":"osm-node-3548002052-fuel","name":"ادم","kind":"poi","tier":"poi_regional","priority":82.094,"context":"وێستگەی سووتەمەنی","category":"وێستگەی سووتەمەنی"},"geometry":{"type":"Point","coordinates":[43.8072886,36.2346013]}},{"type":"Feature","id":"osm-node-3547924547-fuel","properties":{"id":"osm-node-3547924547-fuel","name":"باران2","kind":"poi","tier":"poi_regional","priority":82.094,"context":"وێستگەی سووتەمەنی","category":"وێستگەی سووتەمەنی"},"geometry":{"type":"Point","coordinates":[43.7620257,36.2482245]}},{"type":"Feature","id":"osm-node-9754495481-fuel","properties":{"id":"osm-node-9754495481-fuel","name":"بهنزینخانهی هامان","kind":"poi","tier":"poi_regional","priority":82.094,"context":"وێستگەی سووتەمەنی","category":"وێستگەی سووتەمەنی"},"geometry":{"type":"Point","coordinates":[43.9577125,36.2080083]}},{"type":"Feature","id":"osm-node-3548002051-fuel","properties":{"id":"osm-node-3548002051-fuel","name":"بەنزینخانەی باران","kind":"poi","tier":"poi_regional","priority":82.094,"context":"وێستگەی سووتەمەنی","category":"وێستگەی سووتەمەنی"},"geometry":{"type":"Point","coordinates":[43.8213056,36.2291518]}},{"type":"Feature","id":"osm-node-8830831420-fuel","properties":{"id":"osm-node-8830831420-fuel","name":"بەنزینخانەی باغی گەزنە","kind":"poi","tier":"poi_regional","priority":82.094,"context":"وێستگەی سووتەمەنی","category":"وێستگەی سووتەمەنی"},"geometry":{"type":"Point","coordinates":[43.8631295,36.2142917]}},{"type":"Feature","id":"osm-node-9439998571-fuel","properties":{"id":"osm-node-9439998571-fuel","name":"بەنزینخانەی دانا","kind":"poi","tier":"poi_regional","priority":82.094,"context":"وێستگەی سووتەمەنی","category":"وێستگەی سووتەمەنی"},"geometry":{"type":"Point","coordinates":[43.9780839,36.1688996]}},{"type":"Feature","id":"osm-node-10666309105-fuel","properties":{"id":"osm-node-10666309105-fuel","name":"بەنزینخانەی دڵنیا","kind":"poi","tier":"poi_regional","priority":82.094,"context":"وێستگەی سووتەمەنی","category":"وێستگەی سووتەمەنی"},"geometry":{"type":"Point","coordinates":[43.9766426,36.1802226]}},{"type":"Feature","id":"osm-node-3958886357-fuel","properties":{"id":"osm-node-3958886357-fuel","name":"بەنزینخانەی رەسەن","kind":"poi","tier":"poi_regional","priority":82.094,"context":"وێستگەی سووتەمەنی","category":"وێستگەی سووتەمەنی"},"geometry":{"type":"Point","coordinates":[43.9435941,36.1755145]}},{"type":"Feature","id":"osm-node-9825444007-fuel","properties":{"id":"osm-node-9825444007-fuel","name":"بەنزینخانەی سۆرس","kind":"poi","tier":"poi_regional","priority":82.094,"context":"وێستگەی سووتەمەنی","category":"وێستگەی سووتەمەنی"},"geometry":{"type":"Point","coordinates":[43.9563767,36.0947423]}},{"type":"Feature","id":"osm-node-7339992585-fuel","properties":{"id":"osm-node-7339992585-fuel","name":"بەنزینخانەی شادی","kind":"poi","tier":"poi_regional","priority":82.094,"context":"وێستگەی سووتەمەنی","category":"وێستگەی سووتەمەنی"},"geometry":{"type":"Point","coordinates":[43.9788685,36.1469928]}},{"type":"Feature","id":"osm-node-9650649917-fuel","properties":{"id":"osm-node-9650649917-fuel","name":"بەنزینخانەی لۆلیا","kind":"poi","tier":"poi_regional","priority":82.094,"context":"وێستگەی سووتەمەنی","category":"وێستگەی سووتەمەنی"},"geometry":{"type":"Point","coordinates":[43.9413569,36.0532286]}},{"type":"Feature","id":"osm-node-5047921327-fuel","properties":{"id":"osm-node-5047921327-fuel","name":"بەنزینخانەی ماردین","kind":"poi","tier":"poi_regional","priority":82.094,"context":"وێستگەی سووتەمەنی","category":"وێستگەی سووتەمەنی"},"geometry":{"type":"Point","coordinates":[43.96613,36.16445]}},{"type":"Feature","id":"osm-node-3493984005-fuel","properties":{"id":"osm-node-3493984005-fuel","name":"بەنزینخانەی منارە","kind":"poi","tier":"poi_regional","priority":82.094,"context":"وێستگەی سووتەمەنی","category":"وێستگەی سووتەمەنی"},"geometry":{"type":"Point","coordinates":[43.9640053,36.1574413]}},{"type":"Feature","id":"osm-node-9825466727-fuel","properties":{"id":"osm-node-9825466727-fuel","name":"بەنزینخانەی هاونیشتمانی","kind":"poi","tier":"poi_regional","priority":82.094,"context":"وێستگەی سووتەمەنی","category":"وێستگەی سووتەمەنی"},"geometry":{"type":"Point","coordinates":[43.9542934,36.0900015]}},{"type":"Feature","id":"osm-node-4791141222-fuel","properties":{"id":"osm-node-4791141222-fuel","name":"بەنزینخانەی هۆگر","kind":"poi","tier":"poi_regional","priority":82.094,"context":"وێستگەی سووتەمەنی","category":"وێستگەی سووتەمەنی"},"geometry":{"type":"Point","coordinates":[43.9850244,36.1572168]}},{"type":"Feature","id":"osm-node-4550665190-fuel","properties":{"id":"osm-node-4550665190-fuel","name":"بەنزینخانەی هێرش","kind":"poi","tier":"poi_regional","priority":82.094,"context":"وێستگەی سووتەمەنی","category":"وێستگەی سووتەمەنی"},"geometry":{"type":"Point","coordinates":[43.9870906,36.1647688]}},{"type":"Feature","id":"osm-node-9732366333-fuel","properties":{"id":"osm-node-9732366333-fuel","name":"بەنزینخانەی هەرکی","kind":"poi","tier":"poi_regional","priority":82.094,"context":"وێستگەی سووتەمەنی","category":"وێستگەی سووتەمەنی"},"geometry":{"type":"Point","coordinates":[43.9781398,36.1798886]}},{"type":"Feature","id":"osm-node-3958886361-fuel","properties":{"id":"osm-node-3958886361-fuel","name":"بەنزینخانەی کوردستان","kind":"poi","tier":"poi_regional","priority":82.094,"context":"وێستگەی سووتەمەنی","category":"وێستگەی سووتەمەنی"},"geometry":{"type":"Point","coordinates":[43.9456101,36.1773293]}},{"type":"Feature","id":"osm-node-5333160521-fuel","properties":{"id":"osm-node-5333160521-fuel","name":"بەنزینخانەی کوردنەفت - سایلۆ","kind":"poi","tier":"poi_regional","priority":82.094,"context":"وێستگەی سووتەمەنی","category":"وێستگەی سووتەمەنی"},"geometry":{"type":"Point","coordinates":[43.9943576,36.1850604]}},{"type":"Feature","id":"osm-node-5652610422-fuel","properties":{"id":"osm-node-5652610422-fuel","name":"بەنزینخانەی گەل","kind":"poi","tier":"poi_regional","priority":82.094,"context":"وێستگەی سووتەمەنی","category":"وێستگەی سووتەمەنی"},"geometry":{"type":"Point","coordinates":[43.9855164,36.1472873]}},{"type":"Feature","id":"osm-node-3562109735-fuel","properties":{"id":"osm-node-3562109735-fuel","name":"بەهاری نوێ","kind":"poi","tier":"poi_regional","priority":82.094,"context":"وێستگەی سووتەمەنی","category":"وێستگەی سووتەمەنی"},"geometry":{"type":"Point","coordinates":[43.9728702,36.1599106]}},{"type":"Feature","id":"osm-node-4508014915-fuel","properties":{"id":"osm-node-4508014915-fuel","name":"دادوەر","kind":"poi","tier":"poi_regional","priority":82.094,"context":"وێستگەی سووتەمەنی","category":"وێستگەی سووتەمەنی"},"geometry":{"type":"Point","coordinates":[43.8125452,36.232743]}},{"type":"Feature","id":"osm-node-6046592086-fuel","properties":{"id":"osm-node-6046592086-fuel","name":"دانا ئۆیل","kind":"poi","tier":"poi_regional","priority":82.094,"context":"وێستگەی سووتەمەنی","category":"وێستگەی سووتەمەنی"},"geometry":{"type":"Point","coordinates":[43.9738138,36.1670479]}},{"type":"Feature","id":"osm-node-9112746817-fuel","properties":{"id":"osm-node-9112746817-fuel","name":"ساحەی گاز فرۆشان","kind":"poi","tier":"poi_regional","priority":82.094,"context":"وێستگەی سووتەمەنی","category":"وێستگەی سووتەمەنی"},"geometry":{"type":"Point","coordinates":[43.9705513,36.1405879]}},{"type":"Feature","id":"osm-node-3562107177-fuel","properties":{"id":"osm-node-3562107177-fuel","name":"سهن ئۆیل - مامزاوه","kind":"poi","tier":"poi_regional","priority":82.094,"context":"وێستگەی سووتەمەنی","category":"وێستگەی سووتەمەنی"},"geometry":{"type":"Point","coordinates":[43.96512,36.1097636]}},{"type":"Feature","id":"osm-node-3548000212-fuel","properties":{"id":"osm-node-3548000212-fuel","name":"سورس","kind":"poi","tier":"poi_regional","priority":82.094,"context":"وێستگەی سووتەمەنی","category":"وێستگەی سووتەمەنی"},"geometry":{"type":"Point","coordinates":[43.7709398,36.2463669]}},{"type":"Feature","id":"osm-node-3555733604-fuel","properties":{"id":"osm-node-3555733604-fuel","name":"شوان","kind":"poi","tier":"poi_regional","priority":82.094,"context":"وێستگەی سووتەمەنی","category":"وێستگەی سووتەمەنی"},"geometry":{"type":"Point","coordinates":[43.8618708,36.2140781]}},{"type":"Feature","id":"osm-node-10064080517-fuel","properties":{"id":"osm-node-10064080517-fuel","name":"شیخ شیروان شیخ همر","kind":"poi","tier":"poi_regional","priority":82.094,"context":"وێستگەی سووتەمەنی","category":"وێستگەی سووتەمەنی"},"geometry":{"type":"Point","coordinates":[43.8138095,36.0065208]}},{"type":"Feature","id":"osm-node-5819071953-fuel","properties":{"id":"osm-node-5819071953-fuel","name":"محمد زراری","kind":"poi","tier":"poi_regional","priority":82.094,"context":"وێستگەی سووتەمەنی","category":"وێستگەی سووتەمەنی"},"geometry":{"type":"Point","coordinates":[43.7605069,36.1310837]}},