{"type":"FeatureCollection","features":[{"type":"Feature","id":"osm-node-2488248091","properties":{"id":"osm-node-2488248091","name":"کوزاداری","kind":"village","tier":"locality","priority":344.388,"context":"ئاکرێ · نەینەوا","category":"گوند"},"geometry":{"type":"Point","coordinates":[43.7529075,36.7633922]}},{"type":"Feature","id":"osm-node-9520419883","properties":{"id":"osm-node-9520419883","name":"کاروانا","kind":"village","tier":"locality","priority":315.612,"context":"ئاکرێ · نەینەوا","category":"گوند"},"geometry":{"type":"Point","coordinates":[43.8568251,36.9130798]}},{"type":"Feature","id":"osm-node-7633054631","properties":{"id":"osm-node-7633054631","name":"ئارتون","kind":"village","tier":"locality","priority":300,"context":"ئاکرێ · نەینەوا","category":"گوند"},"geometry":{"type":"Point","coordinates":[43.8445688,36.8557583]}},{"type":"Feature","id":"osm-node-2482501754","properties":{"id":"osm-node-2482501754","name":"ئارتون ژووری","kind":"village","tier":"locality","priority":300,"context":"ئاکرێ · نەینەوا","category":"گوند"},"geometry":{"type":"Point","coordinates":[43.8405445,36.8624604]}},{"type":"Feature","id":"osm-node-2488259187","properties":{"id":"osm-node-2488259187","name":"ئەشکەفتە","kind":"village","tier":"locality","priority":300,"context":"ئاکرێ · نەینەوا","category":"گوند"},"geometry":{"type":"Point","coordinates":[43.9306937,36.8201878]}},{"type":"Feature","id":"geonames-97741","properties":{"id":"geonames-97741","name":"باری قەرن","kind":"village","tier":"locality","priority":300,"context":"ئاکرێ · نەینەوا","category":"گوند"},"geometry":{"type":"Point","coordinates":[43.95973,36.88503]}},{"type":"Feature","id":"osm-node-2482506148","properties":{"id":"osm-node-2482506148","name":"بازێ","kind":"village","tier":"locality","priority":300,"context":"زێبار · هەولێر","category":"گوند"},"geometry":{"type":"Point","coordinates":[43.967862,36.9639968]}},{"type":"Feature","id":"osm-node-2488259318","properties":{"id":"osm-node-2488259318","name":"بازێ قرنە","kind":"village","tier":"locality","priority":300,"context":"ئاکرێ · نەینەوا","category":"گوند"},"geometry":{"type":"Point","coordinates":[43.9583423,36.8920055]}},{"type":"Feature","id":"osm-way-864151098","properties":{"id":"osm-way-864151098","name":"بامشمش","kind":"village","tier":"locality","priority":300,"context":"ئاکرێ · نەینەوا","category":"گوند"},"geometry":{"type":"Point","coordinates":[43.82037620723854,36.8627417]}},{"type":"Feature","id":"geonames-92999","properties":{"id":"geonames-92999","name":"بناخی","kind":"village","tier":"locality","priority":300,"context":"ئاکرێ · نەینەوا","category":"گوند"},"geometry":{"type":"Point","coordinates":[43.83028,36.94714]}},{"type":"Feature","id":"osm-node-2479378432","properties":{"id":"osm-node-2479378432","name":"بەرزنار","kind":"village","tier":"locality","priority":300,"context":"ئاکرێ · نەینەوا","category":"گوند"},"geometry":{"type":"Point","coordinates":[43.793521,36.8782]}},{"type":"Feature","id":"osm-node-2482502700","properties":{"id":"osm-node-2482502700","name":"بەنی ماوەت","kind":"village","tier":"locality","priority":300,"context":"ئاکرێ · نەینەوا","category":"گوند"},"geometry":{"type":"Point","coordinates":[43.8575103,36.9418137]}},{"type":"Feature","id":"osm-node-7634346041","properties":{"id":"osm-node-7634346041","name":"بەیبینەوە","kind":"village","tier":"locality","priority":300,"context":"ئاکرێ · نەینەوا","category":"گوند"},"geometry":{"type":"Point","coordinates":[43.767299,36.7674565]}},{"type":"Feature","id":"osm-node-9520392299","properties":{"id":"osm-node-9520392299","name":"خانەگێ","kind":"village","tier":"locality","priority":300,"context":"ئاکرێ · نەینەوا","category":"گوند"},"geometry":{"type":"Point","coordinates":[43.8689379,36.8482806]}},{"type":"Feature","id":"osm-node-7645036269","properties":{"id":"osm-node-7645036269","name":"خراپە زێباری","kind":"village","tier":"locality","priority":300,"context":"ئاکرێ · نەینەوا","category":"گوند"},"geometry":{"type":"Point","coordinates":[43.8635133,36.7637485]}},{"type":"Feature","id":"geonames-8659346","properties":{"id":"geonames-8659346","name":"خرپە ژێری","kind":"village","tier":"locality","priority":300,"context":"ئاکرێ · نەینەوا","category":"گوند"},"geometry":{"type":"Point","coordinates":[43.85209,36.7664]}},{"type":"Feature","id":"osm-node-2482501769","properties":{"id":"osm-node-2482501769","name":"خۆرکێ","kind":"village","tier":"locality","priority":300,"context":"ئاکرێ · نەینەوا","category":"گوند"},"geometry":{"type":"Point","coordinates":[43.9315884,36.8986001]}},{"type":"Feature","id":"osm-node-13760731064","properties":{"id":"osm-node-13760731064","name":"خەردس","kind":"village","tier":"locality","priority":300,"context":"ئاکرێ · نەینەوا","category":"گوند"},"geometry":{"type":"Point","coordinates":[43.824712,36.7878164]}},{"type":"Feature","id":"osm-way-864035565","properties":{"id":"osm-way-864035565","name":"دودی ژووری","kind":"village","tier":"locality","priority":300,"context":"ئاکرێ · نەینەوا","category":"گوند"},"geometry":{"type":"Point","coordinates":[43.810299792154645,36.8684041]}},{"type":"Feature","id":"osm-node-2479378435","properties":{"id":"osm-node-2479378435","name":"دودی ژێری","kind":"village","tier":"locality","priority":300,"context":"ئاکرێ · نەینەوا","category":"گوند"},"geometry":{"type":"Point","coordinates":[43.807065,36.85068]}},{"type":"Feature","id":"osm-node-2482503318","properties":{"id":"osm-node-2482503318","name":"دڤری","kind":"village","tier":"locality","priority":300,"context":"ئاکرێ · نەینەوا","category":"گوند"},"geometry":{"type":"Point","coordinates":[43.886276,36.836711]}},{"type":"Feature","id":"osm-node-2482501761","properties":{"id":"osm-node-2482501761","name":"دۆستەکا","kind":"village","tier":"locality","priority":300,"context":"ئاکرێ · نەینەوا","category":"گوند"},"geometry":{"type":"Point","coordinates":[43.8809303,36.8656614]}},{"type":"Feature","id":"osm-node-7634346040","properties":{"id":"osm-node-7634346040","name":"راویتە","kind":"village","tier":"locality","priority":300,"context":"ئاکرێ · نەینەوا","category":"گوند"},"geometry":{"type":"Point","coordinates":[43.7921865,36.7628474]}},{"type":"Feature","id":"osm-node-2488248124","properties":{"id":"osm-node-2488248124","name":"سوسنا","kind":"village","tier":"locality","priority":300,"context":"ئاکرێ · نەینەوا","category":"گوند"},"geometry":{"type":"Point","coordinates":[43.8195994,36.7585976]}},{"type":"Feature","id":"geonames-445551","properties":{"id":"geonames-445551","name":"سیان","kind":"village","tier":"locality","priority":300,"context":"ئاکرێ · نەینەوا","category":"گوند"},"geometry":{"type":"Point","coordinates":[43.8686,36.83529]}},{"type":"Feature","id":"geonames-445552","properties":{"id":"geonames-445552","name":"سیان","kind":"village","tier":"locality","priority":300,"context":"ئاکرێ · نەینەوا","category":"گوند"},"geometry":{"type":"Point","coordinates":[43.86689,36.84468]}},{"type":"Feature","id":"osm-node-7645036268","properties":{"id":"osm-node-7645036268","name":"سەر کانی","kind":"village","tier":"locality","priority":300,"context":"ئاکرێ · نەینەوا","category":"گوند"},"geometry":{"type":"Point","coordinates":[43.8518777,36.7667509]}},{"type":"Feature","id":"geonames-445596","properties":{"id":"geonames-445596","name":"سەرانیە","kind":"village","tier":"locality","priority":300,"context":"ئاکرێ · نەینەوا","category":"گوند"},"geometry":{"type":"Point","coordinates":[43.78161,36.95558]}},{"type":"Feature","id":"osm-node-2488248141","properties":{"id":"osm-node-2488248141","name":"سەرچاوە","kind":"village","tier":"locality","priority":300,"context":"ئاکرێ · نەینەوا","category":"گوند"},"geometry":{"type":"Point","coordinates":[43.8495422,36.7762111]}},{"type":"Feature","id":"osm-node-2488259524","properties":{"id":"osm-node-2488259524","name":"سەرگەلی","kind":"village","tier":"locality","priority":300,"context":"ئاکرێ · نەینەوا","category":"گوند"},"geometry":{"type":"Point","coordinates":[43.9743631,36.7825333]}},{"type":"Feature","id":"osm-node-2488260194","properties":{"id":"osm-node-2488260194","name":"سەڤرە","kind":"village","tier":"locality","priority":300,"context":"زێبار · هەولێر","category":"گوند"},"geometry":{"type":"Point","coordinates":[43.9064943,36.9902159]}},{"type":"Feature","id":"osm-node-2488260246","properties":{"id":"osm-node-2488260246","name":"شرتا","kind":"village","tier":"locality","priority":300,"context":"ئاکرێ · نەینەوا","category":"گوند"},"geometry":{"type":"Point","coordinates":[43.9099235,36.802848]}},{"type":"Feature","id":"geonames-90762","properties":{"id":"geonames-90762","name":"شۆش","kind":"village","tier":"locality","priority":300,"context":"ئاکرێ · نەینەوا","category":"گوند"},"geometry":{"type":"Point","coordinates":[43.75594,36.79631]}},{"type":"Feature","id":"geonames-445884","properties":{"id":"geonames-445884","name":"شەمەندە","kind":"village","tier":"locality","priority":300,"context":"ئاکرێ · نەینەوا","category":"گوند"},"geometry":{"type":"Point","coordinates":[43.75603,36.93359]}},{"type":"Feature","id":"osm-node-2479378439","properties":{"id":"osm-node-2479378439","name":"شەهێ","kind":"village","tier":"locality","priority":300,"context":"ئاکرێ · نەینەوا","category":"گوند"},"geometry":{"type":"Point","coordinates":[43.791987,36.891586]}},{"type":"Feature","id":"geonames-445560","properties":{"id":"geonames-445560","name":"میردڤیە","kind":"village","tier":"locality","priority":300,"context":"ئاکرێ · نەینەوا","category":"گوند"},"geometry":{"type":"Point","coordinates":[43.82202,36.87809]}},{"type":"Feature","id":"geonames-8659339","properties":{"id":"geonames-8659339","name":"میسلیان","kind":"village","tier":"locality","priority":300,"context":"ئاکرێ · نەینەوا","category":"گوند"},"geometry":{"type":"Point","coordinates":[43.86867,36.81697]}},{"type":"Feature","id":"geonames-8659338","properties":{"id":"geonames-8659338","name":"مێرگە ڕەش","kind":"village","tier":"locality","priority":300,"context":"ئاکرێ · نەینەوا","category":"گوند"},"geometry":{"type":"Point","coordinates":[43.85069,36.82342]}},{"type":"Feature","id":"osm-node-2488260052","properties":{"id":"osm-node-2488260052","name":"مەزرینگان","kind":"village","tier":"locality","priority":300,"context":"ئاکرێ · نەینەوا","category":"گوند"},"geometry":{"type":"Point","coordinates":[43.970498,36.803035]}},{"type":"Feature","id":"geonames-98060","properties":{"id":"geonames-98060","name":"نیاتە","kind":"village","tier":"locality","priority":300,"context":"ئاکرێ · نەینەوا","category":"گوند"},"geometry":{"type":"Point","coordinates":[43.75351,36.76367]}},{"type":"Feature","id":"geonames-95940","properties":{"id":"geonames-95940","name":"هشتکە","kind":"village","tier":"locality","priority":300,"context":"ئاکرێ · نەینەوا","category":"گوند"},"geometry":{"type":"Point","coordinates":[43.93032,36.78437]}},{"type":"Feature","id":"osm-node-2488248108","properties":{"id":"osm-node-2488248108","name":"هلورا","kind":"village","tier":"locality","priority":300,"context":"ئاکرێ · نەینەوا","category":"گوند"},"geometry":{"type":"Point","coordinates":[43.8494936,36.9961621]}},{"type":"Feature","id":"geonames-445577","properties":{"id":"geonames-445577","name":"هنارێ","kind":"village","tier":"locality","priority":300,"context":"ئاکرێ · نەینەوا","category":"گوند"},"geometry":{"type":"Point","coordinates":[43.96079,36.90472]}},{"type":"Feature","id":"osm-node-2488259701","properties":{"id":"osm-node-2488259701","name":"هەرن","kind":"village","tier":"locality","priority":300,"context":"ئاکرێ · نەینەوا","category":"گوند"},"geometry":{"type":"Point","coordinates":[43.988314,36.872401]}},{"type":"Feature","id":"osm-node-10135638142","properties":{"id":"osm-node-10135638142","name":"هەشکا","kind":"village","tier":"locality","priority":300,"context":"ئاکرێ · نەینەوا","category":"گوند"},"geometry":{"type":"Point","coordinates":[43.93188,36.7849582]}},{"type":"Feature","id":"osm-node-2488260614","properties":{"id":"osm-node-2488260614","name":"هەمدڵا","kind":"village","tier":"locality","priority":300,"context":"زێبار · هەولێر","category":"گوند"},"geometry":{"type":"Point","coordinates":[43.9850564,36.9502009]}},{"type":"Feature","id":"osm-node-9522625238","properties":{"id":"osm-node-9522625238","name":"پرێسا کەڤن","kind":"village","tier":"locality","priority":300,"context":"زێبار · هەولێر","category":"گوند"},"geometry":{"type":"Point","coordinates":[43.9999349,36.9301613]}},{"type":"Feature","id":"osm-node-2482501756","properties":{"id":"osm-node-2482501756","name":"چاربوت","kind":"village","tier":"locality","priority":300,"context":"ئاکرێ · نەینەوا","category":"گوند"},"geometry":{"type":"Point","coordinates":[43.9031602,36.9045539]}},{"type":"Feature","id":"osm-node-9520447718","properties":{"id":"osm-node-9520447718","name":"چالێ","kind":"village","tier":"locality","priority":300,"context":"ئاکرێ · نەینەوا","category":"گوند"},"geometry":{"type":"Point","coordinates":[43.9163279,36.9220123]}},{"type":"Feature","id":"geonames-91971","properties":{"id":"geonames-91971","name":"ڕزۆک","kind":"village","tier":"locality","priority":300,"context":"ئاکرێ · نەینەوا","category":"گوند"},"geometry":{"type":"Point","coordinates":[43.83069,36.75656]}},{"type":"Feature","id":"geonames-8664281","properties":{"id":"geonames-8664281","name":"کانی هژیروک","kind":"village","tier":"locality","priority":300,"context":"ئاکرێ · نەینەوا","category":"گوند"},"geometry":{"type":"Point","coordinates":[43.81175,36.84736]}},{"type":"Feature","id":"osm-node-9520424399","properties":{"id":"osm-node-9520424399","name":"کانی هەنجیرۆک","kind":"village","tier":"locality","priority":300,"context":"ئاکرێ · نەینەوا","category":"گوند"},"geometry":{"type":"Point","coordinates":[43.8119684,36.8480472]}},{"type":"Feature","id":"geonames-94735","properties":{"id":"geonames-94735","name":"کاڤلکا","kind":"village","tier":"locality","priority":300,"context":"ئاکرێ · نەینەوا","category":"گوند"},"geometry":{"type":"Point","coordinates":[43.90264,36.85484]}},{"type":"Feature","id":"geonames-8659344","properties":{"id":"geonames-8659344","name":"کوشینە","kind":"village","tier":"locality","priority":300,"context":"ئاکرێ · نەینەوا","category":"گوند"},"geometry":{"type":"Point","coordinates":[43.83572,36.75262]}},{"type":"Feature","id":"geonames-8659340","properties":{"id":"geonames-8659340","name":"کومەلگەها گربیش","kind":"village","tier":"locality","priority":300,"context":"ئاکرێ · نەینەوا","category":"گوند"},"geometry":{"type":"Point","coordinates":[43.94665,36.81001]}},{"type":"Feature","id":"osm-node-2482502144","properties":{"id":"osm-node-2482502144","name":"کویسکێ","kind":"village","tier":"locality","priority":300,"context":"ئاکرێ · نەینەوا","category":"گوند"},"geometry":{"type":"Point","coordinates":[43.827499,36.830468]}},{"type":"Feature","id":"osm-node-7633054632","properties":{"id":"osm-node-7633054632","name":"کۆرتکە","kind":"village","tier":"locality","priority":300,"context":"ئاکرێ · نەینەوا","category":"گوند"},"geometry":{"type":"Point","coordinates":[43.870377,36.8178867]}},{"type":"Feature","id":"osm-node-9520450010","properties":{"id":"osm-node-9520450010","name":"گربیش ژووری","kind":"village","tier":"locality","priority":300,"context":"ئاکرێ · نەینەوا","category":"گوند"},"geometry":{"type":"Point","coordinates":[43.9624823,36.809514]}},{"type":"Feature","id":"geonames-8659341","properties":{"id":"geonames-8659341","name":"گربیش ژێری","kind":"village","tier":"locality","priority":300,"context":"ئاکرێ · نەینەوا","category":"گوند"},"geometry":{"type":"Point","coordinates":[43.95473,36.81004]}},{"type":"Feature","id":"osm-way-863564213","properties":{"id":"osm-way-863564213","name":"گسێ","kind":"village","tier":"locality","priority":300,"context":"ئاکرێ · نەینەوا","category":"گوند"},"geometry":{"type":"Point","coordinates":[43.787036551781895,36.866602799999995]}},{"type":"Feature","id":"osm-node-9520446718","properties":{"id":"osm-node-9520446718","name":"گورگاڤا","kind":"village","tier":"locality","priority":300,"context":"ئاکرێ · نەینەوا","category":"گوند"},"geometry":{"type":"Point","coordinates":[43.8830299,36.9062723]}},{"type":"Feature","id":"osm-node-2482502143","properties":{"id":"osm-node-2482502143","name":"گوندک","kind":"village","tier":"locality","priority":300,"context":"ئاکرێ · نەینەوا","category":"گوند"},"geometry":{"type":"Point","coordinates":[43.7949858,36.7983814]}},{"type":"Feature","id":"osm-node-2488259663","properties":{"id":"osm-node-2488259663","name":"گویسکێ","kind":"village","tier":"locality","priority":300,"context":"ئاکرێ · نەینەوا","category":"گوند"},"geometry":{"type":"Point","coordinates":[43.9523855,36.7753116]}},{"type":"Feature","id":"osm-way-513556951","properties":{"id":"osm-way-513556951","name":"گۆهانا","kind":"village","tier":"locality","priority":300,"context":"ئاکرێ · نەینەوا","category":"گوند"},"geometry":{"type":"Point","coordinates":[43.78121065828494,36.837455750000004]}},{"type":"Feature","id":"osm-node-2488260262","properties":{"id":"osm-node-2488260262","name":"شینی","kind":"hamlet","tier":"locality","priority":250,"context":"ئاکرێ · نەینەوا","category":"گوندۆکە"},"geometry":{"type":"Point","coordinates":[43.926952,36.941119]}},{"type":"Feature","id":"osm-natural-peak-b02f7beb5829d7","properties":{"id":"osm-natural-peak-b02f7beb5829d7","name":"Bashqai Guske","kind":"natural","tier":"natural","priority":180,"context":"لوتکە · ئاکرێ · نەینەوا","category":"لوتکە"},"geometry":{"type":"Point","coordinates":[43.96333,36.77583]}},{"type":"Feature","id":"osm-natural-mountain-f7230915c11bb3","properties":{"id":"osm-natural-mountain-f7230915c11bb3","name":"Chiya-i Spika","kind":"natural","tier":"natural","priority":180,"context":"شاخ · ئاکرێ · نەینەوا","category":"شاخ"},"geometry":{"type":"Point","coordinates":[43.89056,36.92444]}},{"type":"Feature","id":"osm-natural-valley-fa6c001ce1c5d9","properties":{"id":"osm-natural-valley-fa6c001ce1c5d9","name":"Dol-i Charbut","kind":"natural","tier":"natural","priority":180,"context":"دۆڵ · ئاکرێ · نەینەوا","category":"دۆڵ"},"geometry":{"type":"Point","coordinates":[43.92028,36.89694]}},{"type":"Feature","id":"osm-natural-mountain-f14950f5158c71","properties":{"id":"osm-natural-mountain-f14950f5158c71","name":"Gird-i Spi","kind":"natural","tier":"natural","priority":180,"context":"شاخ · ئاکرێ · نەینەوا","category":"شاخ"},"geometry":{"type":"Point","coordinates":[43.90417,36.75278]}},{"type":"Feature","id":"osm-natural-mountain-d73a04bb755bf0","properties":{"id":"osm-natural-mountain-d73a04bb755bf0","name":"Gird-i-Kani Baye","kind":"natural","tier":"natural","priority":180,"context":"شاخ · ئاکرێ · نەینەوا","category":"شاخ"},"geometry":{"type":"Point","coordinates":[43.77861,36.88222]}},{"type":"Feature","id":"osm-natural-stream-86b0d082c919e8","properties":{"id":"osm-natural-stream-86b0d082c919e8","name":"Rubar Barishu","kind":"natural","tier":"natural","priority":180,"context":"جۆگە · ئاکرێ · نەینەوا","category":"جۆگە"},"geometry":{"type":"Point","coordinates":[43.96667,36.76667]}},{"type":"Feature","id":"osm-natural-peak-05c36594925fe3","properties":{"id":"osm-natural-peak-05c36594925fe3","name":"Sar-i Huke","kind":"natural","tier":"natural","priority":180,"context":"لوتکە · ئاکرێ · نەینەوا","category":"لوتکە"},"geometry":{"type":"Point","coordinates":[43.92886,36.91662]}},{"type":"Feature","id":"osm-natural-valley-7598428a20c417","properties":{"id":"osm-natural-valley-7598428a20c417","name":"Shiv-a Direza","kind":"natural","tier":"natural","priority":180,"context":"دۆڵ · ئاکرێ · نەینەوا","category":"دۆڵ"},"geometry":{"type":"Point","coordinates":[43.76222,36.85806]}},{"type":"Feature","id":"osm-natural-valley-65f96572f8f8d5","properties":{"id":"osm-natural-valley-65f96572f8f8d5","name":"Shiw Shush","kind":"natural","tier":"natural","priority":180,"context":"دۆڵ · ئاکرێ · نەینەوا","category":"دۆڵ"},"geometry":{"type":"Point","coordinates":[43.75556,36.75944]}},{"type":"Feature","id":"osm-natural-valley-453e8fbac91969","properties":{"id":"osm-natural-valley-453e8fbac91969","name":"Shiw-i Gunduk","kind":"natural","tier":"natural","priority":180,"context":"دۆڵ · ئاکرێ · نەینەوا","category":"دۆڵ"},"geometry":{"type":"Point","coordinates":[43.75611,36.76]}},{"type":"Feature","id":"osm-natural-hill-d25597def78cb6","properties":{"id":"osm-natural-hill-d25597def78cb6","name":"Tal-i Havis","kind":"natural","tier":"natural","priority":180,"context":"گرد · ئاکرێ · نەینەوا","category":"گرد"},"geometry":{"type":"Point","coordinates":[43.97861,36.88833]}},{"type":"Feature","id":"osm-natural-forest-2082d056fa2d88","properties":{"id":"osm-natural-forest-2082d056fa2d88","name":"أشجار","kind":"natural","tier":"natural","priority":180,"context":"دارستان · ئاکرێ · نەینەوا","category":"دارستان"},"geometry":{"type":"Point","coordinates":[43.9593385,36.9431697]}},{"type":"Feature","id":"osm-natural-mountain-6a68da9740bc95","properties":{"id":"osm-natural-mountain-6a68da9740bc95","name":"جبل بشقال","kind":"natural","tier":"natural","priority":180,"context":"شاخ · ئاکرێ · نەینەوا","category":"شاخ"},"geometry":{"type":"Point","coordinates":[43.95013,36.75309]}},{"type":"Feature","id":"osm-natural-mountain-50e14f488f8683","properties":{"id":"osm-natural-mountain-50e14f488f8683","name":"جبل بلانة","kind":"natural","tier":"natural","priority":180,"context":"شاخ · ئاکرێ · نەینەوا","category":"شاخ"},"geometry":{"type":"Point","coordinates":[43.93761,36.95005]}},{"type":"Feature","id":"osm-natural-mountain-0ff70dc775c57b","properties":{"id":"osm-natural-mountain-0ff70dc775c57b","name":"جبل بيرس","kind":"natural","tier":"natural","priority":180,"context":"شاخ · ئاکرێ · نەینەوا","category":"شاخ"},"geometry":{"type":"Point","coordinates":[43.96385,36.8392]}},{"type":"Feature","id":"osm-natural-mountain-6d2a1a9bb86083","properties":{"id":"osm-natural-mountain-6d2a1a9bb86083","name":"جبل بيريسة","kind":"natural","tier":"natural","priority":180,"context":"شاخ · ئاکرێ · نەینەوا","category":"شاخ"},"geometry":{"type":"Point","coordinates":[43.98012,36.92972]}},{"type":"Feature","id":"osm-natural-mountain-663552730ec7bf","properties":{"id":"osm-natural-mountain-663552730ec7bf","name":"جبل تاتي هوير","kind":"natural","tier":"natural","priority":180,"context":"شاخ · ئاکرێ · نەینەوا","category":"شاخ"},"geometry":{"type":"Point","coordinates":[43.9691,36.91051]}},{"type":"Feature","id":"osm-natural-mountain-7c1788d5cccd65","properties":{"id":"osm-natural-mountain-7c1788d5cccd65","name":"جبل دار بيرمية","kind":"natural","tier":"natural","priority":180,"context":"شاخ · ئاکرێ · نەینەوا","category":"شاخ"},"geometry":{"type":"Point","coordinates":[43.91821,36.86513]}},{"type":"Feature","id":"osm-natural-mountain-deb1d9fa0e5dcd","properties":{"id":"osm-natural-mountain-deb1d9fa0e5dcd","name":"جبل دولة در","kind":"natural","tier":"natural","priority":180,"context":"شاخ · ئاکرێ · نەینەوا","category":"شاخ"},"geometry":{"type":"Point","coordinates":[43.88876,36.87551]}},{"type":"Feature","id":"osm-natural-mountain-5c069df722b454","properties":{"id":"osm-natural-mountain-5c069df722b454","name":"جبل سربان","kind":"natural","tier":"natural","priority":180,"context":"شاخ · ئاکرێ · نەینەوا","category":"شاخ"},"geometry":{"type":"Point","coordinates":[43.80673,36.92779]}},{"type":"Feature","id":"osm-natural-mountain-e15174b15cc6b9","properties":{"id":"osm-natural-mountain-e15174b15cc6b9","name":"جبل سري بابا","kind":"natural","tier":"natural","priority":180,"context":"شاخ · ئاکرێ · نەینەوا","category":"شاخ"},"geometry":{"type":"Point","coordinates":[43.91373,36.94044]}},{"type":"Feature","id":"osm-natural-mountain-9ebaa4b4c05bbc","properties":{"id":"osm-natural-mountain-9ebaa4b4c05bbc","name":"جبل عقرة","kind":"natural","tier":"natural","priority":180,"context":"شاخ · ئاکرێ · نەینەوا","category":"شاخ"},"geometry":{"type":"Point","coordinates":[43.80025,36.81165]}},{"type":"Feature","id":"osm-natural-mountain-885324a9a973db","properties":{"id":"osm-natural-mountain-885324a9a973db","name":"جبل كرده","kind":"natural","tier":"natural","priority":180,"context":"شاخ · ئاکرێ · نەینەوا","category":"شاخ"},"geometry":{"type":"Point","coordinates":[43.81634,36.89137]}},{"type":"Feature","id":"osm-natural-reservoir-fa468357bbded1","properties":{"id":"osm-natural-reservoir-fa468357bbded1","name":"سد راس العین","kind":"natural","tier":"natural","priority":180,"context":"بەنداوی ئاو · ئاکرێ · نەینەوا","category":"بەنداوی ئاو"},"geometry":{"type":"Point","coordinates":[43.8442002,36.7659898]}},{"type":"Feature","id":"osm-natural-peak-72922e3d7b6c7d","properties":{"id":"osm-natural-peak-72922e3d7b6c7d","name":"سري بانية","kind":"natural","tier":"natural","priority":180,"context":"لوتکە · ئاکرێ · نەینەوا","category":"لوتکە"},"geometry":{"type":"Point","coordinates":[43.89523,36.95461]}},{"type":"Feature","id":"osm-natural-peak-0e5265558e91fa","properties":{"id":"osm-natural-peak-0e5265558e91fa","name":"قمة جبل سري سوري","kind":"natural","tier":"natural","priority":180,"context":"لوتکە · ئاکرێ · نەینەوا","category":"لوتکە"},"geometry":{"type":"Point","coordinates":[43.86106,36.9654]}},{"type":"Feature","id":"osm-natural-peak-f920f7765fe77d","properties":{"id":"osm-natural-peak-f920f7765fe77d","name":"قمة سري رشة","kind":"natural","tier":"natural","priority":180,"context":"لوتکە · ئاکرێ · نەینەوا","category":"لوتکە"},"geometry":{"type":"Point","coordinates":[43.84526,36.93881]}},{"type":"Feature","id":"osm-natural-valley-301e32afe5386a","properties":{"id":"osm-natural-valley-301e32afe5386a","name":"وادي اكل","kind":"natural","tier":"natural","priority":180,"context":"دۆڵ · ئاکرێ · نەینەوا","category":"دۆڵ"},"geometry":{"type":"Point","coordinates":[43.79566,36.94765]}},{"type":"Feature","id":"osm-natural-valley-c651442d1c0f7b","properties":{"id":"osm-natural-valley-c651442d1c0f7b","name":"وادي دينارتة","kind":"natural","tier":"natural","priority":180,"context":"دۆڵ · ئاکرێ · نەینەوا","category":"دۆڵ"},"geometry":{"type":"Point","coordinates":[43.98735,36.78181]}},{"type":"Feature","id":"osm-natural-valley-614a51cdff3c6c","properties":{"id":"osm-natural-valley-614a51cdff3c6c","name":"وادي سرانيا","kind":"natural","tier":"natural","priority":180,"context":"دۆڵ · ئاکرێ · نەینەوا","category":"دۆڵ"},"geometry":{"type":"Point","coordinates":[43.77822,36.96194]}},{"type":"Feature","id":"osm-natural-valley-ccb4f6d40a2bf7","properties":{"id":"osm-natural-valley-ccb4f6d40a2bf7","name":"وادي كافلكة","kind":"natural","tier":"natural","priority":180,"context":"دۆڵ · ئاکرێ · نەینەوا","category":"دۆڵ"},"geometry":{"type":"Point","coordinates":[43.79615,36.94743]}},{"type":"Feature","id":"osm-natural-valley-061fac90d0d115","properties":{"id":"osm-natural-valley-061fac90d0d115","name":"وادي نزاره","kind":"natural","tier":"natural","priority":180,"context":"دۆڵ · ئاکرێ · نەینەوا","category":"دۆڵ"},"geometry":{"type":"Point","coordinates":[43.76465,36.93691]}},{"type":"Feature","id":"road-label-osm-way-511568675","properties":{"id":"road-label-osm-way-511568675","name":"Nahla road","kind":"road","tier":"road","priority":88,"context":"primary · ئاکرێ · نەینەوا","category":"ڕێگا"},"geometry":{"type":"Point","coordinates":[43.986459,36.797271]}},{"type":"Feature","id":"road-label-osm-way-756830104","properties":{"id":"road-label-osm-way-756830104","name":"طريق رئيسي نهلا","kind":"road","tier":"road","priority":88,"context":"primary · ئاکرێ · نەینەوا","category":"ڕێگا"},"geometry":{"type":"Point","coordinates":[43.985997,36.783034]}},{"type":"Feature","id":"road-label-osm-way-46932074","properties":{"id":"road-label-osm-way-46932074","name":"طريق نهلا","kind":"road","tier":"road","priority":88,"context":"primary · ئاکرێ · نەینەوا","category":"ڕێگا"},"geometry":{"type":"Point","coordinates":[43.986431,36.790719]}},{"type":"Feature","id":"road-label-osm-way-752871005","properties":{"id":"road-label-osm-way-752871005","name":"ڕێگای ئاکرێ","kind":"road","tier":"road","priority":88,"context":"primary · ئاکرێ · نەینەوا","category":"ڕێگا"},"geometry":{"type":"Point","coordinates":[43.8011,36.755039]}},{"type":"Feature","id":"road-label-osm-way-510705434","properties":{"id":"road-label-osm-way-510705434","name":"ڕێگای بارزان - شێلادزێ","kind":"road","tier":"road","priority":88,"context":"primary · الزيبار · هەولێر","category":"ڕێگا"},"geometry":{"type":"Point","coordinates":[43.953693,36.970213]}},{"type":"Feature","id":"road-label-osm-way-511568677","properties":{"id":"road-label-osm-way-511568677","name":"ڕێگای چیای پێرس","kind":"road","tier":"road","priority":88,"context":"primary · ئاکرێ · نەینەوا","category":"ڕێگا"},"geometry":{"type":"Point","coordinates":[43.996822,36.830466]}},{"type":"Feature","id":"road-label-osm-way-541081770","properties":{"id":"road-label-osm-way-541081770","name":"ڕێگای گەلی زەنتێ","kind":"road","tier":"road","priority":88,"context":"primary · ئاکرێ · نەینەوا","category":"ڕێگا"},"geometry":{"type":"Point","coordinates":[43.976616,36.754705]}},{"type":"Feature","id":"road-label-osm-way-981991416","properties":{"id":"road-label-osm-way-981991416","name":"ڕێگای گەلی زەنتێ","kind":"road","tier":"road","priority":88,"context":"primary · ئاکرێ · نەینەوا","category":"ڕێگا"},"geometry":{"type":"Point","coordinates":[43.972209,36.777455]}},{"type":"Feature","id":"road-label-osm-way-239492352","properties":{"id":"road-label-osm-way-239492352","name":"Kabir Zebari","kind":"road","tier":"road","priority":55,"context":"tertiary · ئاکرێ · نەینەوا","category":"ڕێگا"},"geometry":{"type":"Point","coordinates":[43.891854,36.761129]}},{"type":"Feature","id":"road-label-osm-way-243913467","properties":{"id":"road-label-osm-way-243913467","name":"طريق دوبري","kind":"road","tier":"road","priority":55,"context":"tertiary · ئاکرێ · نەینەوا","category":"ڕێگا"},"geometry":{"type":"Point","coordinates":[43.752045,36.854536]}},{"type":"Feature","id":"road-label-osm-way-243911949","properties":{"id":"road-label-osm-way-243911949","name":"طريق دودي","kind":"road","tier":"road","priority":55,"context":"tertiary · ئاکرێ · نەینەوا","category":"ڕێگا"},"geometry":{"type":"Point","coordinates":[43.893103,36.829258]}},{"type":"Feature","id":"road-label-osm-way-137201740","properties":{"id":"road-label-osm-way-137201740","name":"طريق دينارتة","kind":"road","tier":"road","priority":55,"context":"tertiary · ئاکرێ · نەینەوا","category":"ڕێگا"},"geometry":{"type":"Point","coordinates":[43.981619,36.796579]}},{"type":"Feature","id":"road-label-osm-way-243914249","properties":{"id":"road-label-osm-way-243914249","name":"طريق رأس العين","kind":"road","tier":"road","priority":55,"context":"tertiary · ئاکرێ · نەینەوا","category":"ڕێگا"},"geometry":{"type":"Point","coordinates":[43.851123,36.76807]}},{"type":"Feature","id":"road-label-osm-way-243912673","properties":{"id":"road-label-osm-way-243912673","name":"طريق كسي","kind":"road","tier":"road","priority":55,"context":"tertiary · ئاکرێ · نەینەوا","category":"ڕێگا"},"geometry":{"type":"Point","coordinates":[43.797973,36.866771]}},{"type":"Feature","id":"osm-node-4606398491-bank","properties":{"id":"osm-node-4606398491-bank","name":"بانکی دلۆڤان","kind":"poi","tier":"poi_landmark","priority":92.1,"context":"بانک","category":"بانک"},"geometry":{"type":"Point","coordinates":[43.8942003,36.7554171]}},{"type":"Feature","id":"osm-way-1081282633-stadium","properties":{"id":"osm-way-1081282633-stadium","name":"Kozadare Stadium","kind":"poi","tier":"poi_regional","priority":76.092,"context":"یاریگا","category":"یاریگا"},"geometry":{"type":"Point","coordinates":[43.7533046,36.7567327]}},{"type":"Feature","id":"osm-node-2536917482-ruins","properties":{"id":"osm-node-2536917482-ruins","name":"Zarvija Dji","kind":"poi","tier":"poi_detail","priority":50.1,"context":"شوێنی شوێنەوار","category":"شوێنی شوێنەوار"},"geometry":{"type":"Point","coordinates":[43.8953261,36.7628514]}},{"type":"Feature","id":"osm-node-5032751922-attraction","properties":{"id":"osm-node-5032751922-attraction","name":"مصیف گلی زنطە","kind":"poi","tier":"poi_detail","priority":50.1,"context":"شوێنی گەشتیاری","category":"شوێنی گەشتیاری"},"geometry":{"type":"Point","coordinates":[43.9778548,36.7577404]}},{"type":"Feature","id":"osm-node-11329930270-attraction","properties":{"id":"osm-node-11329930270-attraction","name":"مقبرە بەربەخوک","kind":"poi","tier":"poi_detail","priority":50.1,"context":"شوێنی گەشتیاری","category":"شوێنی گەشتیاری"},"geometry":{"type":"Point","coordinates":[43.8923607,36.7627071]}},{"type":"Feature","id":"osm-way-1245081068-attraction","properties":{"id":"osm-way-1245081068-attraction","name":"سهرێ گری","kind":"poi","tier":"poi_detail","priority":50.092,"context":"شوێنی گەشتیاری","category":"شوێنی گەشتیاری"},"geometry":{"type":"Point","coordinates":[43.8954465,36.7574077]}},{"type":"Feature","id":"osm-node-8291736720-fuel","properties":{"id":"osm-node-8291736720-fuel","name":"محطە سیبە","kind":"poi","tier":"poi_regional","priority":82.094,"context":"وێستگەی سووتەمەنی","category":"وێستگەی سووتەمەنی"},"geometry":{"type":"Point","coordinates":[43.8940827,36.7549932]}},{"type":"Feature","id":"osm-node-5562568026-fuel","properties":{"id":"osm-node-5562568026-fuel","name":"وێستگەی سوتەمەنی پیرە","kind":"poi","tier":"poi_regional","priority":82.094,"context":"وێستگەی سووتەمەنی","category":"وێستگەی سووتەمەنی"},"geometry":{"type":"Point","coordinates":[43.9741321,36.7837059]}},{"type":"Feature","id":"osm-node-10559898410-fuel","properties":{"id":"osm-node-10559898410-fuel","name":"چارچەل","kind":"poi","tier":"poi_regional","priority":82.094,"context":"وێستگەی سووتەمەنی","category":"وێستگەی سووتەمەنی"},"geometry":{"type":"Point","coordinates":[43.8023529,36.7555119]}},{"type":"Feature","id":"osm-way-1503475761-fuel","properties":{"id":"osm-way-1503475761-fuel","name":"چارچەل","kind":"poi","tier":"poi_regional","priority":82.086,"context":"وێستگەی سووتەمەنی","category":"وێستگەی سووتەمەنی"},"geometry":{"type":"Point","coordinates":[43.8020716,36.7557457]}},{"type":"Feature","id":"osm-node-9626473672-car_dealership","properties":{"id":"osm-node-9626473672-car_dealership","name":"پهنچهرچی و روونگۆر","kind":"poi","tier":"poi_regional","priority":76.1,"context":"پێشانگای ئۆتۆمبیل","category":"پێشانگای ئۆتۆمبیل"},"geometry":{"type":"Point","coordinates":[43.9761826,36.9583571]}},{"type":"Feature","id":"osm-node-4678134793-swimming_pool","properties":{"id":"osm-node-4678134793-swimming_pool","name":"مەلەڤانگەها کانی زەرک","kind":"poi","tier":"poi_regional","priority":74.1,"context":"مەسبەح","category":"مەسبەح"},"geometry":{"type":"Point","coordinates":[43.9027729,36.7590536]}},{"type":"Feature","id":"osm-way-864151098-residential","properties":{"id":"osm-way-864151098-residential","name":"بامشمش","kind":"poi","tier":"poi_local","priority":68.045,"context":"کۆمپاوندی نیشتەجێبوون","category":"کۆمپاوندی نیشتەجێبوون"},"geometry":{"type":"Point","coordinates":[43.8203762,36.8627417]}},{"type":"Feature","id":"osm-way-864035565-residential","properties":{"id":"osm-way-864035565-residential","name":"دودی ژووری","kind":"poi","tier":"poi_local","priority":68.045,"context":"کۆمپاوندی نیشتەجێبوون","category":"کۆمپاوندی نیشتەجێبوون"},"geometry":{"type":"Point","coordinates":[43.8102998,36.8684041]}},{"type":"Feature","id":"osm-way-1075616678-residential","properties":{"id":"osm-way-1075616678-residential","name":"راس العین","kind":"poi","tier":"poi_local","priority":68.045,"context":"کۆمپاوندی نیشتەجێبوون","category":"کۆمپاوندی نیشتەجێبوون"},"geometry":{"type":"Point","coordinates":[43.8530597,36.7665731]}},{"type":"Feature","id":"osm-way-863564213-residential","properties":{"id":"osm-way-863564213-residential","name":"گسێ","kind":"poi","tier":"poi_local","priority":68.045,"context":"کۆمپاوندی نیشتەجێبوون","category":"کۆمپاوندی نیشتەجێبوون"},"geometry":{"type":"Point","coordinates":[43.7870366,36.8666028]}},{"type":"Feature","id":"osm-node-2512698976-marketplace","properties":{"id":"osm-node-2512698976-marketplace","name":"Akree Bazaar","kind":"poi","tier":"poi_detail","priority":50.1,"context":"بازاڕ","category":"بازاڕ"},"geometry":{"type":"Point","coordinates":[43.8931853,36.7585958]}},{"type":"Feature","id":"osm-node-7198937685-school","properties":{"id":"osm-node-7198937685-school","name":"ئامدیا بارزانی یا کوران","kind":"poi","tier":"poi_detail","priority":50.1,"context":"قوتابخانە","category":"قوتابخانە"},"geometry":{"type":"Point","coordinates":[43.8898678,36.7583193]}},{"type":"Feature","id":"osm-node-4124437192-restaurant","properties":{"id":"osm-node-4124437192-restaurant","name":"جادا رەزا (سەبو ستی)","kind":"poi","tier":"poi_detail","priority":50.1,"context":"چێشتخانە","category":"چێشتخانە"},"geometry":{"type":"Point","coordinates":[43.8918883,36.7508567]}},{"type":"Feature","id":"osm-node-9507977425-restaurant","properties":{"id":"osm-node-9507977425-restaurant","name":"خارنگەها برنجێ کوردی","kind":"poi","tier":"poi_detail","priority":50.1,"context":"چێشتخانە","category":"چێشتخانە"},"geometry":{"type":"Point","coordinates":[43.8917082,36.7544957]}},{"type":"Feature","id":"osm-node-10855657705-restaurant","properties":{"id":"osm-node-10855657705-restaurant","name":"خانەدان","kind":"poi","tier":"poi_detail","priority":50.1,"context":"چێشتخانە","category":"چێشتخانە"},"geometry":{"type":"Point","coordinates":[43.8948886,36.7587552]}},{"type":"Feature","id":"osm-node-11634461469-school","properties":{"id":"osm-node-11634461469-school","name":"خواندنگەها بنەڕەتی یا گوندێ گیرەیێ","kind":"poi","tier":"poi_detail","priority":50.1,"context":"قوتابخانە","category":"قوتابخانە"},"geometry":{"type":"Point","coordinates":[43.8568289,36.8496904]}},{"type":"Feature","id":"osm-node-4446855789-pharmacy","properties":{"id":"osm-node-4446855789-pharmacy","name":"دهرمانخانه","kind":"poi","tier":"poi_detail","priority":50.1,"context":"دەرمانخانە","category":"دەرمانخانە"},"geometry":{"type":"Point","coordinates":[43.8938215,36.7504783]}},{"type":"Feature","id":"osm-node-6228804385-supermarket","properties":{"id":"osm-node-6228804385-supermarket","name":"دوکان سمیر","kind":"poi","tier":"poi_detail","priority":50.1,"context":"سۆپەرمارکێت","category":"سۆپەرمارکێت"},"geometry":{"type":"Point","coordinates":[43.8218336,36.7556826]}},{"type":"Feature","id":"osm-node-4496951889-pharmacy","properties":{"id":"osm-node-4496951889-pharmacy","name":"دەرمانخانا جودی ئاکرێ 2","kind":"poi","tier":"poi_detail","priority":50.1,"context":"دەرمانخانە","category":"دەرمانخانە"},"geometry":{"type":"Point","coordinates":[43.8939542,36.7500853]}},{"type":"Feature","id":"osm-node-13759777897-restaurant","properties":{"id":"osm-node-13759777897-restaurant","name":"طها گولێ","kind":"poi","tier":"poi_detail","priority":50.1,"context":"چێشتخانە","category":"چێشتخانە"},"geometry":{"type":"Point","coordinates":[43.8940484,36.754065]}},{"type":"Feature","id":"osm-node-10026681717-restaurant","properties":{"id":"osm-node-10026681717-restaurant","name":"قلیه اکری","kind":"poi","tier":"poi_detail","priority":50.1,"context":"چێشتخانە","category":"چێشتخانە"},"geometry":{"type":"Point","coordinates":[43.8917714,36.7504546]}},{"type":"Feature","id":"osm-node-5838204685-school","properties":{"id":"osm-node-5838204685-school","name":"قوتابخانا سوسنا یامەزنا","kind":"poi","tier":"poi_detail","priority":50.1,"context":"قوتابخانە","category":"قوتابخانە"},"geometry":{"type":"Point","coordinates":[43.8268328,36.754519]}},{"type":"Feature","id":"osm-node-10173589417-school","properties":{"id":"osm-node-10173589417-school","name":"قوتابخانا سیپا یا بنەڕەتی تا تێکەڵ","kind":"poi","tier":"poi_detail","priority":50.1,"context":"قوتابخانە","category":"قوتابخانە"},"geometry":{"type":"Point","coordinates":[43.8934474,36.7550593]}},{"type":"Feature","id":"osm-node-10287593209-school","properties":{"id":"osm-node-10287593209-school","name":"قوتابخانا مەلای جزیری یا بنەڕەت","kind":"poi","tier":"poi_detail","priority":50.1,"context":"قوتابخانە","category":"قوتابخانە"},"geometry":{"type":"Point","coordinates":[43.8950781,36.7586389]}},{"type":"Feature","id":"osm-node-10287612009-school","properties":{"id":"osm-node-10287612009-school","name":"قوتابخانەی کەلی ئاکرێ","kind":"poi","tier":"poi_detail","priority":50.1,"context":"قوتابخانە","category":"قوتابخانە"},"geometry":{"type":"Point","coordinates":[43.8951375,36.7554612]}},{"type":"Feature","id":"osm-node-5562568222-school","properties":{"id":"osm-node-5562568222-school","name":"قوتابخانەی گربیشی سەروە","kind":"poi","tier":"poi_detail","priority":50.1,"context":"قوتابخانە","category":"قوتابخانە"},"geometry":{"type":"Point","coordinates":[43.9641752,36.8054147]}},{"type":"Feature","id":"osm-node-5625216521-restaurant","properties":{"id":"osm-node-5625216521-restaurant","name":"قەلی ئاکرێ","kind":"poi","tier":"poi_detail","priority":50.1,"context":"چێشتخانە","category":"چێشتخانە"},"geometry":{"type":"Point","coordinates":[43.8918101,36.7504016]}},{"type":"Feature","id":"osm-node-6412092585-restaurant","properties":{"id":"osm-node-6412092585-restaurant","name":"قەلیا ئاکرێ","kind":"poi","tier":"poi_detail","priority":50.1,"context":"چێشتخانە","category":"چێشتخانە"},"geometry":{"type":"Point","coordinates":[43.8918602,36.750474]}},{"type":"Feature","id":"osm-node-10147015920-school","properties":{"id":"osm-node-10147015920-school","name":"مەرقەدی شێخ عبدالعزیز گەیلانی","kind":"poi","tier":"poi_detail","priority":50.1,"context":"قوتابخانە","category":"قوتابخانە"},"geometry":{"type":"Point","coordinates":[43.8964319,36.7682256]}},{"type":"Feature","id":"osm-node-10147015921-school","properties":{"id":"osm-node-10147015921-school","name":"مەرقەدی شێخ عبدالعزیز گەیلانی","kind":"poi","tier":"poi_detail","priority":50.1,"context":"قوتابخانە","category":"قوتابخانە"},"geometry":{"type":"Point","coordinates":[43.895219,36.7682756]}},{"type":"Feature","id":"osm-way-1292815072-school","properties":{"id":"osm-way-1292815072-school","name":"قوتابخانەی گرنژین","kind":"poi","tier":"poi_detail","priority":50.092,"context":"قوتابخانە","category":"قوتابخانە"},"geometry":{"type":"Point","coordinates":[43.8980507,36.7511148]}},{"type":"Feature","id":"osm-way-1084355136-school","properties":{"id":"osm-way-1084355136-school","name":"قوتابخانەی گۆهانای بنەڕەتی","kind":"poi","tier":"poi_detail","priority":50.092,"context":"قوتابخانە","category":"قوتابخانە"},"geometry":{"type":"Point","coordinates":[43.7824291,36.8377091]}},{"type":"Feature","id":"osm-node-11835070502-castle","properties":{"id":"osm-node-11835070502-castle","name":"Castle","kind":"poi","tier":"poi_detail","priority":50.1,"context":"قەڵا","category":"قەڵا"},"geometry":{"type":"Point","coordinates":[43.8393645,36.9663018]}},{"type":"Feature","id":"osm-node-13770170441-hairdresser","properties":{"id":"osm-node-13770170441-hairdresser","name":"Esam Barber","kind":"poi","tier":"poi_detail","priority":50.1,"context":"سەرتاشخانە","category":"سەرتاشخانە"},"geometry":{"type":"Point","coordinates":[43.8819855,36.8318872]}},{"type":"Feature","id":"osm-node-2511191152-water_well","properties":{"id":"osm-node-2511191152-water_well","name":"Kani Tulita","kind":"poi","tier":"poi_detail","priority":50.1,"context":"بیری ئاو","category":"بیری ئاو"},"geometry":{"type":"Point","coordinates":[43.8971825,36.7606482]}},{"type":"Feature","id":"osm-node-6698108785-viewpoint","properties":{"id":"osm-node-6698108785-viewpoint","name":"Rozecan City","kind":"poi","tier":"poi_detail","priority":50.1,"context":"شوێنی سەیران","category":"شوێنی سەیران"},"geometry":{"type":"Point","coordinates":[43.8914166,36.751336]}},{"type":"Feature","id":"osm-node-13759777896-beauty_shop","properties":{"id":"osm-node-13759777896-beauty_shop","name":"Salon Vip","kind":"poi","tier":"poi_detail","priority":50.1,"context":"جوانکاری","category":"جوانکاری"},"geometry":{"type":"Point","coordinates":[43.8934981,36.7535957]}},{"type":"Feature","id":"osm-node-12783861701-viewpoint","properties":{"id":"osm-node-12783861701-viewpoint","name":"Tasa","kind":"poi","tier":"poi_detail","priority":50.1,"context":"شوێنی سەیران","category":"شوێنی سەیران"},"geometry":{"type":"Point","coordinates":[43.8123586,36.7546352]}},{"type":"Feature","id":"osm-node-9468530770-cafe","properties":{"id":"osm-node-9468530770-cafe","name":"Waar Cafe","kind":"poi","tier":"poi_detail","priority":50.1,"context":"کافێ","category":"کافێ"},"geometry":{"type":"Point","coordinates":[43.8948642,36.7587421]}},{"type":"Feature","id":"osm-node-11143371905-cafe","properties":{"id":"osm-node-11143371905-cafe","name":"Xanedan Cafe Restaurant","kind":"poi","tier":"poi_detail","priority":50.1,"context":"کافێ","category":"کافێ"},"geometry":{"type":"Point","coordinates":[43.8947553,36.7587517]}},{"type":"Feature","id":"osm-node-11656222454-mobile_phone_shop","properties":{"id":"osm-node-11656222454-mobile_phone_shop","name":"barzan phone","kind":"poi","tier":"poi_detail","priority":50.1,"context":"دوکانی مۆبایل","category":"دوکانی مۆبایل"},"geometry":{"type":"Point","coordinates":[43.887699,36.751415]}},{"type":"Feature","id":"osm-node-11329851073-caravan_site","properties":{"id":"osm-node-11329851073-caravan_site","name":"zryan.mstafa","kind":"poi","tier":"poi_detail","priority":50.1,"context":"شوێنی کاراڤان","category":"شوێنی کاراڤان"},"geometry":{"type":"Point","coordinates":[43.8915199,36.7624435]}},{"type":"Feature","id":"osm-node-8142532317-viewpoint","properties":{"id":"osm-node-8142532317-viewpoint","name":"ئاڵای کوردستان","kind":"poi","tier":"poi_detail","priority":50.1,"context":"شوێنی سەیران","category":"شوێنی سەیران"},"geometry":{"type":"Point","coordinates":[43.8840304,36.9964198]}},{"type":"Feature","id":"osm-node-10980167408-hostel","properties":{"id":"osm-node-10980167408-hostel","name":"ئای لەڤ ئاکرێ","kind":"poi","tier":"poi_detail","priority":50.1,"context":"هۆستێل","category":"هۆستێل"},"geometry":{"type":"Point","coordinates":[43.8953431,36.7574546]}},{"type":"Feature","id":"osm-node-5851297487-sports_shop","properties":{"id":"osm-node-5851297487-sports_shop","name":"السیارە","kind":"poi","tier":"poi_detail","priority":50.1,"context":"فرۆشگای کەلوپەلی وەرزشی","category":"فرۆشگای کەلوپەلی وەرزشی"},"geometry":{"type":"Point","coordinates":[43.8998858,36.7561722]}},{"type":"Feature","id":"osm-node-6624531987-castle","properties":{"id":"osm-node-6624531987-castle","name":"دەزگای خیرخوازی بارزانی/منظمە لرعایە وتاهل المعوقین!!","kind":"poi","tier":"poi_detail","priority":50.1,"context":"قەڵا","category":"قەڵا"},"geometry":{"type":"Point","coordinates":[43.8954031,36.7582907]}},{"type":"Feature","id":"osm-node-8306192417-convenience","properties":{"id":"osm-node-8306192417-convenience","name":"زێبار مارکێت","kind":"poi","tier":"poi_detail","priority":50.1,"context":"دوکانی نزیک","category":"دوکانی نزیک"},"geometry":{"type":"Point","coordinates":[43.9862725,36.7971912]}},{"type":"Feature","id":"osm-node-2536514430-viewpoint","properties":{"id":"osm-node-2536514430-viewpoint","name":"سەری کەلێ","kind":"poi","tier":"poi_detail","priority":50.1,"context":"شوێنی سەیران","category":"شوێنی سەیران"},"geometry":{"type":"Point","coordinates":[43.8953052,36.7619927]}},{"type":"Feature","id":"osm-node-10855657805-viewpoint","properties":{"id":"osm-node-10855657805-viewpoint","name":"سەرێ گری","kind":"poi","tier":"poi_detail","priority":50.1,"context":"شوێنی سەیران","category":"شوێنی سەیران"},"geometry":{"type":"Point","coordinates":[43.8951783,36.7573699]}},{"type":"Feature","id":"osm-node-11359564069-clothes","properties":{"id":"osm-node-11359564069-clothes","name":"صدقی خیاطە سیبە للجبە","kind":"poi","tier":"poi_detail","priority":50.1,"context":"جلوبەرگ فرۆشی","category":"جلوبەرگ فرۆشی"},"geometry":{"type":"Point","coordinates":[43.8941974,36.7585021]}},{"type":"Feature","id":"osm-node-5029341221-castle","properties":{"id":"osm-node-5029341221-castle","name":"قشلة عقرة الاثرية","kind":"poi","tier":"poi_detail","priority":50.1,"context":"قەڵا","category":"قەڵا"},"geometry":{"type":"Point","coordinates":[43.8954235,36.7589501]}},{"type":"Feature","id":"osm-node-9084193717-viewpoint","properties":{"id":"osm-node-9084193717-viewpoint","name":"قەبرستان","kind":"poi","tier":"poi_detail","priority":50.1,"context":"شوێنی سەیران","category":"شوێنی سەیران"},"geometry":{"type":"Point","coordinates":[43.8943901,36.7567272]}},{"type":"Feature","id":"osm-node-9860202217-camp_site","properties":{"id":"osm-node-9860202217-camp_site","name":"مصیف سیبه","kind":"poi","tier":"poi_detail","priority":50.1,"context":"کەمپینگ","category":"کەمپینگ"},"geometry":{"type":"Point","coordinates":[43.9009013,36.7571406]}},{"type":"Feature","id":"osm-node-10996701505-bar","properties":{"id":"osm-node-10996701505-bar","name":"مصیف سیبه فی عقره","kind":"poi","tier":"poi_detail","priority":50.1,"context":"بار","category":"بار"},"geometry":{"type":"Point","coordinates":[43.8993197,36.7565926]}},{"type":"Feature","id":"osm-node-8656508817-cafe","properties":{"id":"osm-node-8656508817-cafe","name":"موون کافێ","kind":"poi","tier":"poi_detail","priority":50.1,"context":"کافێ","category":"کافێ"},"geometry":{"type":"Point","coordinates":[43.9014474,36.7532105]}},{"type":"Feature","id":"osm-node-6174617485-doctors","properties":{"id":"osm-node-6174617485-doctors","name":"نەخوشخانا دینارتێ","kind":"poi","tier":"poi_detail","priority":50.1,"context":"ناوەندی پزیشکی","category":"ناوەندی پزیشکی"},"geometry":{"type":"Point","coordinates":[43.9853034,36.7965728]}},{"type":"Feature","id":"osm-node-8919214406-camp_site","properties":{"id":"osm-node-8919214406-camp_site","name":"پیرس گەلی زنتە","kind":"poi","tier":"poi_detail","priority":50.1,"context":"کەمپینگ","category":"کەمپینگ"},"geometry":{"type":"Point","coordinates":[43.9769912,36.7514683]}},{"type":"Feature","id":"osm-node-4407357990-bookshop","properties":{"id":"osm-node-4407357990-bookshop","name":"پەڕاوگەی زیلان 3","kind":"poi","tier":"poi_detail","priority":50.1,"context":"کتێب فرۆشی","category":"کتێب فرۆشی"},"geometry":{"type":"Point","coordinates":[43.8939285,36.7541601]}},{"type":"Feature","id":"osm-node-6791851986-tourist_info","properties":{"id":"osm-node-6791851986-tourist_info","name":"چیای کەلێ","kind":"poi","tier":"poi_detail","priority":50.1,"context":"زانیاری گەشتیاری","category":"زانیاری گەشتیاری"},"geometry":{"type":"Point","coordinates":[43.8951023,36.7624281]}},{"type":"Feature","id":"osm-node-7752567285-alpine_hut","properties":{"id":"osm-node-7752567285-alpine_hut","name":"چیایێ خانەگێ","kind":"poi","tier":"poi_detail","priority":50.1,"context":"کەپر","category":"کەپر"},"geometry":{"type":"Point","coordinates":[43.8749753,36.854637]}},{"type":"Feature","id":"osm-node-6951533685-cafe","properties":{"id":"osm-node-6951533685-cafe","name":"کافتریای دەریا","kind":"poi","tier":"poi_detail","priority":50.1,"context":"کافێ","category":"کافێ"},"geometry":{"type":"Point","coordinates":[43.9002426,36.7546495]}},{"type":"Feature","id":"osm-node-2472690117-water_well","properties":{"id":"osm-node-2472690117-water_well","name":"کانی زەرک","kind":"poi","tier":"poi_detail","priority":50.1,"context":"بیری ئاو","category":"بیری ئاو"},"geometry":{"type":"Point","coordinates":[43.9025661,36.7588155]}},{"type":"Feature","id":"osm-node-4767350523-tourist_info","properties":{"id":"osm-node-4767350523-tourist_info","name":"کەلی ئاکرێ","kind":"poi","tier":"poi_detail","priority":50.1,"context":"زانیاری گەشتیاری","category":"زانیاری گەشتیاری"},"geometry":{"type":"Point","coordinates":[43.8955692,36.7622257]}},{"type":"Feature","id":"osm-node-6354007585-viewpoint","properties":{"id":"osm-node-6354007585-viewpoint","name":"گوندی هەردان","kind":"poi","tier":"poi_detail","priority":50.1,"context":"شوێنی سەیران","category":"شوێنی سەیران"},"geometry":{"type":"Point","coordinates":[43.9250719,36.983341]}},{"type":"Feature","id":"osm-node-2472691698-muslim","properties":{"id":"osm-node-2472691698-muslim","name":"Great Mosque of Akree","kind":"poi","tier":"poi_detail","priority":50.098,"context":"مزگەوت","category":"مزگەوت"},"geometry":{"type":"Point","coordinates":[43.8934624,36.7590088]}},{"type":"Feature","id":"osm-node-8503171651-muslim","properties":{"id":"osm-node-8503171651-muslim","name":"Mufti Mosque","kind":"poi","tier":"poi_detail","priority":50.098,"context":"مزگەوت","category":"مزگەوت"},"geometry":{"type":"Point","coordinates":[43.8950957,36.7519368]}},{"type":"Feature","id":"osm-node-5740649655-muslim_sunni","properties":{"id":"osm-node-5740649655-muslim_sunni","name":"جامعا حجی نسکو","kind":"poi","tier":"poi_detail","priority":50.098,"context":"مزگەوت","category":"مزگەوت"},"geometry":{"type":"Point","coordinates":[43.9851259,36.7989854]}},{"type":"Feature","id":"osm-node-7839618186-muslim_sunni","properties":{"id":"osm-node-7839618186-muslim_sunni","name":"مزگهوت","kind":"poi","tier":"poi_detail","priority":50.098,"context":"مزگەوت","category":"مزگەوت"},"geometry":{"type":"Point","coordinates":[43.9891502,36.9459997]}},{"type":"Feature","id":"osm-node-9626564817-muslim_sunni","properties":{"id":"osm-node-9626564817-muslim_sunni","name":"مزگهوت","kind":"poi","tier":"poi_detail","priority":50.098,"context":"مزگەوت","category":"مزگەوت"},"geometry":{"type":"Point","coordinates":[43.9812205,36.9521914]}},{"type":"Feature","id":"osm-node-4987757823-muslim","properties":{"id":"osm-node-4987757823-muslim","name":"مزگەفتا تولیتا","kind":"poi","tier":"poi_detail","priority":50.098,"context":"مزگەوت","category":"مزگەوت"},"geometry":{"type":"Point","coordinates":[43.8971114,36.7602626]}},{"type":"Feature","id":"osm-node-9084190317-muslim","properties":{"id":"osm-node-9084190317-muslim","name":"مزگەفتا مزینکا","kind":"poi","tier":"poi_detail","priority":50.098,"context":"مزگەوت","category":"مزگەوت"},"geometry":{"type":"Point","coordinates":[43.8956751,36.7584967]}},{"type":"Feature","id":"osm-node-5057918722-muslim","properties":{"id":"osm-node-5057918722-muslim","name":"مزگەفتا گویسکێ","kind":"poi","tier":"poi_detail","priority":50.098,"context":"مزگەوت","category":"مزگەوت"},"geometry":{"type":"Point","coordinates":[43.9530579,36.7758034]}},{"type":"Feature","id":"osm-node-2536917454-christian","properties":{"id":"osm-node-2536917454-christian","name":"مزگەوت","kind":"poi","tier":"poi_detail","priority":50.098,"context":"کەلیسای مەسیحی","category":"کەلیسای مەسیحی"},"geometry":{"type":"Point","coordinates":[43.8952068,36.7606774]}},{"type":"Feature","id":"osm-node-5562568521-muslim","properties":{"id":"osm-node-5562568521-muslim","name":"مزگەوتی حاجی فتحی","kind":"poi","tier":"poi_detail","priority":50.098,"context":"مزگەوت","category":"مزگەوت"},"geometry":{"type":"Point","coordinates":[43.977593,36.7518183]}},{"type":"Feature","id":"osm-node-7643087340-muslim","properties":{"id":"osm-node-7643087340-muslim","name":"مزگەوتی مەلا احمد امام","kind":"poi","tier":"poi_detail","priority":50.098,"context":"مزگەوت","category":"مزگەوت"},"geometry":{"type":"Point","coordinates":[43.9000741,36.7566983]}},{"type":"Feature","id":"osm-node-9507989218-muslim","properties":{"id":"osm-node-9507989218-muslim","name":"مسجد حاجی صبری","kind":"poi","tier":"poi_detail","priority":50.098,"context":"مزگەوت","category":"مزگەوت"},"geometry":{"type":"Point","coordinates":[43.8882629,36.7520829]}},{"type":"Feature","id":"osm-node-12085292426-parking","properties":{"id":"osm-node-12085292426-parking","name":"Parking lot","kind":"poi","tier":"poi_detail","priority":50.094,"context":"پارکینگ","category":"پارکینگ"},"geometry":{"type":"Point","coordinates":[43.8946301,36.7583914]}},{"type":"Feature","id":"osm-node-5693715324-waterfall","properties":{"id":"osm-node-5693715324-waterfall","name":"شلال سیپه","kind":"poi","tier":"poi_detail","priority":50.094,"context":"ئاوشار","category":"ئاوشار"},"geometry":{"type":"Point","coordinates":[43.9006571,36.7572502]}},{"type":"Feature","id":"osm-node-2472691951-waterfall","properties":{"id":"osm-node-2472691951-waterfall","name":"هاڤینگەها سیپە","kind":"poi","tier":"poi_detail","priority":50.094,"context":"ئاوشار","category":"ئاوشار"},"geometry":{"type":"Point","coordinates":[43.9008024,36.7573185]}},{"type":"Feature","id":"osm-node-5842868185-waterfall","properties":{"id":"osm-node-5842868185-waterfall","name":"گلی سیلی","kind":"poi","tier":"poi_detail","priority":50.094,"context":"ئاوشار","category":"ئاوشار"},"geometry":{"type":"Point","coordinates":[43.8946564,36.844929]}},{"type":"Feature","id":"osm-way-1081282635-sports_hall","properties":{"id":"osm-way-1081282635-sports_hall","name":"Gym","kind":"poi","tier":"poi_detail","priority":50.092,"context":"ناوەندی وەرزش","category":"ناوەندی وەرزش"},"geometry":{"type":"Point","coordinates":[43.7540771,36.7562254]}},{"type":"Feature","id":"osm-way-1274639567-castle","properties":{"id":"osm-way-1274639567-castle","name":"STJ 369","kind":"poi","tier":"poi_detail","priority":50.092,"context":"قەڵا","category":"قەڵا"},"geometry":{"type":"Point","coordinates":[43.8397174,36.9665535]}},{"type":"Feature","id":"osm-way-1503475769-beauty_shop","properties":{"id":"osm-way-1503475769-beauty_shop","name":"Salon Vib","kind":"poi","tier":"poi_detail","priority":50.092,"context":"جوانکاری","category":"جوانکاری"},"geometry":{"type":"Point","coordinates":[43.8934983,36.7536063]}},{"type":"Feature","id":"osm-way-229625366-pitch","properties":{"id":"osm-way-229625366-pitch","name":"YARİGEH","kind":"poi","tier":"poi_detail","priority":50.092,"context":"ناوەندی وەرزش","category":"ناوەندی وەرزش"},"geometry":{"type":"Point","coordinates":[43.9730049,36.95541]}},{"type":"Feature","id":"osm-way-1434304900-library","properties":{"id":"osm-way-1434304900-library","name":"susna school libary","kind":"poi","tier":"poi_detail","priority":50.092,"context":"کتێبخانە","category":"کتێبخانە"},"geometry":{"type":"Point","coordinates":[43.8265395,36.754711]}},{"type":"Feature","id":"osm-way-907464422-dam","properties":{"id":"osm-way-907464422-dam","name":"سد راس العین","kind":"poi","tier":"poi_detail","priority":50.086,"context":"بەنداوی ئاو","category":"بەنداوی ئاو"},"geometry":{"type":"Point","coordinates":[43.8456974,36.7647865]}},{"type":"Feature","id":"osm-way-11879882-forest","properties":{"id":"osm-way-11879882-forest","name":"دارستان","kind":"poi","tier":"poi_detail","priority":50.045,"context":"دارستان","category":"دارستان"},"geometry":{"type":"Point","coordinates":[43.9593385,36.9431697]}}]}