{"type":"FeatureCollection","features":[{"type":"Feature","id":"osm-node-9869310078","properties":{"id":"osm-node-9869310078","name":"شیوەرەش حاجی فەیسەل هەرکی","kind":"village","tier":"locality","priority":344.388,"context":"هەولێر · هەولێر","category":"گوند"},"geometry":{"type":"Point","coordinates":[43.8252476,36.3653196]}},{"type":"Feature","id":"osm-node-2480142536","properties":{"id":"osm-node-2480142536","name":"گردجووتیار","kind":"village","tier":"locality","priority":339.96,"context":"هەولێر · هەولێر","category":"گوند"},"geometry":{"type":"Point","coordinates":[43.9928961,36.2716289]}},{"type":"Feature","id":"osm-node-9863777282","properties":{"id":"osm-node-9863777282","name":"شیوەرەش حاجی محەمەد هەرکی","kind":"village","tier":"locality","priority":336,"context":"ئاکرێ · نەینەوا","category":"گوند"},"geometry":{"type":"Point","coordinates":[43.8000146,36.3755776]}},{"type":"Feature","id":"osm-node-2480142978","properties":{"id":"osm-node-2480142978","name":"گردەچاڵ","kind":"village","tier":"locality","priority":334.288,"context":"هەولێر · هەولێر","category":"گوند"},"geometry":{"type":"Point","coordinates":[43.931795,36.358033]}},{"type":"Feature","id":"osm-node-2480144442","properties":{"id":"osm-node-2480144442","name":"شیوەرەش کاکەمین","kind":"village","tier":"locality","priority":332.388,"context":"ئاکرێ · نەینەوا","category":"گوند"},"geometry":{"type":"Point","coordinates":[43.7972011,36.3699737]}},{"type":"Feature","id":"osm-node-2480142979","properties":{"id":"osm-node-2480142979","name":"گردە ڕەق","kind":"village","tier":"locality","priority":331.479,"context":"هەولێر · هەولێر","category":"گوند"},"geometry":{"type":"Point","coordinates":[43.9620562,36.3418042]}},{"type":"Feature","id":"osm-node-4466096207","properties":{"id":"osm-node-4466096207","name":"قەفەز","kind":"village","tier":"locality","priority":326.216,"context":"هەولێر · هەولێر","category":"گوند"},"geometry":{"type":"Point","coordinates":[43.9673634,36.3926488]}},{"type":"Feature","id":"osm-node-2480142971","properties":{"id":"osm-node-2480142971","name":"جێژنیکان ئەفەندی","kind":"village","tier":"locality","priority":326.182,"context":"هەولێر · هەولێر","category":"گوند"},"geometry":{"type":"Point","coordinates":[43.958116,36.356454]}},{"type":"Feature","id":"osm-node-10115408078","properties":{"id":"osm-node-10115408078","name":"قورەبەگ","kind":"village","tier":"locality","priority":326.113,"context":"هەولێر · هەولێر","category":"گوند"},"geometry":{"type":"Point","coordinates":[43.9058949,36.3933449]}},{"type":"Feature","id":"osm-node-8085821785","properties":{"id":"osm-node-8085821785","name":"سەرکەوری هەرکی","kind":"village","tier":"locality","priority":325.447,"context":"هەولێر · هەولێر","category":"گوند"},"geometry":{"type":"Point","coordinates":[43.9171331,36.4024953]}},{"type":"Feature","id":"osm-node-2480142969","properties":{"id":"osm-node-2480142969","name":"ئاشۆکان","kind":"village","tier":"locality","priority":300,"context":"هەولێر · هەولێر","category":"گوند"},"geometry":{"type":"Point","coordinates":[43.9303572,36.3218323]}},{"type":"Feature","id":"osm-node-8040516385","properties":{"id":"osm-node-8040516385","name":"ئاغۆلان","kind":"village","tier":"locality","priority":300,"context":"ئاکرێ · نەینەوا","category":"گوند"},"geometry":{"type":"Point","coordinates":[43.7578376,36.3204186]}},{"type":"Feature","id":"osm-node-13527408262","properties":{"id":"osm-node-13527408262","name":"ئاغۆلان هەرکی","kind":"village","tier":"locality","priority":300,"context":"ئاکرێ · نەینەوا","category":"گوند"},"geometry":{"type":"Point","coordinates":[43.7566079,36.3286468]}},{"type":"Feature","id":"osm-node-9913482746","properties":{"id":"osm-node-9913482746","name":"ئیفراز میران","kind":"village","tier":"locality","priority":300,"context":"ئاکرێ · نەینەوا","category":"گوند"},"geometry":{"type":"Point","coordinates":[43.8163989,36.406662]}},{"type":"Feature","id":"osm-node-12278985339","properties":{"id":"osm-node-12278985339","name":"ئیفراز کەمال ئاغا","kind":"village","tier":"locality","priority":300,"context":"ئاکرێ · نەینەوا","category":"گوند"},"geometry":{"type":"Point","coordinates":[43.8199754,36.4185683]}},{"type":"Feature","id":"geonames-98027","properties":{"id":"geonames-98027","name":"باتنە","kind":"village","tier":"locality","priority":300,"context":"ئاکرێ · نەینەوا","category":"گوند"},"geometry":{"type":"Point","coordinates":[43.77562,36.37173]}},{"type":"Feature","id":"osm-node-7579840176","properties":{"id":"osm-node-7579840176","name":"بارەوانی بچووک","kind":"village","tier":"locality","priority":300,"context":"ئاکرێ · نەینەوا","category":"گوند"},"geometry":{"type":"Point","coordinates":[43.7841984,36.4985587]}},{"type":"Feature","id":"osm-node-2488232290","properties":{"id":"osm-node-2488232290","name":"بارەوانی گەورە","kind":"village","tier":"locality","priority":300,"context":"ئاکرێ · نەینەوا","category":"گوند"},"geometry":{"type":"Point","coordinates":[43.7881163,36.4909021]}},{"type":"Feature","id":"osm-node-2488231708","properties":{"id":"osm-node-2488231708","name":"بیۆک","kind":"village","tier":"locality","priority":300,"context":"ئاکرێ · نەینەوا","category":"گوند"},"geometry":{"type":"Point","coordinates":[43.7609833,36.4210974]}},{"type":"Feature","id":"osm-node-2480142970","properties":{"id":"osm-node-2480142970","name":"بەرحوشتر","kind":"village","tier":"locality","priority":300,"context":"هەولێر · هەولێر","category":"گوند"},"geometry":{"type":"Point","coordinates":[43.8876898,36.3513322]}},{"type":"Feature","id":"geonames-8716101","properties":{"id":"geonames-8716101","name":"بەهراوە زاهر","kind":"village","tier":"locality","priority":300,"context":"ئاکرێ · نەینەوا","category":"گوند"},"geometry":{"type":"Point","coordinates":[43.78442,36.49867]}},{"type":"Feature","id":"osm-node-6505208261","properties":{"id":"osm-node-6505208261","name":"جدیدە زاب","kind":"village","tier":"locality","priority":300,"context":"هەولێر · هەولێر","category":"گوند"},"geometry":{"type":"Point","coordinates":[43.7832105,36.2838153]}},{"type":"Feature","id":"geonames-95167","properties":{"id":"geonames-95167","name":"جژنکان ئەفەندی","kind":"village","tier":"locality","priority":300,"context":"هەولێر · هەولێر","category":"گوند"},"geometry":{"type":"Point","coordinates":[43.96171,36.35738]}},{"type":"Feature","id":"osm-node-2488231799","properties":{"id":"osm-node-2488231799","name":"خاروک","kind":"village","tier":"locality","priority":300,"context":"ئاکرێ · نەینەوا","category":"گوند"},"geometry":{"type":"Point","coordinates":[43.8301646,36.4590135]}},{"type":"Feature","id":"osm-node-10034493494","properties":{"id":"osm-node-10034493494","name":"خاڵوان","kind":"village","tier":"locality","priority":300,"context":"شەقڵاوە · هەولێر","category":"گوند"},"geometry":{"type":"Point","coordinates":[43.8849087,36.4331356]}},{"type":"Feature","id":"osm-node-12278988424","properties":{"id":"osm-node-12278988424","name":"خەرابە دراو","kind":"village","tier":"locality","priority":300,"context":"هەولێر · هەولێر","category":"گوند"},"geometry":{"type":"Point","coordinates":[43.8674063,36.3064362]}},{"type":"Feature","id":"osm-node-7579636349","properties":{"id":"osm-node-7579636349","name":"خەندەک","kind":"village","tier":"locality","priority":300,"context":"ئاکرێ · نەینەوا","category":"گوند"},"geometry":{"type":"Point","coordinates":[43.7513209,36.3590152]}},{"type":"Feature","id":"osm-node-2480142973","properties":{"id":"osm-node-2480142973","name":"دارەبەن","kind":"village","tier":"locality","priority":300,"context":"هەولێر · هەولێر","category":"گوند"},"geometry":{"type":"Point","coordinates":[43.9015715,36.308802]}},{"type":"Feature","id":"osm-node-2488231750","properties":{"id":"osm-node-2488231750","name":"داڵەڕێ","kind":"village","tier":"locality","priority":300,"context":"ئاکرێ · نەینەوا","category":"گوند"},"geometry":{"type":"Point","coordinates":[43.804995,36.4248865]}},{"type":"Feature","id":"osm-node-2479377409","properties":{"id":"osm-node-2479377409","name":"زێرواو","kind":"village","tier":"locality","priority":300,"context":"شەقڵاوە · هەولێر","category":"گوند"},"geometry":{"type":"Point","coordinates":[43.9853757,36.4301045]}},{"type":"Feature","id":"osm-node-2479376731","properties":{"id":"osm-node-2479376731","name":"سمایلاوە","kind":"village","tier":"locality","priority":300,"context":"هەولێر · هەولێر","category":"گوند"},"geometry":{"type":"Point","coordinates":[43.8390986,36.274503]}},{"type":"Feature","id":"osm-way-321033912","properties":{"id":"osm-way-321033912","name":"سێبیران گچکە","kind":"village","tier":"locality","priority":300,"context":"هەولێر · هەولێر","category":"گوند"},"geometry":{"type":"Point","coordinates":[43.8791209041537,36.263735249999996]}},{"type":"Feature","id":"osm-node-2480142984","properties":{"id":"osm-node-2480142984","name":"سێبیرانی گەورە","kind":"village","tier":"locality","priority":300,"context":"هەولێر · هەولێر","category":"گوند"},"geometry":{"type":"Point","coordinates":[43.902029,36.253606]}},{"type":"Feature","id":"osm-way-234017586","properties":{"id":"osm-way-234017586","name":"سەرکەور زراری","kind":"village","tier":"locality","priority":300,"context":"شەقڵاوە · هەولێر","category":"گوند"},"geometry":{"type":"Point","coordinates":[43.9335387476244,36.4182124]}},{"type":"Feature","id":"osm-way-277603264","properties":{"id":"osm-way-277603264","name":"سەیدان","kind":"village","tier":"locality","priority":300,"context":"هەولێر · هەولێر","category":"گوند"},"geometry":{"type":"Point","coordinates":[43.86688592259418,36.334523649999994]}},{"type":"Feature","id":"osm-node-2488231898","properties":{"id":"osm-node-2488231898","name":"شاخۆلان","kind":"village","tier":"locality","priority":300,"context":"هەولێر · هەولێر","category":"گوند"},"geometry":{"type":"Point","coordinates":[43.8699975,36.3882419]}},{"type":"Feature","id":"geonames-90816","properties":{"id":"geonames-90816","name":"شیوە ڕەش","kind":"village","tier":"locality","priority":300,"context":"ئاکرێ · نەینەوا","category":"گوند"},"geometry":{"type":"Point","coordinates":[43.79725,36.37019]}},{"type":"Feature","id":"osm-node-6505225002","properties":{"id":"osm-node-6505225002","name":"قەڵانچۆغان","kind":"village","tier":"locality","priority":300,"context":"هەولێر · هەولێر","category":"گوند"},"geometry":{"type":"Point","coordinates":[43.8941681,36.281891]}},{"type":"Feature","id":"osm-node-2488231834","properties":{"id":"osm-node-2488231834","name":"مام خاڵان","kind":"village","tier":"locality","priority":300,"context":"شەقڵاوە · هەولێر","category":"گوند"},"geometry":{"type":"Point","coordinates":[43.9628358,36.4468275]}},{"type":"Feature","id":"osm-node-4732272721","properties":{"id":"osm-node-4732272721","name":"مامەرۆک","kind":"village","tier":"locality","priority":300,"context":"هەولێر · هەولێر","category":"گوند"},"geometry":{"type":"Point","coordinates":[43.8325458,36.3465046]}},{"type":"Feature","id":"osm-way-234016312","properties":{"id":"osm-way-234016312","name":"مامەندان","kind":"village","tier":"locality","priority":300,"context":"شەقڵاوە · هەولێر","category":"گوند"},"geometry":{"type":"Point","coordinates":[43.87748356272161,36.423187]}},{"type":"Feature","id":"osm-way-234016532","properties":{"id":"osm-way-234016532","name":"ڕەشوان","kind":"village","tier":"locality","priority":300,"context":"شەقڵاوە · هەولێر","category":"گوند"},"geometry":{"type":"Point","coordinates":[43.90981047859115,36.4326238]}},{"type":"Feature","id":"osm-node-7544782770","properties":{"id":"osm-node-7544782770","name":"ڕەشوان نورۆ","kind":"village","tier":"locality","priority":300,"context":"شەقڵاوە · هەولێر","category":"گوند"},"geometry":{"type":"Point","coordinates":[43.9111627,36.430653]}},{"type":"Feature","id":"osm-node-2488231896","properties":{"id":"osm-node-2488231896","name":"ڕەشوان یوسف","kind":"village","tier":"locality","priority":300,"context":"شەقڵاوە · هەولێر","category":"گوند"},"geometry":{"type":"Point","coordinates":[43.9104571,36.4333777]}},{"type":"Feature","id":"osm-node-2480144439","properties":{"id":"osm-node-2480144439","name":"کەور گۆسک","kind":"village","tier":"locality","priority":300,"context":"ئاکرێ · نەینەوا","category":"گوند"},"geometry":{"type":"Point","coordinates":[43.7654907,36.3502596]}},{"type":"Feature","id":"osm-way-309507375","properties":{"id":"osm-way-309507375","name":"کەورەسۆر","kind":"village","tier":"locality","priority":300,"context":"ئاکرێ · نەینەوا","category":"گوند"},"geometry":{"type":"Point","coordinates":[43.82440315902954,36.4519827]}},{"type":"Feature","id":"osm-node-13527400985","properties":{"id":"osm-node-13527400985","name":"گاینجی ڕاستی","kind":"village","tier":"locality","priority":300,"context":"هەولێر · هەولێر","category":"گوند"},"geometry":{"type":"Point","coordinates":[43.8280484,36.3263684]}},{"type":"Feature","id":"osm-node-7544927445","properties":{"id":"osm-node-7544927445","name":"گاینجی گچکە","kind":"village","tier":"locality","priority":300,"context":"هەولێر · هەولێر","category":"گوند"},"geometry":{"type":"Point","coordinates":[43.7834785,36.3224925]}},{"type":"Feature","id":"osm-node-2480144441","properties":{"id":"osm-node-2480144441","name":"گاینجی گەورە","kind":"village","tier":"locality","priority":300,"context":"هەولێر · هەولێر","category":"گوند"},"geometry":{"type":"Point","coordinates":[43.8114171,36.3241822]}},{"type":"Feature","id":"geonames-96483","properties":{"id":"geonames-96483","name":"گرد مامک","kind":"village","tier":"locality","priority":300,"context":"ئاکرێ · نەینەوا","category":"گوند"},"geometry":{"type":"Point","coordinates":[43.82454,36.45235]}},{"type":"Feature","id":"osm-node-12278973757","properties":{"id":"osm-node-12278973757","name":"گردمامک","kind":"village","tier":"locality","priority":300,"context":"ئاکرێ · نەینەوا","category":"گوند"},"geometry":{"type":"Point","coordinates":[43.8132257,36.4361408]}},{"type":"Feature","id":"osm-node-5062631404","properties":{"id":"osm-node-5062631404","name":"گردی ماوان","kind":"village","tier":"locality","priority":300,"context":"شەقڵاوە · هەولێر","category":"گوند"},"geometry":{"type":"Point","coordinates":[43.9474005,36.4192532]}},{"type":"Feature","id":"geonames-445489","properties":{"id":"geonames-445489","name":"گردی ماولین","kind":"village","tier":"locality","priority":300,"context":"شەقڵاوە · هەولێر","category":"گوند"},"geometry":{"type":"Point","coordinates":[43.9475,36.4192]}},{"type":"Feature","id":"osm-node-12279020114","properties":{"id":"osm-node-12279020114","name":"گردەشێر","kind":"village","tier":"locality","priority":300,"context":"هەولێر · هەولێر","category":"گوند"},"geometry":{"type":"Point","coordinates":[43.8412854,36.2950625]}},{"type":"Feature","id":"osm-node-5964941985","properties":{"id":"osm-node-5964941985","name":"گوندی ئەڵمانی","kind":"village","tier":"locality","priority":300,"context":"هەولێر · هەولێر","category":"گوند"},"geometry":{"type":"Point","coordinates":[43.9894228,36.2621814]}},{"type":"Feature","id":"osm-node-2480142977","properties":{"id":"osm-node-2480142977","name":"گەزنە","kind":"village","tier":"locality","priority":300,"context":"هەولێر · هەولێر","category":"گوند"},"geometry":{"type":"Point","coordinates":[43.9348647,36.2801508]}},{"type":"Feature","id":"osm-natural-stream-afd53ad7bc89d3","properties":{"id":"osm-natural-stream-afd53ad7bc89d3","name":"Rubar","kind":"natural","tier":"natural","priority":180,"context":"جۆگە · شقلاوة · هەولێر","category":"جۆگە"},"geometry":{"type":"Point","coordinates":[43.9607691,36.4843586]}},{"type":"Feature","id":"osm-natural-valley-fa6f568d8a0860","properties":{"id":"osm-natural-valley-fa6f568d8a0860","name":"Wadi Chami Khalan","kind":"natural","tier":"natural","priority":180,"context":"دۆڵ · شقلاوة · هەولێر","category":"دۆڵ"},"geometry":{"type":"Point","coordinates":[43.99649,36.48893]}},{"type":"Feature","id":"osm-natural-nature_reserve-5595b22bfd9cd4","properties":{"id":"osm-natural-nature_reserve-5595b22bfd9cd4","name":"باخچە","kind":"natural","tier":"natural","priority":180,"context":"پارێزراوی سروشتی · اربيل · هەولێر","category":"پارێزراوی سروشتی"},"geometry":{"type":"Point","coordinates":[43.8703247,36.3898595]}},{"type":"Feature","id":"osm-natural-stream-c17146e8a92f26","properties":{"id":"osm-natural-stream-c17146e8a92f26","name":"محمد سید تحسین","kind":"natural","tier":"natural","priority":180,"context":"جۆگە · اربيل · هەولێر","category":"جۆگە"},"geometry":{"type":"Point","coordinates":[43.9071876,36.3128342]}},{"type":"Feature","id":"osm-natural-valley-4a8ed41480b09b","properties":{"id":"osm-natural-valley-4a8ed41480b09b","name":"وادي باستوره","kind":"natural","tier":"natural","priority":180,"context":"دۆڵ · ئاکرێ · نەینەوا","category":"دۆڵ"},"geometry":{"type":"Point","coordinates":[43.81558,36.42087]}},{"type":"Feature","id":"osm-natural-valley-3c7bd8767b801f","properties":{"id":"osm-natural-valley-3c7bd8767b801f","name":"وادي برد هشتر","kind":"natural","tier":"natural","priority":180,"context":"دۆڵ · اربيل · هەولێر","category":"دۆڵ"},"geometry":{"type":"Point","coordinates":[43.84624,36.33013]}},{"type":"Feature","id":"osm-natural-valley-b8adc532ab2f79","properties":{"id":"osm-natural-valley-b8adc532ab2f79","name":"وادي جديدة","kind":"natural","tier":"natural","priority":180,"context":"دۆڵ · اربيل · هەولێر","category":"دۆڵ"},"geometry":{"type":"Point","coordinates":[43.79883,36.28185]}},{"type":"Feature","id":"osm-natural-valley-c7e50544f37fa6","properties":{"id":"osm-natural-valley-c7e50544f37fa6","name":"وادي حجي بيك","kind":"natural","tier":"natural","priority":180,"context":"دۆڵ · ئاکرێ · نەینەوا","category":"دۆڵ"},"geometry":{"type":"Point","coordinates":[43.76714,36.36244]}},{"type":"Feature","id":"osm-natural-valley-fc8a5e87846481","properties":{"id":"osm-natural-valley-fc8a5e87846481","name":"وادي خزنكان","kind":"natural","tier":"natural","priority":180,"context":"دۆڵ · اربيل · هەولێر","category":"دۆڵ"},"geometry":{"type":"Point","coordinates":[43.89843,36.33495]}},{"type":"Feature","id":"osm-natural-valley-2a66b8377dcbcc","properties":{"id":"osm-natural-valley-2a66b8377dcbcc","name":"وادي عين كاوة","kind":"natural","tier":"natural","priority":180,"context":"دۆڵ · اربيل · هەولێر","category":"دۆڵ"},"geometry":{"type":"Point","coordinates":[43.92006,36.27874]}},{"type":"Feature","id":"osm-natural-valley-45cd496ed32471","properties":{"id":"osm-natural-valley-45cd496ed32471","name":"وادي كاني ديوان","kind":"natural","tier":"natural","priority":180,"context":"دۆڵ · اربيل · هەولێر","category":"دۆڵ"},"geometry":{"type":"Point","coordinates":[43.92101,36.34446]}},{"type":"Feature","id":"osm-natural-valley-f505969de4ba82","properties":{"id":"osm-natural-valley-f505969de4ba82","name":"وادي كاينج","kind":"natural","tier":"natural","priority":180,"context":"دۆڵ · اربيل · هەولێر","category":"دۆڵ"},"geometry":{"type":"Point","coordinates":[43.77451,36.32498]}},{"type":"Feature","id":"osm-natural-valley-ee0517bb8fe94b","properties":{"id":"osm-natural-valley-ee0517bb8fe94b","name":"وادي كندل","kind":"natural","tier":"natural","priority":180,"context":"دۆڵ · اربيل · هەولێر","category":"دۆڵ"},"geometry":{"type":"Point","coordinates":[43.91047,36.26934]}},{"type":"Feature","id":"osm-natural-valley-8adae1492762f3","properties":{"id":"osm-natural-valley-8adae1492762f3","name":"وادي كندي خن","kind":"natural","tier":"natural","priority":180,"context":"دۆڵ · اربيل · هەولێر","category":"دۆڵ"},"geometry":{"type":"Point","coordinates":[43.92631,36.3017]}},{"type":"Feature","id":"osm-natural-valley-fbf9b898df8eb0","properties":{"id":"osm-natural-valley-fbf9b898df8eb0","name":"وادي كونة يطع","kind":"natural","tier":"natural","priority":180,"context":"دۆڵ · اربيل · هەولێر","category":"دۆڵ"},"geometry":{"type":"Point","coordinates":[43.93852,36.32918]}},{"type":"Feature","id":"road-label-osm-way-1118737084","properties":{"id":"road-label-osm-way-1118737084","name":"ڕێگای هەولێر - دهۆک","kind":"road","tier":"road","priority":100,"context":"motorway · اربيل · هەولێر","category":"ڕێگا"},"geometry":{"type":"Point","coordinates":[43.981697,36.287153]}},{"type":"Feature","id":"road-label-osm-way-851747178","properties":{"id":"road-label-osm-way-851747178","name":"90","kind":"road","tier":"road","priority":98,"context":"motorway · شقلاوة · هەولێر","category":"ڕێگا"},"geometry":{"type":"Point","coordinates":[43.90002,36.481429]}},{"type":"Feature","id":"road-label-osm-way-1318885177","properties":{"id":"road-label-osm-way-1318885177","name":"90","kind":"road","tier":"road","priority":95,"context":"trunk · اربيل · هەولێر","category":"ڕێگا"},"geometry":{"type":"Point","coordinates":[43.97689,36.258446]}},{"type":"Feature","id":"road-label-osm-way-908027675","properties":{"id":"road-label-osm-way-908027675","name":"Erbil- Duhok Road","kind":"road","tier":"road","priority":95,"context":"trunk · شقلاوة · هەولێر","category":"ڕێگا"},"geometry":{"type":"Point","coordinates":[43.902583,36.482178]}},{"type":"Feature","id":"road-label-osm-way-915426906","properties":{"id":"road-label-osm-way-915426906","name":"ڕێگای هەولێر-دهۆک","kind":"road","tier":"road","priority":95,"context":"trunk · اربيل · هەولێر","category":"ڕێگا"},"geometry":{"type":"Point","coordinates":[43.885066,36.341304]}},{"type":"Feature","id":"road-label-osm-way-1120680140","properties":{"id":"road-label-osm-way-1120680140","name":"ڕێگای هەولێر-دهۆک","kind":"road","tier":"road","priority":95,"context":"trunk · اربيل · هەولێر","category":"ڕێگا"},"geometry":{"type":"Point","coordinates":[43.966759,36.264141]}},{"type":"Feature","id":"road-label-osm-way-1178226336","properties":{"id":"road-label-osm-way-1178226336","name":"ڕێگای هەولێر-دهۆک","kind":"road","tier":"road","priority":95,"context":"trunk · اربيل · هەولێر","category":"ڕێگا"},"geometry":{"type":"Point","coordinates":[43.951869,36.273282]}},{"type":"Feature","id":"road-label-osm-way-304814426","properties":{"id":"road-label-osm-way-304814426","name":"Khabat Road","kind":"road","tier":"road","priority":88,"context":"primary · ئاکرێ · نەینەوا","category":"ڕێگا"},"geometry":{"type":"Point","coordinates":[43.783043,36.351977]}},{"type":"Feature","id":"road-label-osm-way-754191776","properties":{"id":"road-label-osm-way-754191776","name":"Rovya Khabat Road","kind":"road","tier":"road","priority":88,"context":"primary · ئاکرێ · نەینەوا","category":"ڕێگا"},"geometry":{"type":"Point","coordinates":[43.821336,36.400981]}},{"type":"Feature","id":"road-label-osm-way-193425602","properties":{"id":"road-label-osm-way-193425602","name":"ڕێگای بەردەڕەش","kind":"road","tier":"road","priority":88,"context":"primary · ئاکرێ · نەینەوا","category":"ڕێگا"},"geometry":{"type":"Point","coordinates":[43.796431,36.401893]}},{"type":"Feature","id":"road-label-osm-way-909745166","properties":{"id":"road-label-osm-way-909745166","name":"ڕێگای ڕۆڤیا-خەبات","kind":"road","tier":"road","priority":88,"context":"primary · ئاکرێ · نەینەوا","category":"ڕێگا"},"geometry":{"type":"Point","coordinates":[43.826603,36.404854]}},{"type":"Feature","id":"road-label-osm-way-288620237","properties":{"id":"road-label-osm-way-288620237","name":"Bahirka Road","kind":"road","tier":"road","priority":72,"context":"secondary · اربيل · هەولێر","category":"ڕێگا"},"geometry":{"type":"Point","coordinates":[43.981042,36.355407]}},{"type":"Feature","id":"road-label-osm-way-964290747","properties":{"id":"road-label-osm-way-964290747","name":"Darashakran Road","kind":"road","tier":"road","priority":72,"context":"secondary · شقلاوة · هەولێر","category":"ڕێگا"},"geometry":{"type":"Point","coordinates":[43.987277,36.410875]}},{"type":"Feature","id":"road-label-osm-way-392684069","properties":{"id":"road-label-osm-way-392684069","name":"Darashakran Str.","kind":"road","tier":"road","priority":72,"context":"secondary · شقلاوة · هەولێر","category":"ڕێگا"},"geometry":{"type":"Point","coordinates":[43.996807,36.406896]}},{"type":"Feature","id":"road-label-osm-way-754189701","properties":{"id":"road-label-osm-way-754189701","name":"Kawrgosk","kind":"road","tier":"road","priority":72,"context":"secondary · ئاکرێ · نەینەوا","category":"ڕێگا"},"geometry":{"type":"Point","coordinates":[43.785567,36.352289]}},{"type":"Feature","id":"road-label-osm-way-754189700","properties":{"id":"road-label-osm-way-754189700","name":"Khabat rd","kind":"road","tier":"road","priority":72,"context":"secondary · ئاکرێ · نەینەوا","category":"ڕێگا"},"geometry":{"type":"Point","coordinates":[43.785016,36.352577]}},{"type":"Feature","id":"road-label-osm-way-474033358","properties":{"id":"road-label-osm-way-474033358","name":"طريق دارشكران","kind":"road","tier":"road","priority":72,"context":"secondary · شقلاوة · هەولێر","category":"ڕێگا"},"geometry":{"type":"Point","coordinates":[43.893668,36.434091]}},{"type":"Feature","id":"road-label-osm-way-11684880","properties":{"id":"road-label-osm-way-11684880","name":"طريق دارشكران","kind":"road","tier":"road","priority":72,"context":"secondary · شقلاوة · هەولێر","category":"ڕێگا"},"geometry":{"type":"Point","coordinates":[43.960485,36.418174]}},{"type":"Feature","id":"road-label-osm-way-682686682","properties":{"id":"road-label-osm-way-682686682","name":"رێگای جدیدە زاب","kind":"road","tier":"road","priority":55,"context":"tertiary · اربيل · هەولێر","category":"ڕێگا"},"geometry":{"type":"Point","coordinates":[43.782311,36.261451]}},{"type":"Feature","id":"road-label-osm-way-321193966","properties":{"id":"road-label-osm-way-321193966","name":"رێگای جدیدەزاب-گاینج-کەورگۆسک","kind":"road","tier":"road","priority":55,"context":"tertiary · اربيل · هەولێر","category":"ڕێگا"},"geometry":{"type":"Point","coordinates":[43.79682,36.307058]}},{"type":"Feature","id":"road-label-osm-way-1355364436","properties":{"id":"road-label-osm-way-1355364436","name":"شەقامی کۆنی بەحرکە","kind":"road","tier":"road","priority":55,"context":"tertiary · اربيل · هەولێر","category":"ڕێگا"},"geometry":{"type":"Point","coordinates":[43.992615,36.252541]}},{"type":"Feature","id":"road-label-osm-way-297561331","properties":{"id":"road-label-osm-way-297561331","name":"ڕێگای گەزنە","kind":"road","tier":"road","priority":55,"context":"tertiary · اربيل · هەولێر","category":"ڕێگا"},"geometry":{"type":"Point","coordinates":[43.833062,36.391198]}},{"type":"Feature","id":"osm-node-6320669086-hospital","properties":{"id":"osm-node-6320669086-hospital","name":"بنکەی تەندروستی جدیدە زاب","kind":"poi","tier":"poi_landmark","priority":95.1,"context":"نەخۆشخانە","category":"نەخۆشخانە"},"geometry":{"type":"Point","coordinates":[43.7840837,36.2894417]}},{"type":"Feature","id":"osm-way-14240735-building","properties":{"id":"osm-way-14240735-building","name":"بنکەی تەندروستی قەرەقاجین","kind":"poi","tier":"poi_landmark","priority":95.055,"context":"نەخۆشخانە","category":"نەخۆشخانە"},"geometry":{"type":"Point","coordinates":[43.9936787,36.4092734]}},{"type":"Feature","id":"osm-node-6060348234-comms_tower","properties":{"id":"osm-node-6060348234-comms_tower","name":"تاوەری زین","kind":"poi","tier":"poi_regional","priority":84.1,"context":"بورجی پەیوەندی","category":"بورجی پەیوەندی"},"geometry":{"type":"Point","coordinates":[43.8992429,36.3075323]}},{"type":"Feature","id":"osm-node-11970663459-mall","properties":{"id":"osm-node-11970663459-mall","name":"Chray daraban","kind":"poi","tier":"poi_regional","priority":78.1,"context":"مەوڵ","category":"مەوڵ"},"geometry":{"type":"Point","coordinates":[43.9037539,36.3081828]}},{"type":"Feature","id":"osm-node-8463477622-attraction","properties":{"id":"osm-node-8463477622-attraction","name":"مجمع بانک","kind":"poi","tier":"poi_detail","priority":50.1,"context":"شوێنی گەشتیاری","category":"شوێنی گەشتیاری"},"geometry":{"type":"Point","coordinates":[43.9924289,36.2610544]}},{"type":"Feature","id":"osm-node-5822778353-attraction","properties":{"id":"osm-node-5822778353-attraction","name":"مەزرەعە","kind":"poi","tier":"poi_detail","priority":50.1,"context":"شوێنی گەشتیاری","category":"شوێنی گەشتیاری"},"geometry":{"type":"Point","coordinates":[43.9094068,36.2789994]}},{"type":"Feature","id":"osm-node-7567580985-attraction","properties":{"id":"osm-node-7567580985-attraction","name":"کەورگۆسک","kind":"poi","tier":"poi_detail","priority":50.1,"context":"شوێنی گەشتیاری","category":"شوێنی گەشتیاری"},"geometry":{"type":"Point","coordinates":[43.8032563,36.4411978]}},{"type":"Feature","id":"osm-node-6768522588-fuel","properties":{"id":"osm-node-6768522588-fuel","name":"Chyawar Fuel Station","kind":"poi","tier":"poi_regional","priority":82.094,"context":"وێستگەی سووتەمەنی","category":"وێستگەی سووتەمەنی"},"geometry":{"type":"Point","coordinates":[43.8421344,36.4271628]}},{"type":"Feature","id":"osm-node-5487829023-fuel","properties":{"id":"osm-node-5487829023-fuel","name":"Daraban Oil","kind":"poi","tier":"poi_regional","priority":82.094,"context":"وێستگەی سووتەمەنی","category":"وێستگەی سووتەمەنی"},"geometry":{"type":"Point","coordinates":[43.9115906,36.3141629]}},{"type":"Feature","id":"osm-node-5487829024-fuel","properties":{"id":"osm-node-5487829024-fuel","name":"Sultan Fuel Station","kind":"poi","tier":"poi_regional","priority":82.094,"context":"وێستگەی سووتەمەنی","category":"وێستگەی سووتەمەنی"},"geometry":{"type":"Point","coordinates":[43.8527449,36.4404449]}},{"type":"Feature","id":"osm-node-6768522885-fuel","properties":{"id":"osm-node-6768522885-fuel","name":"hemn oil","kind":"poi","tier":"poi_regional","priority":82.094,"context":"وێستگەی سووتەمەنی","category":"وێستگەی سووتەمەنی"},"geometry":{"type":"Point","coordinates":[43.8689595,36.4965671]}},{"type":"Feature","id":"osm-node-5487841191-fuel","properties":{"id":"osm-node-5487841191-fuel","name":"بەنزینخانەی بەردحوشتر","kind":"poi","tier":"poi_regional","priority":82.094,"context":"وێستگەی سووتەمەنی","category":"وێستگەی سووتەمەنی"},"geometry":{"type":"Point","coordinates":[43.8877643,36.3388143]}},{"type":"Feature","id":"osm-node-5952612685-fuel","properties":{"id":"osm-node-5952612685-fuel","name":"بەنزینخانەی بەردحوشتر","kind":"poi","tier":"poi_regional","priority":82.094,"context":"وێستگەی سووتەمەنی","category":"وێستگەی سووتەمەنی"},"geometry":{"type":"Point","coordinates":[43.9011126,36.3249094]}},{"type":"Feature","id":"osm-node-9900157099-fuel","properties":{"id":"osm-node-9900157099-fuel","name":"بەنزینخانەی دارەشەکران","kind":"poi","tier":"poi_regional","priority":82.094,"context":"وێستگەی سووتەمەنی","category":"وێستگەی سووتەمەنی"},"geometry":{"type":"Point","coordinates":[43.9856826,36.4121011]}},{"type":"Feature","id":"osm-node-3148559733-fuel","properties":{"id":"osm-node-3148559733-fuel","name":"بەنزینخانەی میرانی","kind":"poi","tier":"poi_regional","priority":82.094,"context":"وێستگەی سووتەمەنی","category":"وێستگەی سووتەمەنی"},"geometry":{"type":"Point","coordinates":[43.8203169,36.3992972]}},{"type":"Feature","id":"osm-node-5289331126-fuel","properties":{"id":"osm-node-5289331126-fuel","name":"پالاوتگەی نەوتی کەورگۆسک","kind":"poi","tier":"poi_regional","priority":82.094,"context":"وێستگەی سووتەمەنی","category":"وێستگەی سووتەمەنی"},"geometry":{"type":"Point","coordinates":[43.7574097,36.3126156]}},{"type":"Feature","id":"osm-node-7018244485-fuel","properties":{"id":"osm-node-7018244485-fuel","name":"پلنگ","kind":"poi","tier":"poi_regional","priority":82.094,"context":"وێستگەی سووتەمەنی","category":"وێستگەی سووتەمەنی"},"geometry":{"type":"Point","coordinates":[43.7583604,36.2503835]}},{"type":"Feature","id":"osm-node-6489545485-bus_station","properties":{"id":"osm-node-6489545485-bus_station","name":"هێڵی عەنکاوە","kind":"poi","tier":"poi_regional","priority":80.096,"context":"وێستگەی پاس","category":"وێستگەی پاس"},"geometry":{"type":"Point","coordinates":[43.9956637,36.2705908]}},{"type":"Feature","id":"osm-node-7196858685-police","properties":{"id":"osm-node-7196858685-police","name":"پۆلیس","kind":"poi","tier":"poi_regional","priority":77.1,"context":"بنکەی پۆلیس","category":"بنکەی پۆلیس"},"geometry":{"type":"Point","coordinates":[43.7985802,36.3443265]}},{"type":"Feature","id":"osm-node-7196858587-police","properties":{"id":"osm-node-7196858587-police","name":"پۆڵیس کەورگۆسک","kind":"poi","tier":"poi_regional","priority":77.1,"context":"بنکەی پۆلیس","category":"بنکەی پۆلیس"},"geometry":{"type":"Point","coordinates":[43.7985061,36.3442924]}},{"type":"Feature","id":"osm-way-276972845-residential","properties":{"id":"osm-way-276972845-residential","name":"Ashokan","kind":"poi","tier":"poi_local","priority":68.045,"context":"کۆمپاوندی نیشتەجێبوون","category":"کۆمپاوندی نیشتەجێبوون"},"geometry":{"type":"Point","coordinates":[43.9306362,36.3215057]}},{"type":"Feature","id":"osm-way-304440571-residential","properties":{"id":"osm-way-304440571-residential","name":"Baninan","kind":"poi","tier":"poi_local","priority":68.045,"context":"کۆمپاوندی نیشتەجێبوون","category":"کۆمپاوندی نیشتەجێبوون"},"geometry":{"type":"Point","coordinates":[43.7724515,36.3751794]}},{"type":"Feature","id":"osm-way-13842797-residential","properties":{"id":"osm-way-13842797-residential","name":"Barawan Big","kind":"poi","tier":"poi_local","priority":68.045,"context":"کۆمپاوندی نیشتەجێبوون","category":"کۆمپاوندی نیشتەجێبوون"},"geometry":{"type":"Point","coordinates":[43.7879207,36.4910512]}},{"type":"Feature","id":"osm-way-1030867690-residential","properties":{"id":"osm-way-1030867690-residential","name":"Dahlara","kind":"poi","tier":"poi_local","priority":68.045,"context":"کۆمپاوندی نیشتەجێبوون","category":"کۆمپاوندی نیشتەجێبوون"},"geometry":{"type":"Point","coordinates":[43.8057914,36.4264715]}},{"type":"Feature","id":"osm-way-276972840-residential","properties":{"id":"osm-way-276972840-residential","name":"Gazna","kind":"poi","tier":"poi_local","priority":68.045,"context":"کۆمپاوندی نیشتەجێبوون","category":"کۆمپاوندی نیشتەجێبوون"},"geometry":{"type":"Point","coordinates":[43.9343175,36.280594]}},{"type":"Feature","id":"osm-way-277603255-residential","properties":{"id":"osm-way-277603255-residential","name":"Girdi Mawan","kind":"poi","tier":"poi_local","priority":68.045,"context":"کۆمپاوندی نیشتەجێبوون","category":"کۆمپاوندی نیشتەجێبوون"},"geometry":{"type":"Point","coordinates":[43.9473264,36.4190058]}},{"type":"Feature","id":"osm-way-288595841-residential","properties":{"id":"osm-way-288595841-residential","name":"Kaor Gnsik","kind":"poi","tier":"poi_local","priority":68.045,"context":"کۆمپاوندی نیشتەجێبوون","category":"کۆمپاوندی نیشتەجێبوون"},"geometry":{"type":"Point","coordinates":[43.7657989,36.3503063]}},{"type":"Feature","id":"osm-way-13767076-residential","properties":{"id":"osm-way-13767076-residential","name":"Moritan","kind":"poi","tier":"poi_local","priority":68.045,"context":"کۆمپاوندی نیشتەجێبوون","category":"کۆمپاوندی نیشتەجێبوون"},"geometry":{"type":"Point","coordinates":[43.7514513,36.4544799]}},{"type":"Feature","id":"osm-way-307346404-residential","properties":{"id":"osm-way-307346404-residential","name":"ئاغۆلان","kind":"poi","tier":"poi_local","priority":68.045,"context":"کۆمپاوندی نیشتەجێبوون","category":"کۆمپاوندی نیشتەجێبوون"},"geometry":{"type":"Point","coordinates":[43.7573345,36.3204094]}},{"type":"Feature","id":"osm-way-1474556818-residential","properties":{"id":"osm-way-1474556818-residential","name":"ئاغۆلان هەرکی","kind":"poi","tier":"poi_local","priority":68.045,"context":"کۆمپاوندی نیشتەجێبوون","category":"کۆمپاوندی نیشتەجێبوون"},"geometry":{"type":"Point","coordinates":[43.7563311,36.3288967]}},{"type":"Feature","id":"osm-way-18196748-residential","properties":{"id":"osm-way-18196748-residential","name":"ئیفراز میران","kind":"poi","tier":"poi_local","priority":68.045,"context":"کۆمپاوندی نیشتەجێبوون","category":"کۆمپاوندی نیشتەجێبوون"},"geometry":{"type":"Point","coordinates":[43.8160517,36.4065987]}},{"type":"Feature","id":"osm-way-309506714-residential","properties":{"id":"osm-way-309506714-residential","name":"ئیفراز کەمال ئاغا","kind":"poi","tier":"poi_local","priority":68.045,"context":"کۆمپاوندی نیشتەجێبوون","category":"کۆمپاوندی نیشتەجێبوون"},"geometry":{"type":"Point","coordinates":[43.8199517,36.4179069]}},{"type":"Feature","id":"osm-way-566400664-residential","properties":{"id":"osm-way-566400664-residential","name":"جدیدە نداب","kind":"poi","tier":"poi_local","priority":68.045,"context":"کۆمپاوندی نیشتەجێبوون","category":"کۆمپاوندی نیشتەجێبوون"},"geometry":{"type":"Point","coordinates":[43.7841802,36.2911708]}},{"type":"Feature","id":"osm-way-311048621-residential","properties":{"id":"osm-way-311048621-residential","name":"خێوتگەی ئاوارەکانی دارەشەکران","kind":"poi","tier":"poi_local","priority":68.045,"context":"کۆمپاوندی نیشتەجێبوون","category":"کۆمپاوندی نیشتەجێبوون"},"geometry":{"type":"Point","coordinates":[43.8895954,36.4710125]}},{"type":"Feature","id":"osm-way-321047007-residential","properties":{"id":"osm-way-321047007-residential","name":"خەرابە دراو","kind":"poi","tier":"poi_local","priority":68.045,"context":"کۆمپاوندی نیشتەجێبوون","category":"کۆمپاوندی نیشتەجێبوون"},"geometry":{"type":"Point","coordinates":[43.8681012,36.3067278]}},{"type":"Feature","id":"osm-way-276972836-residential","properties":{"id":"osm-way-276972836-residential","name":"سمایلاوە","kind":"poi","tier":"poi_local","priority":68.045,"context":"کۆمپاوندی نیشتەجێبوون","category":"کۆمپاوندی نیشتەجێبوون"},"geometry":{"type":"Point","coordinates":[43.8386143,36.2745896]}},{"type":"Feature","id":"osm-way-321033912-residential","properties":{"id":"osm-way-321033912-residential","name":"سێبیران گچکە","kind":"poi","tier":"poi_local","priority":68.045,"context":"کۆمپاوندی نیشتەجێبوون","category":"کۆمپاوندی نیشتەجێبوون"},"geometry":{"type":"Point","coordinates":[43.8791209,36.2637352]}},{"type":"Feature","id":"osm-way-277603271-residential","properties":{"id":"osm-way-277603271-residential","name":"شاخۆلان","kind":"poi","tier":"poi_local","priority":68.045,"context":"کۆمپاوندی نیشتەجێبوون","category":"کۆمپاوندی نیشتەجێبوون"},"geometry":{"type":"Point","coordinates":[43.8695456,36.3901438]}},{"type":"Feature","id":"osm-way-276972847-residential","properties":{"id":"osm-way-276972847-residential","name":"محمد سید تحسین","kind":"poi","tier":"poi_local","priority":68.045,"context":"کۆمپاوندی نیشتەجێبوون","category":"کۆمپاوندی نیشتەجێبوون"},"geometry":{"type":"Point","coordinates":[43.9025543,36.310366]}},{"type":"Feature","id":"osm-way-304439167-residential","properties":{"id":"osm-way-304439167-residential","name":"کەمپی کەورگۆسکی ئاوارەکان","kind":"poi","tier":"poi_local","priority":68.045,"context":"کۆمپاوندی نیشتەجێبوون","category":"کۆمپاوندی نیشتەجێبوون"},"geometry":{"type":"Point","coordinates":[43.8114852,36.3443812]}},{"type":"Feature","id":"osm-way-277603256-residential","properties":{"id":"osm-way-277603256-residential","name":"کەورگۆسک","kind":"poi","tier":"poi_local","priority":68.045,"context":"کۆمپاوندی نیشتەجێبوون","category":"کۆمپاوندی نیشتەجێبوون"},"geometry":{"type":"Point","coordinates":[43.8016194,36.3489843]}},{"type":"Feature","id":"osm-way-309507375-residential","properties":{"id":"osm-way-309507375-residential","name":"کەورەسۆر","kind":"poi","tier":"poi_local","priority":68.045,"context":"کۆمپاوندی نیشتەجێبوون","category":"کۆمپاوندی نیشتەجێبوون"},"geometry":{"type":"Point","coordinates":[43.8244032,36.4519827]}},{"type":"Feature","id":"osm-way-276972841-residential","properties":{"id":"osm-way-276972841-residential","name":"گاینجی بچووک","kind":"poi","tier":"poi_local","priority":68.045,"context":"کۆمپاوندی نیشتەجێبوون","category":"کۆمپاوندی نیشتەجێبوون"},"geometry":{"type":"Point","coordinates":[43.7834471,36.322266]}},{"type":"Feature","id":"osm-way-1474555431-residential","properties":{"id":"osm-way-1474555431-residential","name":"گاینجی ڕاستی","kind":"poi","tier":"poi_local","priority":68.045,"context":"کۆمپاوندی نیشتەجێبوون","category":"کۆمپاوندی نیشتەجێبوون"},"geometry":{"type":"Point","coordinates":[43.8279246,36.3263453]}},{"type":"Feature","id":"osm-way-276972838-residential","properties":{"id":"osm-way-276972838-residential","name":"گاینجی گەورە","kind":"poi","tier":"poi_local","priority":68.045,"context":"کۆمپاوندی نیشتەجێبوون","category":"کۆمپاوندی نیشتەجێبوون"},"geometry":{"type":"Point","coordinates":[43.8112496,36.3239602]}},{"type":"Feature","id":"osm-way-309507710-residential","properties":{"id":"osm-way-309507710-residential","name":"گردمامک","kind":"poi","tier":"poi_local","priority":68.045,"context":"کۆمپاوندی نیشتەجێبوون","category":"کۆمپاوندی نیشتەجێبوون"},"geometry":{"type":"Point","coordinates":[43.8131623,36.4360788]}},{"type":"Feature","id":"osm-way-276972842-residential","properties":{"id":"osm-way-276972842-residential","name":"گردەشێر","kind":"poi","tier":"poi_local","priority":68.045,"context":"کۆمپاوندی نیشتەجێبوون","category":"کۆمپاوندی نیشتەجێبوون"},"geometry":{"type":"Point","coordinates":[43.8414652,36.2954125]}},{"type":"Feature","id":"osm-way-653416255-building","properties":{"id":"osm-way-653416255-building","name":"Nasco","kind":"poi","tier":"poi_local","priority":66.055,"context":"ناوچەی پیشەسازی","category":"ناوچەی پیشەسازی"},"geometry":{"type":"Point","coordinates":[43.986625,36.2523738]}},{"type":"Feature","id":"osm-way-264560936-industrial","properties":{"id":"osm-way-264560936-industrial","name":"Al-Manafith Co.","kind":"poi","tier":"poi_local","priority":66.045,"context":"ناوچەی پیشەسازی","category":"ناوچەی پیشەسازی"},"geometry":{"type":"Point","coordinates":[43.7649071,36.3300229]}},{"type":"Feature","id":"osm-way-1376954661-industrial","properties":{"id":"osm-way-1376954661-industrial","name":"Bahrka Substation","kind":"poi","tier":"poi_local","priority":66.045,"context":"ناوچەی پیشەسازی","category":"ناوچەی پیشەسازی"},"geometry":{"type":"Point","coordinates":[43.9911728,36.2505452]}},{"type":"Feature","id":"osm-way-1376718891-industrial","properties":{"id":"osm-way-1376718891-industrial","name":"Baranaty Substation","kind":"poi","tier":"poi_local","priority":66.045,"context":"ناوچەی پیشەسازی","category":"ناوچەی پیشەسازی"},"geometry":{"type":"Point","coordinates":[43.8831634,36.3472537]}},{"type":"Feature","id":"osm-way-288160865-industrial","properties":{"id":"osm-way-288160865-industrial","name":"Darin Steel Company (DS) - 360 KTPA","kind":"poi","tier":"poi_local","priority":66.045,"context":"ناوچەی پیشەسازی","category":"ناوچەی پیشەسازی"},"geometry":{"type":"Point","coordinates":[43.7619096,36.3334363]}},{"type":"Feature","id":"osm-way-1376720115-industrial","properties":{"id":"osm-way-1376720115-industrial","name":"Ifraz Substation","kind":"poi","tier":"poi_local","priority":66.045,"context":"ناوچەی پیشەسازی","category":"ناوچەی پیشەسازی"},"geometry":{"type":"Point","coordinates":[43.8156014,36.4036643]}},{"type":"Feature","id":"osm-way-1376719820-industrial","properties":{"id":"osm-way-1376719820-industrial","name":"Jazhnikan Substation","kind":"poi","tier":"poi_local","priority":66.045,"context":"ناوچەی پیشەسازی","category":"ناوچەی پیشەسازی"},"geometry":{"type":"Point","coordinates":[43.9564869,36.3577405]}},{"type":"Feature","id":"osm-way-269474988-industrial","properties":{"id":"osm-way-269474988-industrial","name":"Kalak Refinery","kind":"poi","tier":"poi_local","priority":66.045,"context":"ناوچەی پیشەسازی","category":"ناوچەی پیشەسازی"},"geometry":{"type":"Point","coordinates":[43.7525221,36.3134443]}},{"type":"Feature","id":"osm-way-307374520-industrial","properties":{"id":"osm-way-307374520-industrial","name":"UNHCR Gazna","kind":"poi","tier":"poi_local","priority":66.045,"context":"ناوچەی پیشەسازی","category":"ناوچەی پیشەسازی"},"geometry":{"type":"Point","coordinates":[43.9461309,36.2798695]}},{"type":"Feature","id":"osm-node-9856445891-school","properties":{"id":"osm-node-9856445891-school","name":"gulan school","kind":"poi","tier":"poi_detail","priority":50.1,"context":"قوتابخانە","category":"قوتابخانە"},"geometry":{"type":"Point","coordinates":[43.7943652,36.3521645]}},{"type":"Feature","id":"osm-node-9856491320-school","properties":{"id":"osm-node-9856491320-school","name":"shiwarash haji faysal school","kind":"poi","tier":"poi_detail","priority":50.1,"context":"قوتابخانە","category":"قوتابخانە"},"geometry":{"type":"Point","coordinates":[43.8274484,36.3644986]}},{"type":"Feature","id":"osm-node-8226595628-supermarket","properties":{"id":"osm-node-8226595628-supermarket","name":"اسماعیل","kind":"poi","tier":"poi_detail","priority":50.1,"context":"سۆپەرمارکێت","category":"سۆپەرمارکێت"},"geometry":{"type":"Point","coordinates":[43.938622,36.2800562]}},{"type":"Feature","id":"osm-node-9887531118-clinic","properties":{"id":"osm-node-9887531118-clinic","name":"تاقیگەی پزیشکی ئەلینا","kind":"poi","tier":"poi_detail","priority":50.1,"context":"کلینیک","category":"کلینیک"},"geometry":{"type":"Point","coordinates":[43.9928992,36.2607611]}},{"type":"Feature","id":"osm-node-7768318885-pharmacy","properties":{"id":"osm-node-7768318885-pharmacy","name":"دەرمانخانی کردجوتیار","kind":"poi","tier":"poi_detail","priority":50.1,"context":"دەرمانخانە","category":"دەرمانخانە"},"geometry":{"type":"Point","coordinates":[43.9929982,36.2716705]}},{"type":"Feature","id":"osm-node-8574822118-fire_station","properties":{"id":"osm-node-8574822118-fire_station","name":"زز","kind":"poi","tier":"poi_detail","priority":50.1,"context":"بنکەی ئاگرکوژێنەوە","category":"بنکەی ئاگرکوژێنەوە"},"geometry":{"type":"Point","coordinates":[43.8475754,36.3913758]}},{"type":"Feature","id":"osm-node-8226595434-supermarket","properties":{"id":"osm-node-8226595434-supermarket","name":"سەنگەر","kind":"poi","tier":"poi_detail","priority":50.1,"context":"سۆپەرمارکێت","category":"سۆپەرمارکێت"},"geometry":{"type":"Point","coordinates":[43.9349316,36.2816696]}},{"type":"Feature","id":"osm-node-5911260286-supermarket","properties":{"id":"osm-node-5911260286-supermarket","name":"فرۆشگای شەعبان","kind":"poi","tier":"poi_detail","priority":50.1,"context":"سۆپەرمارکێت","category":"سۆپەرمارکێت"},"geometry":{"type":"Point","coordinates":[43.798288,36.3515494]}},{"type":"Feature","id":"osm-node-5685490722-school","properties":{"id":"osm-node-5685490722-school","name":"قوتابخانه ی گوندی گاینج","kind":"poi","tier":"poi_detail","priority":50.1,"context":"قوتابخانە","category":"قوتابخانە"},"geometry":{"type":"Point","coordinates":[43.8126647,36.3240808]}},{"type":"Feature","id":"osm-node-4723844891-school","properties":{"id":"osm-node-4723844891-school","name":"قوتابخانە","kind":"poi","tier":"poi_detail","priority":50.1,"context":"قوتابخانە","category":"قوتابخانە"},"geometry":{"type":"Point","coordinates":[43.7853589,36.2827249]}},{"type":"Feature","id":"osm-node-4873388823-school","properties":{"id":"osm-node-4873388823-school","name":"قوتابخانە","kind":"poi","tier":"poi_detail","priority":50.1,"context":"قوتابخانە","category":"قوتابخانە"},"geometry":{"type":"Point","coordinates":[43.812379,36.353918]}},{"type":"Feature","id":"osm-node-7768318886-school","properties":{"id":"osm-node-7768318886-school","name":"قوتابخانە","kind":"poi","tier":"poi_detail","priority":50.1,"context":"قوتابخانە","category":"قوتابخانە"},"geometry":{"type":"Point","coordinates":[43.990259,36.2740971]}},{"type":"Feature","id":"osm-node-6816912297-school","properties":{"id":"osm-node-6816912297-school","name":"قوتابخانەی میهرەبان","kind":"poi","tier":"poi_detail","priority":50.1,"context":"قوتابخانە","category":"قوتابخانە"},"geometry":{"type":"Point","coordinates":[43.9185458,36.3054816]}},{"type":"Feature","id":"osm-node-7768318986-supermarket","properties":{"id":"osm-node-7768318986-supermarket","name":"مارکیت","kind":"poi","tier":"poi_detail","priority":50.1,"context":"سۆپەرمارکێت","category":"سۆپەرمارکێت"},"geometry":{"type":"Point","coordinates":[43.9913943,36.272392]}},{"type":"Feature","id":"osm-node-7768318985-supermarket","properties":{"id":"osm-node-7768318985-supermarket","name":"مارکیت دیرک","kind":"poi","tier":"poi_detail","priority":50.1,"context":"سۆپەرمارکێت","category":"سۆپەرمارکێت"},"geometry":{"type":"Point","coordinates":[43.9891076,36.2728487]}},{"type":"Feature","id":"osm-node-7845882288-supermarket","properties":{"id":"osm-node-7845882288-supermarket","name":"مارکێتی دایکم","kind":"poi","tier":"poi_detail","priority":50.1,"context":"سۆپەرمارکێت","category":"سۆپەرمارکێت"},"geometry":{"type":"Point","coordinates":[43.8036902,36.3450695]}},{"type":"Feature","id":"osm-node-8226595341-supermarket","properties":{"id":"osm-node-8226595341-supermarket","name":"مارکێتی گەزنە","kind":"poi","tier":"poi_detail","priority":50.1,"context":"سۆپەرمارکێت","category":"سۆپەرمارکێت"},"geometry":{"type":"Point","coordinates":[43.938934,36.2784034]}},{"type":"Feature","id":"osm-node-8407415517-supermarket","properties":{"id":"osm-node-8407415517-supermarket","name":"ماڕکێتی بەڕانەتی","kind":"poi","tier":"poi_detail","priority":50.1,"context":"سۆپەرمارکێت","category":"سۆپەرمارکێت"},"geometry":{"type":"Point","coordinates":[43.9770303,36.2586174]}},{"type":"Feature","id":"osm-node-8226595422-supermarket","properties":{"id":"osm-node-8226595422-supermarket","name":"محمود و ریناس","kind":"poi","tier":"poi_detail","priority":50.1,"context":"سۆپەرمارکێت","category":"سۆپەرمارکێت"},"geometry":{"type":"Point","coordinates":[43.9380523,36.2824208]}},{"type":"Feature","id":"osm-node-6335163685-school","properties":{"id":"osm-node-6335163685-school","name":"مدرسە ابتدائیە","kind":"poi","tier":"poi_detail","priority":50.1,"context":"قوتابخانە","category":"قوتابخانە"},"geometry":{"type":"Point","coordinates":[43.8926862,36.470362]}},{"type":"Feature","id":"osm-node-6335163585-school","properties":{"id":"osm-node-6335163585-school","name":"مدرسە اعدادیە جکرخوین","kind":"poi","tier":"poi_detail","priority":50.1,"context":"قوتابخانە","category":"قوتابخانە"},"geometry":{"type":"Point","coordinates":[43.8090408,36.3459743]}},{"type":"Feature","id":"osm-node-7768318787-clinic","properties":{"id":"osm-node-7768318787-clinic","name":"معاون طبی","kind":"poi","tier":"poi_detail","priority":50.1,"context":"کلینیک","category":"کلینیک"},"geometry":{"type":"Point","coordinates":[43.9887566,36.2727677]}},{"type":"Feature","id":"osm-node-7768318987-clinic","properties":{"id":"osm-node-7768318987-clinic","name":"معاون طبی","kind":"poi","tier":"poi_detail","priority":50.1,"context":"کلینیک","category":"کلینیک"},"geometry":{"type":"Point","coordinates":[43.993048,36.2714152]}},{"type":"Feature","id":"osm-node-6584179889-supermarket","properties":{"id":"osm-node-6584179889-supermarket","name":"مه تین یه لماز مارکیت","kind":"poi","tier":"poi_detail","priority":50.1,"context":"سۆپەرمارکێت","category":"سۆپەرمارکێت"},"geometry":{"type":"Point","coordinates":[43.9024793,36.2506318]}},{"type":"Feature","id":"osm-node-8226595342-supermarket","properties":{"id":"osm-node-8226595342-supermarket","name":"مینا","kind":"poi","tier":"poi_detail","priority":50.1,"context":"سۆپەرمارکێت","category":"سۆپەرمارکێت"},"geometry":{"type":"Point","coordinates":[43.9386597,36.2802352]}},{"type":"Feature","id":"osm-node-7768319085-school","properties":{"id":"osm-node-7768319085-school","name":"مەکتەبی سەرەتایی","kind":"poi","tier":"poi_detail","priority":50.1,"context":"قوتابخانە","category":"قوتابخانە"},"geometry":{"type":"Point","coordinates":[43.992442,36.2716522]}},{"type":"Feature","id":"osm-node-8574822119-fire_station","properties":{"id":"osm-node-8574822119-fire_station","name":"نن","kind":"poi","tier":"poi_detail","priority":50.1,"context":"بنکەی ئاگرکوژێنەوە","category":"بنکەی ئاگرکوژێنەوە"},"geometry":{"type":"Point","coordinates":[43.8448217,36.3919008]}},{"type":"Feature","id":"osm-node-11888604669-supermarket","properties":{"id":"osm-node-11888604669-supermarket","name":"نۆبڵ مارکێت","kind":"poi","tier":"poi_detail","priority":50.1,"context":"سۆپەرمارکێت","category":"سۆپەرمارکێت"},"geometry":{"type":"Point","coordinates":[43.9971664,36.2598683]}},{"type":"Feature","id":"osm-node-5894406390-supermarket","properties":{"id":"osm-node-5894406390-supermarket","name":"هولاند","kind":"poi","tier":"poi_detail","priority":50.1,"context":"سۆپەرمارکێت","category":"سۆپەرمارکێت"},"geometry":{"type":"Point","coordinates":[43.9934158,36.2600061]}},{"type":"Feature","id":"osm-way-1074654623-school","properties":{"id":"osm-way-1074654623-school","name":"siwarash haji faysal school","kind":"poi","tier":"poi_detail","priority":50.092,"context":"قوتابخانە","category":"قوتابخانە"},"geometry":{"type":"Point","coordinates":[43.8274446,36.3645483]}},{"type":"Feature","id":"osm-way-1058985449-school","properties":{"id":"osm-way-1058985449-school","name":"قوتابخانە","kind":"poi","tier":"poi_detail","priority":50.092,"context":"قوتابخانە","category":"قوتابخانە"},"geometry":{"type":"Point","coordinates":[43.8701963,36.3910178]}},{"type":"Feature","id":"osm-way-1517225550-building","properties":{"id":"osm-way-1517225550-building","name":"قوتابخانەی نواڵە","kind":"poi","tier":"poi_detail","priority":50.055,"context":"قوتابخانە","category":"قوتابخانە"},"geometry":{"type":"Point","coordinates":[43.7708949,36.349793]}},{"type":"Feature","id":"osm-way-951755037-commercial","properties":{"id":"osm-way-951755037-commercial","name":"Kobra Oil & Gas Services (KOGS)","kind":"poi","tier":"poi_local","priority":64.045,"context":"بینای بازرگانی","category":"بینای بازرگانی"},"geometry":{"type":"Point","coordinates":[43.8471158,36.3423405]}},{"type":"Feature","id":"osm-node-6387608635-viewpoint","properties":{"id":"osm-node-6387608635-viewpoint","name":"Jabbar Sayid","kind":"poi","tier":"poi_detail","priority":50.1,"context":"شوێنی سەیران","category":"شوێنی سەیران"},"geometry":{"type":"Point","coordinates":[43.8934766,36.2827478]}},{"type":"Feature","id":"osm-node-12958841692-hairdresser","properties":{"id":"osm-node-12958841692-hairdresser","name":"Matin Bar Ber","kind":"poi","tier":"poi_detail","priority":50.1,"context":"سەرتاشخانە","category":"سەرتاشخانە"},"geometry":{"type":"Point","coordinates":[43.9034542,36.2508393]}},{"type":"Feature","id":"osm-node-9856381593-mobile_phone_shop","properties":{"id":"osm-node-9856381593-mobile_phone_shop","name":"Mobile Yousif","kind":"poi","tier":"poi_detail","priority":50.1,"context":"دوکانی مۆبایل","category":"دوکانی مۆبایل"},"geometry":{"type":"Point","coordinates":[43.7911353,36.3481006]}},{"type":"Feature","id":"osm-node-10029234318-artwork","properties":{"id":"osm-node-10029234318-artwork","name":"Mzgawt","kind":"poi","tier":"poi_detail","priority":50.1,"context":"هونەری گشتی","category":"هونەری گشتی"},"geometry":{"type":"Point","coordinates":[43.8876763,36.470514]}},{"type":"Feature","id":"osm-node-9420327872-mobile_phone_shop","properties":{"id":"osm-node-9420327872-mobile_phone_shop","name":"Safwan Farhan","kind":"poi","tier":"poi_detail","priority":50.1,"context":"دوکانی مۆبایل","category":"دوکانی مۆبایل"},"geometry":{"type":"Point","coordinates":[43.8102353,36.3474762]}},{"type":"Feature","id":"osm-node-10159785157-cafe","properties":{"id":"osm-node-10159785157-cafe","name":"Zeda Kachal","kind":"poi","tier":"poi_detail","priority":50.1,"context":"کافێ","category":"کافێ"},"geometry":{"type":"Point","coordinates":[43.79637,36.3628146]}},{"type":"Feature","id":"osm-node-11656222520-convenience","properties":{"id":"osm-node-11656222520-convenience","name":"market ari","kind":"poi","tier":"poi_detail","priority":50.1,"context":"دوکانی نزیک","category":"دوکانی نزیک"},"geometry":{"type":"Point","coordinates":[43.791008,36.348312]}},{"type":"Feature","id":"osm-node-5685490724-computer_shop","properties":{"id":"osm-node-5685490724-computer_shop","name":"soranjawhar","kind":"poi","tier":"poi_detail","priority":50.1,"context":"دوکانی کۆمپیوتەر","category":"دوکانی کۆمپیوتەر"},"geometry":{"type":"Point","coordinates":[43.805846,36.3199698]}},{"type":"Feature","id":"osm-node-8792576217-community_centre","properties":{"id":"osm-node-8792576217-community_centre","name":"ئاسایش کەورگۆسک","kind":"poi","tier":"poi_detail","priority":50.1,"context":"ناوەندی کۆمەڵایەتی","category":"ناوەندی کۆمەڵایەتی"},"geometry":{"type":"Point","coordinates":[43.804972,36.3456467]}},{"type":"Feature","id":"osm-node-11839195769-caravan_site","properties":{"id":"osm-node-11839195769-caravan_site","name":"بیت حکمت","kind":"poi","tier":"poi_detail","priority":50.1,"context":"شوێنی کاراڤان","category":"شوێنی کاراڤان"},"geometry":{"type":"Point","coordinates":[43.9932551,36.2746068]}},{"type":"Feature","id":"osm-node-8814897817-sports_shop","properties":{"id":"osm-node-8814897817-sports_shop","name":"بیر جلیل","kind":"poi","tier":"poi_detail","priority":50.1,"context":"فرۆشگای کەلوپەلی وەرزشی","category":"فرۆشگای کەلوپەلی وەرزشی"},"geometry":{"type":"Point","coordinates":[43.7501324,36.4895881]}},{"type":"Feature","id":"osm-node-8283848817-sports_shop","properties":{"id":"osm-node-8283848817-sports_shop","name":"دواجن جاسم عزت","kind":"poi","tier":"poi_detail","priority":50.1,"context":"فرۆشگای کەلوپەلی وەرزشی","category":"فرۆشگای کەلوپەلی وەرزشی"},"geometry":{"type":"Point","coordinates":[43.7578133,36.4885324]}},{"type":"Feature","id":"osm-node-7196858586-community_centre","properties":{"id":"osm-node-7196858586-community_centre","name":"دوسا مرکز اجتمعی و مساحە للاطفال","kind":"poi","tier":"poi_detail","priority":50.1,"context":"ناوەندی کۆمەڵایەتی","category":"ناوەندی کۆمەڵایەتی"},"geometry":{"type":"Point","coordinates":[43.8117942,36.3442424]}},{"type":"Feature","id":"osm-node-10633910405-guesthouse","properties":{"id":"osm-node-10633910405-guesthouse","name":"زیاد غانم عبد","kind":"poi","tier":"poi_detail","priority":50.1,"context":"میوانخانە","category":"میوانخانە"},"geometry":{"type":"Point","coordinates":[43.9953924,36.2618801]}},{"type":"Feature","id":"osm-node-10633910406-guesthouse","properties":{"id":"osm-node-10633910406-guesthouse","name":"زیاد غانم کساب","kind":"poi","tier":"poi_detail","priority":50.1,"context":"میوانخانە","category":"میوانخانە"},"geometry":{"type":"Point","coordinates":[43.9953717,36.2622386]}},{"type":"Feature","id":"osm-node-11033073905-viewpoint","properties":{"id":"osm-node-11033073905-viewpoint","name":"سلیم خان","kind":"poi","tier":"poi_detail","priority":50.1,"context":"شوێنی سەیران","category":"شوێنی سەیران"},"geometry":{"type":"Point","coordinates":[43.9056252,36.2877167]}},{"type":"Feature","id":"osm-node-11065547280-convenience","properties":{"id":"osm-node-11065547280-convenience","name":"سوبر مارکت - هولند بازار 12 - هرشم مول","kind":"poi","tier":"poi_detail","priority":50.1,"context":"دوکانی نزیک","category":"دوکانی نزیک"},"geometry":{"type":"Point","coordinates":[43.99391,36.2604533]}},{"type":"Feature","id":"osm-node-11913779494-picnic_site","properties":{"id":"osm-node-11913779494-picnic_site","name":"سەلام و براکانی","kind":"poi","tier":"poi_detail","priority":50.1,"context":"شوێنی پیکنیک","category":"شوێنی پیکنیک"},"geometry":{"type":"Point","coordinates":[43.9085641,36.338801]}},{"type":"Feature","id":"osm-node-7768318786-bakery","properties":{"id":"osm-node-7768318786-bakery","name":"سەمون خانە","kind":"poi","tier":"poi_detail","priority":50.1,"context":"نانەواخانە","category":"نانەواخانە"},"geometry":{"type":"Point","coordinates":[43.9930876,36.2712122]}},{"type":"Feature","id":"osm-node-4373254289-fountain","properties":{"id":"osm-node-4373254289-fountain","name":"شرکە ستارلایت للشحن الجوی","kind":"poi","tier":"poi_detail","priority":50.1,"context":"نافورە","category":"نافورە"},"geometry":{"type":"Point","coordinates":[43.9657646,36.2644251]}},{"type":"Feature","id":"osm-node-8196642421-camp_site","properties":{"id":"osm-node-8196642421-camp_site","name":"طریق علاء","kind":"poi","tier":"poi_detail","priority":50.1,"context":"کەمپینگ","category":"کەمپینگ"},"geometry":{"type":"Point","coordinates":[43.8797244,36.3430577]}},{"type":"Feature","id":"osm-node-6186179988-artwork","properties":{"id":"osm-node-6186179988-artwork","name":"قاعدە امریکی","kind":"poi","tier":"poi_detail","priority":50.1,"context":"هونەری گشتی","category":"هونەری گشتی"},"geometry":{"type":"Point","coordinates":[43.910591,36.2703703]}},{"type":"Feature","id":"osm-node-10159940517-guesthouse","properties":{"id":"osm-node-10159940517-guesthouse","name":"مالی حاج شیرزاد مام جوغان","kind":"poi","tier":"poi_detail","priority":50.1,"context":"میوانخانە","category":"میوانخانە"},"geometry":{"type":"Point","coordinates":[43.9047663,36.2814199]}},{"type":"Feature","id":"osm-node-4526609989-furniture_shop","properties":{"id":"osm-node-4526609989-furniture_shop","name":"مخازن شرکە صدف للموبیلیات","kind":"poi","tier":"poi_detail","priority":50.1,"context":"کەل و پەلی ماڵ فرۆشی","category":"کەل و پەلی ماڵ فرۆشی"},"geometry":{"type":"Point","coordinates":[43.99272,36.274314]}},{"type":"Feature","id":"osm-node-6335163486-community_centre","properties":{"id":"osm-node-6335163486-community_centre","name":"مرکز انترسوس الاجتماعی","kind":"poi","tier":"poi_detail","priority":50.1,"context":"ناوەندی کۆمەڵایەتی","category":"ناوەندی کۆمەڵایەتی"},"geometry":{"type":"Point","coordinates":[43.8937717,36.4701186]}},{"type":"Feature","id":"osm-node-8157726219-community_centre","properties":{"id":"osm-node-8157726219-community_centre","name":"مرکز سویدو الاجتماعی","kind":"poi","tier":"poi_detail","priority":50.1,"context":"ناوەندی کۆمەڵایەتی","category":"ناوەندی کۆمەڵایەتی"},"geometry":{"type":"Point","coordinates":[43.8905748,36.4725449]}},{"type":"Feature","id":"osm-node-8499754217-tourist_info","properties":{"id":"osm-node-8499754217-tourist_info","name":"مفرق خاروک.داله ری","kind":"poi","tier":"poi_detail","priority":50.1,"context":"زانیاری گەشتیاری","category":"زانیاری گەشتیاری"},"geometry":{"type":"Point","coordinates":[43.7946947,36.4653916]}},{"type":"Feature","id":"osm-node-7023871986-pub","properties":{"id":"osm-node-7023871986-pub","name":"ملهی تایم","kind":"poi","tier":"poi_detail","priority":50.1,"context":"پەب","category":"پەب"},"geometry":{"type":"Point","coordinates":[43.9905292,36.2548389]}},{"type":"Feature","id":"osm-node-12015053469-mobile_phone_shop","properties":{"id":"osm-node-12015053469-mobile_phone_shop","name":"مۆبایلی دارەشەکران","kind":"poi","tier":"poi_detail","priority":50.1,"context":"دوکانی مۆبایل","category":"دوکانی مۆبایل"},"geometry":{"type":"Point","coordinates":[43.9980445,36.4049299]}},{"type":"Feature","id":"osm-node-4871223622-park","properties":{"id":"osm-node-4871223622-park","name":"مەزرەعەی حمد شیخانی","kind":"poi","tier":"poi_detail","priority":50.1,"context":"پارک","category":"پارک"},"geometry":{"type":"Point","coordinates":[43.7580125,36.300041]}},{"type":"Feature","id":"osm-node-4739371623-viewpoint","properties":{"id":"osm-node-4739371623-viewpoint","name":"هرشم ١","kind":"poi","tier":"poi_detail","priority":50.1,"context":"شوێنی سەیران","category":"شوێنی سەیران"},"geometry":{"type":"Point","coordinates":[43.9938354,36.2592471]}},{"type":"Feature","id":"osm-node-6496551985-cafe","properties":{"id":"osm-node-6496551985-cafe","name":"پۆڵا کافی","kind":"poi","tier":"poi_detail","priority":50.1,"context":"کافێ","category":"کافێ"},"geometry":{"type":"Point","coordinates":[43.9036069,36.2509439]}},{"type":"Feature","id":"osm-node-5182091224-camp_site","properties":{"id":"osm-node-5182091224-camp_site","name":"کامپی ئاوارەکان لە بەحرکە","kind":"poi","tier":"poi_detail","priority":50.1,"context":"کەمپینگ","category":"کەمپینگ"},"geometry":{"type":"Point","coordinates":[43.9928782,36.2928188]}},{"type":"Feature","id":"osm-node-10573191709-library","properties":{"id":"osm-node-10573191709-library","name":"کتێبخانەی داڵەڕێ","kind":"poi","tier":"poi_detail","priority":50.1,"context":"کتێبخانە","category":"کتێبخانە"},"geometry":{"type":"Point","coordinates":[43.8065826,36.4246316]}},{"type":"Feature","id":"osm-node-10573194509-library","properties":{"id":"osm-node-10573194509-library","name":"کتێبخانەی داڵەڕێ","kind":"poi","tier":"poi_detail","priority":50.1,"context":"کتێبخانە","category":"کتێبخانە"},"geometry":{"type":"Point","coordinates":[43.8061902,36.424394]}},{"type":"Feature","id":"osm-node-10019743617-camp_site","properties":{"id":"osm-node-10019743617-camp_site","name":"که مب هی رشم","kind":"poi","tier":"poi_detail","priority":50.1,"context":"کەمپینگ","category":"کەمپینگ"},"geometry":{"type":"Point","coordinates":[43.9942558,36.2566031]}},{"type":"Feature","id":"osm-node-7506343485-sports_shop","properties":{"id":"osm-node-7506343485-sports_shop","name":"که ور قه لان","kind":"poi","tier":"poi_detail","priority":50.1,"context":"فرۆشگای کەلوپەلی وەرزشی","category":"فرۆشگای کەلوپەلی وەرزشی"},"geometry":{"type":"Point","coordinates":[43.8014307,36.4401394]}},{"type":"Feature","id":"osm-node-4900603421-convenience","properties":{"id":"osm-node-4900603421-convenience","name":"کۆمپانیای عیراقی نوێ","kind":"poi","tier":"poi_detail","priority":50.1,"context":"دوکانی نزیک","category":"دوکانی نزیک"},"geometry":{"type":"Point","coordinates":[43.9796786,36.2575368]}},{"type":"Feature","id":"osm-node-4413098190-alpine_hut","properties":{"id":"osm-node-4413098190-alpine_hut","name":"گرد جوتیار","kind":"poi","tier":"poi_detail","priority":50.1,"context":"کەپر","category":"کەپر"},"geometry":{"type":"Point","coordinates":[43.9936559,36.2805872]}},{"type":"Feature","id":"osm-node-4723898593-graveyard","properties":{"id":"osm-node-4723898593-graveyard","name":"گۆرستان","kind":"poi","tier":"poi_detail","priority":50.1,"context":"قەبرستان","category":"قەبرستان"},"geometry":{"type":"Point","coordinates":[43.7801499,36.2816659]}},{"type":"Feature","id":"osm-node-4723915089-graveyard","properties":{"id":"osm-node-4723915089-graveyard","name":"گۆرستان","kind":"poi","tier":"poi_detail","priority":50.1,"context":"قەبرستان","category":"قەبرستان"},"geometry":{"type":"Point","coordinates":[43.7816709,36.2846754]}},{"type":"Feature","id":"osm-node-5685490822-graveyard","properties":{"id":"osm-node-5685490822-graveyard","name":"گۆرستانی گوندی گاینج","kind":"poi","tier":"poi_detail","priority":50.1,"context":"قەبرستان","category":"قەبرستان"},"geometry":{"type":"Point","coordinates":[43.8128254,36.3235239]}},{"type":"Feature","id":"osm-node-6817904344-graveyard","properties":{"id":"osm-node-6817904344-graveyard","name":"گۆڕستانی دارەبەن","kind":"poi","tier":"poi_detail","priority":50.1,"context":"قەبرستان","category":"قەبرستان"},"geometry":{"type":"Point","coordinates":[43.9046777,36.3079092]}},{"type":"Feature","id":"osm-node-4442895296-viewpoint","properties":{"id":"osm-node-4442895296-viewpoint","name":"گەزنە وۆرک شۆپ","kind":"poi","tier":"poi_detail","priority":50.1,"context":"شوێنی سەیران","category":"شوێنی سەیران"},"geometry":{"type":"Point","coordinates":[43.96869,36.263716]}},{"type":"Feature","id":"osm-node-8792576318-sports_shop","properties":{"id":"osm-node-8792576318-sports_shop","name":"یاریگای کەورگۆسک","kind":"poi","tier":"poi_detail","priority":50.1,"context":"فرۆشگای کەلوپەلی وەرزشی","category":"فرۆشگای کەلوپەلی وەرزشی"},"geometry":{"type":"Point","coordinates":[43.8008806,36.3433635]}},{"type":"Feature","id":"osm-node-5685490723-sports_shop","properties":{"id":"osm-node-5685490723-sports_shop","name":"یاریگای گوندی گاینج","kind":"poi","tier":"poi_detail","priority":50.1,"context":"فرۆشگای کەلوپەلی وەرزشی","category":"فرۆشگای کەلوپەلی وەرزشی"},"geometry":{"type":"Point","coordinates":[43.8119789,36.3268289]}},{"type":"Feature","id":"osm-node-7920661354-muslim","properties":{"id":"osm-node-7920661354-muslim","name":"Shahid Salahadin Mosque","kind":"poi","tier":"poi_detail","priority":50.098,"context":"مزگەوت","category":"مزگەوت"},"geometry":{"type":"Point","coordinates":[43.7910046,36.3469613]}},{"type":"Feature","id":"osm-node-7610571632-muslim","properties":{"id":"osm-node-7610571632-muslim","name":"مزکه وتی امامی حسین","kind":"poi","tier":"poi_detail","priority":50.098,"context":"مزگەوت","category":"مزگەوت"},"geometry":{"type":"Point","coordinates":[43.8941896,36.2826286]}},{"type":"Feature","id":"osm-node-5685490624-muslim","properties":{"id":"osm-node-5685490624-muslim","name":"مزگه وتی گوندی گاینج","kind":"poi","tier":"poi_detail","priority":50.098,"context":"مزگەوت","category":"مزگەوت"},"geometry":{"type":"Point","coordinates":[43.8120347,36.3238258]}},{"type":"Feature","id":"osm-node-4871522522-muslim","properties":{"id":"osm-node-4871522522-muslim","name":"مزگەوت , اللە اکبر","kind":"poi","tier":"poi_detail","priority":50.098,"context":"مزگەوت","category":"مزگەوت"},"geometry":{"type":"Point","coordinates":[43.8088026,36.3525769]}},{"type":"Feature","id":"osm-node-4873388822-muslim","properties":{"id":"osm-node-4873388822-muslim","name":"مزگەوتی الهادی","kind":"poi","tier":"poi_detail","priority":50.098,"context":"مزگەوت","category":"مزگەوت"},"geometry":{"type":"Point","coordinates":[43.8877772,36.3505706]}},{"type":"Feature","id":"osm-node-5911907887-muslim","properties":{"id":"osm-node-5911907887-muslim","name":"مزگەوتی سورچیان","kind":"poi","tier":"poi_detail","priority":50.098,"context":"مزگەوت","category":"مزگەوت"},"geometry":{"type":"Point","coordinates":[43.7996589,36.3516653]}},{"type":"Feature","id":"osm-node-7206783885-muslim_sunni","properties":{"id":"osm-node-7206783885-muslim_sunni","name":"مزگەوتی شیوەرەش","kind":"poi","tier":"poi_detail","priority":50.098,"context":"مزگەوت","category":"مزگەوت"},"geometry":{"type":"Point","coordinates":[43.8083762,36.3555245]}},{"type":"Feature","id":"osm-node-9729923114-muslim_sunni","properties":{"id":"osm-node-9729923114-muslim_sunni","name":"مزگەوتی شیوەرەش حاجی فەیسەل","kind":"poi","tier":"poi_detail","priority":50.098,"context":"مزگەوت","category":"مزگەوت"},"geometry":{"type":"Point","coordinates":[43.8265336,36.364852]}},{"type":"Feature","id":"osm-node-4723841692-muslim","properties":{"id":"osm-node-4723841692-muslim","name":"مزگەوتی مام جعفر","kind":"poi","tier":"poi_detail","priority":50.098,"context":"مزگەوت","category":"مزگەوت"},"geometry":{"type":"Point","coordinates":[43.785515,36.285457]}},{"type":"Feature","id":"osm-node-4871496221-muslim","properties":{"id":"osm-node-4871496221-muslim","name":"مزگەوتی پیشەوا شافعی","kind":"poi","tier":"poi_detail","priority":50.098,"context":"مزگەوت","category":"مزگەوت"},"geometry":{"type":"Point","coordinates":[43.8126576,36.3480298]}},{"type":"Feature","id":"osm-node-8983026722-muslim","properties":{"id":"osm-node-8983026722-muslim","name":"مزگەوتی کوشافیان","kind":"poi","tier":"poi_detail","priority":50.098,"context":"مزگەوت","category":"مزگەوت"},"geometry":{"type":"Point","coordinates":[43.7956074,36.3454551]}},{"type":"Feature","id":"osm-node-4723841693-muslim","properties":{"id":"osm-node-4723841693-muslim","name":"مزگەوتی گوندی جدیدە زاب","kind":"poi","tier":"poi_detail","priority":50.098,"context":"مزگەوت","category":"مزگەوت"},"geometry":{"type":"Point","coordinates":[43.7820187,36.2841456]}},{"type":"Feature","id":"osm-node-13713825744-bus_stop","properties":{"id":"osm-node-13713825744-bus_stop","name":"Ainkawa Bus Station","kind":"poi","tier":"poi_detail","priority":50.096,"context":"وێستگەی پاس","category":"وێستگەی پاس"},"geometry":{"type":"Point","coordinates":[43.9953582,36.270538]}},{"type":"Feature","id":"osm-node-13713825743-bus_stop","properties":{"id":"osm-node-13713825743-bus_stop","name":"Gird Jutyar","kind":"poi","tier":"poi_detail","priority":50.096,"context":"وێستگەی پاس","category":"وێستگەی پاس"},"geometry":{"type":"Point","coordinates":[43.9942636,36.2687324]}},{"type":"Feature","id":"osm-node-13713825742-bus_stop","properties":{"id":"osm-node-13713825742-bus_stop","name":"Harsham 1","kind":"poi","tier":"poi_detail","priority":50.096,"context":"وێستگەی پاس","category":"وێستگەی پاس"},"geometry":{"type":"Point","coordinates":[43.9933151,36.2591295]}},{"type":"Feature","id":"osm-node-5056726524-bus_stop","properties":{"id":"osm-node-5056726524-bus_stop","name":"ریگاێ چەمە","kind":"poi","tier":"poi_detail","priority":50.096,"context":"وێستگەی پاس","category":"وێستگەی پاس"},"geometry":{"type":"Point","coordinates":[43.8266559,36.4048828]}},{"type":"Feature","id":"osm-node-7768318785-bus_stop","properties":{"id":"osm-node-7768318785-bus_stop","name":"موقف باص کردجوتیار","kind":"poi","tier":"poi_detail","priority":50.096,"context":"وێستگەی پاس","category":"وێستگەی پاس"},"geometry":{"type":"Point","coordinates":[43.9961664,36.2706885]}},{"type":"Feature","id":"osm-node-8983019327-bus_stop","properties":{"id":"osm-node-8983019327-bus_stop","name":"کوسترەی کەورگۆسک","kind":"poi","tier":"poi_detail","priority":50.096,"context":"وێستگەی پاس","category":"وێستگەی پاس"},"geometry":{"type":"Point","coordinates":[43.8125122,36.3477933]}},{"type":"Feature","id":"osm-way-302138587-water_works","properties":{"id":"osm-way-302138587-water_works","name":"Ifraz 1 Water Treatment Plant","kind":"poi","tier":"poi_detail","priority":50.092,"context":"پاڵاوتنەوەی ئاو","category":"پاڵاوتنەوەی ئاو"},"geometry":{"type":"Point","coordinates":[43.8147162,36.4043262]}},{"type":"Feature","id":"osm-way-311761761-pitch","properties":{"id":"osm-way-311761761-pitch","name":"Soccer field of surchian","kind":"poi","tier":"poi_detail","priority":50.092,"context":"ناوەندی وەرزش","category":"ناوەندی وەرزش"},"geometry":{"type":"Point","coordinates":[43.8018072,36.3545058]}},{"type":"Feature","id":"osm-way-302138552-water_works","properties":{"id":"osm-way-302138552-water_works","name":"محطە ماء","kind":"poi","tier":"poi_detail","priority":50.092,"context":"پاڵاوتنەوەی ئاو","category":"پاڵاوتنەوەی ئاو"},"geometry":{"type":"Point","coordinates":[43.813722,36.4019138]}},{"type":"Feature","id":"osm-way-365951490-muslim","properties":{"id":"osm-way-365951490-muslim","name":"مزگهوتی شفاء","kind":"poi","tier":"poi_detail","priority":50.09,"context":"مزگەوت","category":"مزگەوت"},"geometry":{"type":"Point","coordinates":[43.9934494,36.2708267]}},{"type":"Feature","id":"osm-way-365951448-muslim_sunni","properties":{"id":"osm-way-365951448-muslim_sunni","name":"مزگهوتی گهورهی گردجوتیار","kind":"poi","tier":"poi_detail","priority":50.09,"context":"مزگەوت","category":"مزگەوت"},"geometry":{"type":"Point","coordinates":[43.9921484,36.2688638]}},{"type":"Feature","id":"osm-way-645475633-muslim","properties":{"id":"osm-way-645475633-muslim","name":"مزگەوتی نوێ دارەبەن","kind":"poi","tier":"poi_detail","priority":50.09,"context":"مزگەوت","category":"مزگەوت"},"geometry":{"type":"Point","coordinates":[43.9064446,36.3118282]}},{"type":"Feature","id":"osm-way-301977548-farmland","properties":{"id":"osm-way-301977548-farmland","name":"Centre pivot irrigation","kind":"poi","tier":"poi_detail","priority":50.045,"context":"زەوی کشتوکاڵی","category":"زەوی کشتوکاڵی"},"geometry":{"type":"Point","coordinates":[43.8547387,36.2730458]}},{"type":"Feature","id":"osm-way-303615358-farmland","properties":{"id":"osm-way-303615358-farmland","name":"Centre pivot irrigation","kind":"poi","tier":"poi_detail","priority":50.045,"context":"زەوی کشتوکاڵی","category":"زەوی کشتوکاڵی"},"geometry":{"type":"Point","coordinates":[43.8688321,36.2778097]}},{"type":"Feature","id":"osm-way-14337579-farmland","properties":{"id":"osm-way-14337579-farmland","name":"herki farm","kind":"poi","tier":"poi_detail","priority":50.045,"context":"زەوی کشتوکاڵی","category":"زەوی کشتوکاڵی"},"geometry":{"type":"Point","coordinates":[43.8574889,36.3458765]}},{"type":"Feature","id":"osm-way-686214256-farmland","properties":{"id":"osm-way-686214256-farmland","name":"محمد سید تحسین","kind":"poi","tier":"poi_detail","priority":50.045,"context":"زەوی کشتوکاڵی","category":"زەوی کشتوکاڵی"},"geometry":{"type":"Point","coordinates":[43.9047125,36.2941008]}},{"type":"Feature","id":"osm-way-684939382-farmyard","properties":{"id":"osm-way-684939382-farmyard","name":"مسعود شێخانی","kind":"poi","tier":"poi_detail","priority":50.045,"context":"کێڵگە","category":"کێڵگە"},"geometry":{"type":"Point","coordinates":[43.7779595,36.2875271]}},{"type":"Feature","id":"osm-way-951755791-building","properties":{"id":"osm-way-951755791-building","name":"KOGS","kind":"poi","tier":"poi_local","priority":64.055,"context":"بینای بازرگانی","category":"بینای بازرگانی"},"geometry":{"type":"Point","coordinates":[43.8472715,36.341675]}},{"type":"Feature","id":"osm-way-682696121-building","properties":{"id":"osm-way-682696121-building","name":"قاهار شیخانی","kind":"poi","tier":"poi_detail","priority":50.055,"context":"ماڵ","category":"ماڵ"},"geometry":{"type":"Point","coordinates":[43.7796188,36.2881796]}},{"type":"Feature","id":"osm-way-682697722-building","properties":{"id":"osm-way-682697722-building","name":"مام جبار شێخانی","kind":"poi","tier":"poi_detail","priority":50.055,"context":"ماڵ","category":"ماڵ"},"geometry":{"type":"Point","coordinates":[43.7808,36.2857784]}}]}