{"type":"FeatureCollection","features":[{"type":"Feature","id":"osm-node-2488259818","properties":{"id":"osm-node-2488259818","name":"ئاستە","kind":"village","tier":"locality","priority":300,"context":"زێبار · هەولێر","category":"گوند"},"geometry":{"type":"Point","coordinates":[44.0976797,36.8761822]}},{"type":"Feature","id":"osm-node-2488259159","properties":{"id":"osm-node-2488259159","name":"ئالکا","kind":"village","tier":"locality","priority":300,"context":"ئاکرێ · نەینەوا","category":"گوند"},"geometry":{"type":"Point","coordinates":[44.1419998,36.8269987]}},{"type":"Feature","id":"osm-node-2488259812","properties":{"id":"osm-node-2488259812","name":"ئیروان","kind":"village","tier":"locality","priority":300,"context":"ئاکرێ · نەینەوا","category":"گوند"},"geometry":{"type":"Point","coordinates":[44.1911005,36.8116276]}},{"type":"Feature","id":"osm-node-2488259191","properties":{"id":"osm-node-2488259191","name":"ئیسومەرا","kind":"village","tier":"locality","priority":300,"context":"ئاکرێ · نەینەوا","category":"گوند"},"geometry":{"type":"Point","coordinates":[44.0687832,36.8174147]}},{"type":"Feature","id":"osm-node-2482506323","properties":{"id":"osm-node-2482506323","name":"بانە","kind":"village","tier":"locality","priority":300,"context":"ڕەواندز · هەولێر","category":"گوند"},"geometry":{"type":"Point","coordinates":[44.2378089,36.9160912]}},{"type":"Feature","id":"osm-node-2488259346","properties":{"id":"osm-node-2488259346","name":"ببانا","kind":"village","tier":"locality","priority":300,"context":"زێبار · هەولێر","category":"گوند"},"geometry":{"type":"Point","coordinates":[44.04609,36.947546]}},{"type":"Feature","id":"geonames-447036","properties":{"id":"geonames-447036","name":"بشۆ","kind":"village","tier":"locality","priority":300,"context":"زێبار · هەولێر","category":"گوند"},"geometry":{"type":"Point","coordinates":[44.19212,36.9908]}},{"type":"Feature","id":"geonames-446993","properties":{"id":"geonames-446993","name":"بله","kind":"village","tier":"locality","priority":300,"context":"زێبار · هەولێر","category":"گوند"},"geometry":{"type":"Point","coordinates":[44.07555,36.86397]}},{"type":"Feature","id":"osm-node-2488259200","properties":{"id":"osm-node-2488259200","name":"بلێ","kind":"village","tier":"locality","priority":300,"context":"ئاکرێ · نەینەوا","category":"گوند"},"geometry":{"type":"Point","coordinates":[44.0651402,36.8633675]}},{"type":"Feature","id":"osm-node-2488259349","properties":{"id":"osm-node-2488259349","name":"بلەی ژێری","kind":"village","tier":"locality","priority":300,"context":"زێبار · هەولێر","category":"گوند"},"geometry":{"type":"Point","coordinates":[44.0750562,36.8671765]}},{"type":"Feature","id":"osm-node-2488259356","properties":{"id":"osm-node-2488259356","name":"بیرە کەپرا","kind":"village","tier":"locality","priority":300,"context":"ئاکرێ · نەینەوا","category":"گوند"},"geometry":{"type":"Point","coordinates":[44.0185511,36.8628792]}},{"type":"Feature","id":"osm-node-2488259368","properties":{"id":"osm-node-2488259368","name":"بیێ","kind":"village","tier":"locality","priority":300,"context":"زێبار · هەولێر","category":"گوند"},"geometry":{"type":"Point","coordinates":[44.1561213,36.9617809]}},{"type":"Feature","id":"osm-node-2488259334","properties":{"id":"osm-node-2488259334","name":"بێدارۆن","kind":"village","tier":"locality","priority":300,"context":"ڕەواندز · هەولێر","category":"گوند"},"geometry":{"type":"Point","coordinates":[44.1909826,36.888101]}},{"type":"Feature","id":"osm-node-2488259337","properties":{"id":"osm-node-2488259337","name":"بێدیال","kind":"village","tier":"locality","priority":300,"context":"زێبار · هەولێر","category":"گوند"},"geometry":{"type":"Point","coordinates":[44.1410038,36.9320488]}},{"type":"Feature","id":"osm-node-2488259348","properties":{"id":"osm-node-2488259348","name":"بێکرێس","kind":"village","tier":"locality","priority":300,"context":"ئاکرێ · نەینەوا","category":"گوند"},"geometry":{"type":"Point","coordinates":[44.2314402,36.800643]}},{"type":"Feature","id":"osm-way-862416097","properties":{"id":"osm-way-862416097","name":"بەخشاش","kind":"village","tier":"locality","priority":300,"context":"زێبار · هەولێر","category":"گوند"},"geometry":{"type":"Point","coordinates":[44.184984400028604,36.9474528]}},{"type":"Feature","id":"osm-node-2482510694","properties":{"id":"osm-node-2482510694","name":"تاتکێ","kind":"village","tier":"locality","priority":300,"context":"زێبار · هەولێر","category":"گوند"},"geometry":{"type":"Point","coordinates":[44.176503,36.975762]}},{"type":"Feature","id":"osm-node-1369221282","properties":{"id":"osm-node-1369221282","name":"تویژگێ","kind":"village","tier":"locality","priority":300,"context":"ئاکرێ · نەینەوا","category":"گوند"},"geometry":{"type":"Point","coordinates":[44.0823131,36.7683073]}},{"type":"Feature","id":"osm-node-2488259963","properties":{"id":"osm-node-2488259963","name":"خاڵونە","kind":"village","tier":"locality","priority":300,"context":"زێبار · هەولێر","category":"گوند"},"geometry":{"type":"Point","coordinates":[44.2383938,36.9715991]}},{"type":"Feature","id":"osm-node-2482510618","properties":{"id":"osm-node-2482510618","name":"دودەمەڕا","kind":"village","tier":"locality","priority":300,"context":"زێبار · هەولێر","category":"گوند"},"geometry":{"type":"Point","coordinates":[44.217216,36.9755723]}},{"type":"Feature","id":"osm-node-2488259319","properties":{"id":"osm-node-2488259319","name":"دۆرێ","kind":"village","tier":"locality","priority":300,"context":"زێبار · هەولێر","category":"گوند"},"geometry":{"type":"Point","coordinates":[44.1421118,36.9033114]}},{"type":"Feature","id":"osm-node-7798703475","properties":{"id":"osm-node-7798703475","name":"دەربوتک","kind":"village","tier":"locality","priority":300,"context":"ئاکرێ · نەینەوا","category":"گوند"},"geometry":{"type":"Point","coordinates":[44.1231706,36.8332893]}},{"type":"Feature","id":"geonames-89525","properties":{"id":"geonames-89525","name":"زرارا","kind":"village","tier":"locality","priority":300,"context":"ڕەواندز · هەولێر","category":"گوند"},"geometry":{"type":"Point","coordinates":[44.20844,36.91891]}},{"type":"Feature","id":"geonames-446989","properties":{"id":"geonames-446989","name":"زورگڤان","kind":"village","tier":"locality","priority":300,"context":"زێبار · هەولێر","category":"گوند"},"geometry":{"type":"Point","coordinates":[44.08191,36.85542]}},{"type":"Feature","id":"osm-node-2488260565","properties":{"id":"osm-node-2488260565","name":"زۆرهگڤان","kind":"village","tier":"locality","priority":300,"context":"زێبار · هەولێر","category":"گوند"},"geometry":{"type":"Point","coordinates":[44.0823694,36.8554414]}},{"type":"Feature","id":"osm-node-2488260571","properties":{"id":"osm-node-2488260571","name":"زێوە","kind":"village","tier":"locality","priority":300,"context":"ئاکرێ · نەینەوا","category":"گوند"},"geometry":{"type":"Point","coordinates":[44.034606,36.8192854]}},{"type":"Feature","id":"osm-node-2488260196","properties":{"id":"osm-node-2488260196","name":"سکا","kind":"village","tier":"locality","priority":300,"context":"ئاکرێ · نەینەوا","category":"گوند"},"geometry":{"type":"Point","coordinates":[44.177543,36.8073234]}},{"type":"Feature","id":"osm-node-2482510692","properties":{"id":"osm-node-2482510692","name":"سەرکێرێ","kind":"village","tier":"locality","priority":300,"context":"زێبار · هەولێر","category":"گوند"},"geometry":{"type":"Point","coordinates":[44.2110784,36.9740015]}},{"type":"Feature","id":"geonames-8663801","properties":{"id":"geonames-8663801","name":"سەرکەڤر","kind":"village","tier":"locality","priority":300,"context":"ئاکرێ · نەینەوا","category":"گوند"},"geometry":{"type":"Point","coordinates":[44.06336,36.85556]}},{"type":"Feature","id":"osm-node-2488260334","properties":{"id":"osm-node-2488260334","name":"سەفتێ","kind":"village","tier":"locality","priority":300,"context":"ئاکرێ · نەینەوا","category":"گوند"},"geometry":{"type":"Point","coordinates":[44.0366362,36.8416334]}},{"type":"Feature","id":"osm-node-7623953247","properties":{"id":"osm-node-7623953247","name":"سەکۆی خواروو","kind":"village","tier":"locality","priority":300,"context":"ڕەواندز · هەولێر","category":"گوند"},"geometry":{"type":"Point","coordinates":[44.2305906,36.8133943]}},{"type":"Feature","id":"geonames-8663800","properties":{"id":"geonames-8663800","name":"شانیک","kind":"village","tier":"locality","priority":300,"context":"ئاکرێ · نەینەوا","category":"گوند"},"geometry":{"type":"Point","coordinates":[44.05495,36.86234]}},{"type":"Feature","id":"osm-node-9500642519","properties":{"id":"osm-node-9500642519","name":"شانەدەر","kind":"village","tier":"locality","priority":300,"context":"ڕەواندز · هەولێر","category":"گوند"},"geometry":{"type":"Point","coordinates":[44.2456572,36.8003501]}},{"type":"Feature","id":"osm-node-2488260245","properties":{"id":"osm-node-2488260245","name":"شرێ","kind":"village","tier":"locality","priority":300,"context":"ڕەواندز · هەولێر","category":"گوند"},"geometry":{"type":"Point","coordinates":[44.1136561,36.8420897]}},{"type":"Feature","id":"geonames-7539014","properties":{"id":"geonames-7539014","name":"شیر گوسکی","kind":"village","tier":"locality","priority":300,"context":"ئاکرێ · نەینەوا","category":"گوند"},"geometry":{"type":"Point","coordinates":[44.06973,36.78039]}},{"type":"Feature","id":"osm-node-2488260326","properties":{"id":"osm-node-2488260326","name":"شیڤا گویسکێ","kind":"village","tier":"locality","priority":300,"context":"ئاکرێ · نەینەوا","category":"گوند"},"geometry":{"type":"Point","coordinates":[44.0715475,36.781374]}},{"type":"Feature","id":"geonames-446995","properties":{"id":"geonames-446995","name":"شێخان","kind":"village","tier":"locality","priority":300,"context":"زێبار · هەولێر","category":"گوند"},"geometry":{"type":"Point","coordinates":[44.0832,36.89366]}},{"type":"Feature","id":"osm-node-2488260014","properties":{"id":"osm-node-2488260014","name":"لێڕەبیر","kind":"village","tier":"locality","priority":300,"context":"ڕەواندز · هەولێر","category":"گوند"},"geometry":{"type":"Point","coordinates":[44.1820258,36.9160465]}},{"type":"Feature","id":"osm-node-1369220999","properties":{"id":"osm-node-1369220999","name":"میرگێ","kind":"village","tier":"locality","priority":300,"context":"ئاکرێ · نەینەوا","category":"گوند"},"geometry":{"type":"Point","coordinates":[44.132463,36.765362]}},{"type":"Feature","id":"osm-node-2488259744","properties":{"id":"osm-node-2488259744","name":"هۆستان","kind":"village","tier":"locality","priority":300,"context":"زێبار · هەولێر","category":"گوند"},"geometry":{"type":"Point","coordinates":[44.0865137,36.9296725]}},{"type":"Feature","id":"osm-node-2482506062","properties":{"id":"osm-node-2482506062","name":"هەسنێ","kind":"village","tier":"locality","priority":300,"context":"زێبار · هەولێر","category":"گوند"},"geometry":{"type":"Point","coordinates":[44.0321343,36.9485334]}},{"type":"Feature","id":"osm-node-2488259750","properties":{"id":"osm-node-2488259750","name":"هەڤندکا","kind":"village","tier":"locality","priority":300,"context":"زێبار · هەولێر","category":"گوند"},"geometry":{"type":"Point","coordinates":[44.012101,36.9345]}},{"type":"Feature","id":"osm-node-2488259476","properties":{"id":"osm-node-2488259476","name":"چامە","kind":"village","tier":"locality","priority":300,"context":"زێبار · هەولێر","category":"گوند"},"geometry":{"type":"Point","coordinates":[44.2278156,36.9635763]}},{"type":"Feature","id":"geonames-447282","properties":{"id":"geonames-447282","name":"ڕازیە","kind":"village","tier":"locality","priority":300,"context":"زێبار · هەولێر","category":"گوند"},"geometry":{"type":"Point","coordinates":[44.0002,36.93707]}},{"type":"Feature","id":"osm-node-2488260156","properties":{"id":"osm-node-2488260156","name":"ڕێزان","kind":"village","tier":"locality","priority":300,"context":"ڕەواندز · هەولێر","category":"گوند"},"geometry":{"type":"Point","coordinates":[44.1300647,36.8555697]}},{"type":"Feature","id":"osm-node-2488260161","properties":{"id":"osm-node-2488260161","name":"ڕەزیان","kind":"village","tier":"locality","priority":300,"context":"زێبار · هەولێر","category":"گوند"},"geometry":{"type":"Point","coordinates":[44.0071038,36.9524909]}},{"type":"Feature","id":"osm-node-12903124414","properties":{"id":"osm-node-12903124414","name":"ژیرکا","kind":"village","tier":"locality","priority":300,"context":"ئاکرێ · نەینەوا","category":"گوند"},"geometry":{"type":"Point","coordinates":[44.0441564,36.7843645]}},{"type":"Feature","id":"osm-node-2488259916","properties":{"id":"osm-node-2488259916","name":"کانی بۆت","kind":"village","tier":"locality","priority":300,"context":"زێبار · هەولێر","category":"گوند"},"geometry":{"type":"Point","coordinates":[44.1445804,36.9630039]}},{"type":"Feature","id":"osm-node-2488259925","properties":{"id":"osm-node-2488259925","name":"کانیالنجا","kind":"village","tier":"locality","priority":300,"context":"ڕەواندز · هەولێر","category":"گوند"},"geometry":{"type":"Point","coordinates":[44.2472156,36.9503608]}},{"type":"Feature","id":"osm-node-2488259920","properties":{"id":"osm-node-2488259920","name":"کانیەدێر","kind":"village","tier":"locality","priority":300,"context":"ڕەواندز · هەولێر","category":"گوند"},"geometry":{"type":"Point","coordinates":[44.1832682,36.8853013]}},{"type":"Feature","id":"osm-node-2488259951","properties":{"id":"osm-node-2488259951","name":"کوران","kind":"village","tier":"locality","priority":300,"context":"ڕەواندز · هەولێر","category":"گوند"},"geometry":{"type":"Point","coordinates":[44.2277549,36.9033408]}},{"type":"Feature","id":"osm-node-2488259903","properties":{"id":"osm-node-2488259903","name":"کولکا","kind":"village","tier":"locality","priority":300,"context":"ئاکرێ · نەینەوا","category":"گوند"},"geometry":{"type":"Point","coordinates":[44.2074103,36.7999941]}},{"type":"Feature","id":"geonames-8678314","properties":{"id":"geonames-8678314","name":"کەمپا ئەشغالێ","kind":"village","tier":"locality","priority":300,"context":"ئاکرێ · نەینەوا","category":"گوند"},"geometry":{"type":"Point","coordinates":[44.02103,36.78156]}},{"type":"Feature","id":"geonames-8663788","properties":{"id":"geonames-8663788","name":"گلاڤا","kind":"village","tier":"locality","priority":300,"context":"زێبار · هەولێر","category":"گوند"},"geometry":{"type":"Point","coordinates":[44.0805,36.86936]}},{"type":"Feature","id":"osm-node-2488259519","properties":{"id":"osm-node-2488259519","name":"دۆڵی خەلیفان","kind":"locality","tier":"locality","priority":200,"context":"زێبار · هەولێر","category":"شوێنی ناوخۆیی"},"geometry":{"type":"Point","coordinates":[44.050953,36.916315]}},{"type":"Feature","id":"osm-node-2488260210","properties":{"id":"osm-node-2488260210","name":"سرێشمه","kind":"locality","tier":"locality","priority":200,"context":"زێبار · هەولێر","category":"شوێنی ناوخۆیی"},"geometry":{"type":"Point","coordinates":[44.093056,36.910833]}},{"type":"Feature","id":"osm-natural-mountain-54ed43898bca93","properties":{"id":"osm-natural-mountain-54ed43898bca93","name":"Chiya-e Tanishana","kind":"natural","tier":"natural","priority":180,"context":"شاخ · الزيبار · هەولێر","category":"شاخ"},"geometry":{"type":"Point","coordinates":[44.19806,36.99556]}},{"type":"Feature","id":"osm-natural-forest-f45b774622abb9","properties":{"id":"osm-natural-forest-f45b774622abb9","name":"Daristan","kind":"natural","tier":"natural","priority":180,"context":"دارستان · ئاکرێ · نەینەوا","category":"دارستان"},"geometry":{"type":"Point","coordinates":[44.1424651,36.8132964]}},{"type":"Feature","id":"osm-natural-valley-f4400b5d599785","properties":{"id":"osm-natural-valley-f4400b5d599785","name":"Dore Valley","kind":"natural","tier":"natural","priority":180,"context":"دۆڵ · الزيبار · هەولێر","category":"دۆڵ"},"geometry":{"type":"Point","coordinates":[44.1301405,36.8948285]}},{"type":"Feature","id":"osm-natural-river-cd0a62c61fd939","properties":{"id":"osm-natural-river-cd0a62c61fd939","name":"Great Zab River","kind":"natural","tier":"natural","priority":180,"context":"ڕووبار · راوندوز · هەولێر","category":"ڕووبار"},"geometry":{"type":"Point","coordinates":[44.2163322,36.815506]}},{"type":"Feature","id":"osm-natural-mountain-31d2cc609b6889","properties":{"id":"osm-natural-mountain-31d2cc609b6889","name":"Jabal Astah Rash","kind":"natural","tier":"natural","priority":180,"context":"شاخ · الزيبار · هەولێر","category":"شاخ"},"geometry":{"type":"Point","coordinates":[44.13239,36.98405]}},{"type":"Feature","id":"osm-natural-mountain-bce3000004f56d","properties":{"id":"osm-natural-mountain-bce3000004f56d","name":"Jabal Bash Kahwilah","kind":"natural","tier":"natural","priority":180,"context":"شاخ · ئاکرێ · نەینەوا","category":"شاخ"},"geometry":{"type":"Point","coordinates":[44.05069,36.80207]}},{"type":"Feature","id":"osm-natural-mountain_pass-cd5c14798e588a","properties":{"id":"osm-natural-mountain_pass-cd5c14798e588a","name":"Madiq Gali Sur","kind":"natural","tier":"natural","priority":180,"context":"دەروازەی شاخ · الزيبار · هەولێر","category":"دەروازەی شاخ"},"geometry":{"type":"Point","coordinates":[44.11582,36.91385]}},{"type":"Feature","id":"osm-natural-stream-a9109c0ccc8f4d","properties":{"id":"osm-natural-stream-a9109c0ccc8f4d","name":"Ru Kuchuk","kind":"natural","tier":"natural","priority":180,"context":"جۆگە · راوندوز · هەولێر","category":"جۆگە"},"geometry":{"type":"Point","coordinates":[44.12083,36.86194]}},{"type":"Feature","id":"osm-natural-stream-79dde6f7c40988","properties":{"id":"osm-natural-stream-79dde6f7c40988","name":"Rubar Barazgird","kind":"natural","tier":"natural","priority":180,"context":"جۆگە · الزيبار · هەولێر","category":"جۆگە"},"geometry":{"type":"Point","coordinates":[44.22306,36.96]}},{"type":"Feature","id":"osm-natural-stream-9b7f8d30b0a100","properties":{"id":"osm-natural-stream-9b7f8d30b0a100","name":"Rubar-e Zarara","kind":"natural","tier":"natural","priority":180,"context":"جۆگە · الزيبار · هەولێر","category":"جۆگە"},"geometry":{"type":"Point","coordinates":[44.19056,36.94]}},{"type":"Feature","id":"osm-natural-peak-baf670a1c70609","properties":{"id":"osm-natural-peak-baf670a1c70609","name":"Sar-e-Piris","kind":"natural","tier":"natural","priority":180,"context":"لوتکە · ئاکرێ · نەینەوا","category":"لوتکە"},"geometry":{"type":"Point","coordinates":[44.01167,36.83722]}},{"type":"Feature","id":"osm-natural-stream-3f4fa42b6ac1af","properties":{"id":"osm-natural-stream-3f4fa42b6ac1af","name":"Shiu-a Valata","kind":"natural","tier":"natural","priority":180,"context":"جۆگە · راوندوز · هەولێر","category":"جۆگە"},"geometry":{"type":"Point","coordinates":[44.21667,36.95]}},{"type":"Feature","id":"osm-natural-hill-6cfa90b3e1ed94","properties":{"id":"osm-natural-hill-6cfa90b3e1ed94","name":"جبال باسكي بردينا","kind":"natural","tier":"natural","priority":180,"context":"گرد · ئاکرێ · نەینەوا","category":"گرد"},"geometry":{"type":"Point","coordinates":[44.0108,36.88232]}},{"type":"Feature","id":"osm-natural-peak-3a9dec73c568a9","properties":{"id":"osm-natural-peak-3a9dec73c568a9","name":"جبل آليت","kind":"natural","tier":"natural","priority":180,"context":"لوتکە · راوندوز · هەولێر","category":"لوتکە"},"geometry":{"type":"Point","coordinates":[44.22115,36.94711]}},{"type":"Feature","id":"osm-natural-mountain-f92d44eb7b8f88","properties":{"id":"osm-natural-mountain-f92d44eb7b8f88","name":"جبل بوكسر","kind":"natural","tier":"natural","priority":180,"context":"شاخ · ئاکرێ · نەینەوا","category":"شاخ"},"geometry":{"type":"Point","coordinates":[44.11943,36.8096]}},{"type":"Feature","id":"osm-natural-peak-b4445b635c696e","properties":{"id":"osm-natural-peak-b4445b635c696e","name":"جبل بيداران","kind":"natural","tier":"natural","priority":180,"context":"لوتکە · راوندوز · هەولێر","category":"لوتکە"},"geometry":{"type":"Point","coordinates":[44.18655,36.8631]}},{"type":"Feature","id":"osm-natural-mountain-3cf6a2a2a1d5c5","properties":{"id":"osm-natural-mountain-3cf6a2a2a1d5c5","name":"جبل داني","kind":"natural","tier":"natural","priority":180,"context":"شاخ · الزيبار · هەولێر","category":"شاخ"},"geometry":{"type":"Point","coordinates":[44.14582,36.97961]}},{"type":"Feature","id":"osm-natural-mountain-2555a31c009217","properties":{"id":"osm-natural-mountain-2555a31c009217","name":"جبل دربشك","kind":"natural","tier":"natural","priority":180,"context":"شاخ · ئاکرێ · نەینەوا","category":"شاخ"},"geometry":{"type":"Point","coordinates":[44.17983,36.76739]}},{"type":"Feature","id":"osm-natural-peak-57c58045416f0b","properties":{"id":"osm-natural-peak-57c58045416f0b","name":"جبل سر صلان","kind":"natural","tier":"natural","priority":180,"context":"لوتکە · ئاکرێ · نەینەوا","category":"لوتکە"},"geometry":{"type":"Point","coordinates":[44.01402,36.77033]}},{"type":"Feature","id":"osm-natural-peak-bf9e6fbcb09b8d","properties":{"id":"osm-natural-peak-bf9e6fbcb09b8d","name":"جبل سري روزك","kind":"natural","tier":"natural","priority":180,"context":"لوتکە · ئاکرێ · نەینەوا","category":"لوتکە"},"geometry":{"type":"Point","coordinates":[44.0526,36.82583]}},{"type":"Feature","id":"osm-natural-mountain-3a7a5110a694d8","properties":{"id":"osm-natural-mountain-3a7a5110a694d8","name":"جبل شيرين","kind":"natural","tier":"natural","priority":180,"context":"شاخ · الزيبار · هەولێر","category":"شاخ"},"geometry":{"type":"Point","coordinates":[44.03407,36.99057]}},{"type":"Feature","id":"osm-natural-mountain-fc1bfb4666cd10","properties":{"id":"osm-natural-mountain-fc1bfb4666cd10","name":"جبل كيروك","kind":"natural","tier":"natural","priority":180,"context":"شاخ · ئاکرێ · نەینەوا","category":"شاخ"},"geometry":{"type":"Point","coordinates":[44.21935,36.76624]}},{"type":"Feature","id":"osm-natural-mountain-efdcc8d1f10b01","properties":{"id":"osm-natural-mountain-efdcc8d1f10b01","name":"جبل مسر زنيق","kind":"natural","tier":"natural","priority":180,"context":"شاخ · ئاکرێ · نەینەوا","category":"شاخ"},"geometry":{"type":"Point","coordinates":[44.1098,36.77925]}},{"type":"Feature","id":"osm-natural-mountain-1539c870889ceb","properties":{"id":"osm-natural-mountain-1539c870889ceb","name":"جبل هربت","kind":"natural","tier":"natural","priority":180,"context":"شاخ · راوندوز · هەولێر","category":"شاخ"},"geometry":{"type":"Point","coordinates":[44.21428,36.93023]}},{"type":"Feature","id":"osm-natural-valley-9384e27bb262d3","properties":{"id":"osm-natural-valley-9384e27bb262d3","name":"دوله نارون","kind":"natural","tier":"natural","priority":180,"context":"دۆڵ · الزيبار · هەولێر","category":"دۆڵ"},"geometry":{"type":"Point","coordinates":[44.05026,36.91464]}},{"type":"Feature","id":"osm-natural-stream-10efc7362aaa43","properties":{"id":"osm-natural-stream-10efc7362aaa43","name":"روبار شكيف برازجير","kind":"natural","tier":"natural","priority":180,"context":"جۆگە · راوندوز · هەولێر","category":"جۆگە"},"geometry":{"type":"Point","coordinates":[44.2257808,36.946988]}},{"type":"Feature","id":"osm-natural-river-3934da0444ea89","properties":{"id":"osm-natural-river-3934da0444ea89","name":"زێی گەورە","kind":"natural","tier":"natural","priority":180,"context":"ڕووبار · الزيبار · هەولێر","category":"ڕووبار"},"geometry":{"type":"Point","coordinates":[44.0445033,36.8962485]}},{"type":"Feature","id":"osm-natural-mountain-c1e6353e1cd590","properties":{"id":"osm-natural-mountain-c1e6353e1cd590","name":"سلسلة جبال سكو","kind":"natural","tier":"natural","priority":180,"context":"شاخ · راوندوز · هەولێر","category":"شاخ"},"geometry":{"type":"Point","coordinates":[44.22252,36.84316]}},{"type":"Feature","id":"osm-natural-peak-faaedb57fe67e6","properties":{"id":"osm-natural-peak-faaedb57fe67e6","name":"قمة بيركة استرى","kind":"natural","tier":"natural","priority":180,"context":"لوتکە · الزيبار · هەولێر","category":"لوتکە"},"geometry":{"type":"Point","coordinates":[44.07268,36.96634]}},{"type":"Feature","id":"osm-natural-stream-1c71a667e7d670","properties":{"id":"osm-natural-stream-1c71a667e7d670","name":"كلي سوران","kind":"natural","tier":"natural","priority":180,"context":"جۆگە · راوندوز · هەولێر","category":"جۆگە"},"geometry":{"type":"Point","coordinates":[44.1376092,36.8747084]}},{"type":"Feature","id":"osm-natural-valley-c4a34e4f6d5365","properties":{"id":"osm-natural-valley-c4a34e4f6d5365","name":"وادي استة رش","kind":"natural","tier":"natural","priority":180,"context":"دۆڵ · الزيبار · هەولێر","category":"دۆڵ"},"geometry":{"type":"Point","coordinates":[44.1387,36.9627]}},{"type":"Feature","id":"osm-natural-valley-98fc1884a8d272","properties":{"id":"osm-natural-valley-98fc1884a8d272","name":"وادي اوستة","kind":"natural","tier":"natural","priority":180,"context":"دۆڵ · الزيبار · هەولێر","category":"دۆڵ"},"geometry":{"type":"Point","coordinates":[44.09005,36.86413]}},{"type":"Feature","id":"osm-natural-valley-2d107c92baafea","properties":{"id":"osm-natural-valley-2d107c92baafea","name":"وادي بيدارون","kind":"natural","tier":"natural","priority":180,"context":"دۆڵ · راوندوز · هەولێر","category":"دۆڵ"},"geometry":{"type":"Point","coordinates":[44.20552,36.87995]}},{"type":"Feature","id":"osm-natural-valley-f49c5bcb44f307","properties":{"id":"osm-natural-valley-f49c5bcb44f307","name":"وادي خليفان","kind":"natural","tier":"natural","priority":180,"context":"دۆڵ · الزيبار · هەولێر","category":"دۆڵ"},"geometry":{"type":"Point","coordinates":[44.05452,36.93716]}},{"type":"Feature","id":"osm-natural-valley-178175090755f5","properties":{"id":"osm-natural-valley-178175090755f5","name":"وادي دله","kind":"natural","tier":"natural","priority":180,"context":"دۆڵ · الزيبار · هەولێر","category":"دۆڵ"},"geometry":{"type":"Point","coordinates":[44.04281,36.90718]}},{"type":"Feature","id":"osm-natural-valley-c396e66dbe4d11","properties":{"id":"osm-natural-valley-c396e66dbe4d11","name":"وادي سوت","kind":"natural","tier":"natural","priority":180,"context":"دۆڵ · الزيبار · هەولێر","category":"دۆڵ"},"geometry":{"type":"Point","coordinates":[44.04752,36.91131]}},{"type":"Feature","id":"osm-natural-valley-fffeb9e71ec652","properties":{"id":"osm-natural-valley-fffeb9e71ec652","name":"وادي شيخه","kind":"natural","tier":"natural","priority":180,"context":"دۆڵ · الزيبار · هەولێر","category":"دۆڵ"},"geometry":{"type":"Point","coordinates":[44.08149,36.86453]}},{"type":"Feature","id":"osm-natural-valley-3af45639e4fe44","properties":{"id":"osm-natural-valley-3af45639e4fe44","name":"وادي كلي بكري","kind":"natural","tier":"natural","priority":180,"context":"دۆڵ · الزيبار · هەولێر","category":"دۆڵ"},"geometry":{"type":"Point","coordinates":[44.03191,36.95946]}},{"type":"Feature","id":"osm-natural-valley-a180c8e64c0e83","properties":{"id":"osm-natural-valley-a180c8e64c0e83","name":"وادي كلي بيبانة","kind":"natural","tier":"natural","priority":180,"context":"دۆڵ · الزيبار · هەولێر","category":"دۆڵ"},"geometry":{"type":"Point","coordinates":[44.01499,36.92574]}},{"type":"Feature","id":"osm-natural-valley-f0a49038e00fc4","properties":{"id":"osm-natural-valley-f0a49038e00fc4","name":"وادي كلي زريان","kind":"natural","tier":"natural","priority":180,"context":"دۆڵ · الزيبار · هەولێر","category":"دۆڵ"},"geometry":{"type":"Point","coordinates":[44.0314,36.95965]}},{"type":"Feature","id":"osm-natural-valley-2de732d694aa47","properties":{"id":"osm-natural-valley-2de732d694aa47","name":"وادي كلي كورة","kind":"natural","tier":"natural","priority":180,"context":"دۆڵ · الزيبار · هەولێر","category":"دۆڵ"},"geometry":{"type":"Point","coordinates":[44.05685,36.93165]}},{"type":"Feature","id":"osm-natural-valley-ad51e4ad0699c5","properties":{"id":"osm-natural-valley-ad51e4ad0699c5","name":"وادي كندري","kind":"natural","tier":"natural","priority":180,"context":"دۆڵ · الزيبار · هەولێر","category":"دۆڵ"},"geometry":{"type":"Point","coordinates":[44.11124,36.97607]}},{"type":"Feature","id":"osm-natural-valley-4f3fe9d2d472af","properties":{"id":"osm-natural-valley-4f3fe9d2d472af","name":"وادي كوران","kind":"natural","tier":"natural","priority":180,"context":"دۆڵ · راوندوز · هەولێر","category":"دۆڵ"},"geometry":{"type":"Point","coordinates":[44.19095,36.93953]}},{"type":"Feature","id":"osm-natural-valley-8fd39a411ae8e7","properties":{"id":"osm-natural-valley-8fd39a411ae8e7","name":"وادي كوليتا","kind":"natural","tier":"natural","priority":180,"context":"دۆڵ · ئاکرێ · نەینەوا","category":"دۆڵ"},"geometry":{"type":"Point","coordinates":[44.13236,36.80794]}},{"type":"Feature","id":"osm-natural-valley-2bf273ee5f74cc","properties":{"id":"osm-natural-valley-2bf273ee5f74cc","name":"وادي مازينه","kind":"natural","tier":"natural","priority":180,"context":"دۆڵ · راوندوز · هەولێر","category":"دۆڵ"},"geometry":{"type":"Point","coordinates":[44.22648,36.89977]}},{"type":"Feature","id":"osm-natural-valley-889a85e9bf5183","properties":{"id":"osm-natural-valley-889a85e9bf5183","name":"وادي نيريشو","kind":"natural","tier":"natural","priority":180,"context":"دۆڵ · ئاکرێ · نەینەوا","category":"دۆڵ"},"geometry":{"type":"Point","coordinates":[44.04801,36.77537]}},{"type":"Feature","id":"osm-natural-valley-b1ddeae406a2db","properties":{"id":"osm-natural-valley-b1ddeae406a2db","name":"وادي هرن","kind":"natural","tier":"natural","priority":180,"context":"دۆڵ · ئاکرێ · نەینەوا","category":"دۆڵ"},"geometry":{"type":"Point","coordinates":[44.04442,36.87604]}},{"type":"Feature","id":"osm-natural-valley-4f906eeeb8ab94","properties":{"id":"osm-natural-valley-4f906eeeb8ab94","name":"وادي هوري","kind":"natural","tier":"natural","priority":180,"context":"دۆڵ · الزيبار · هەولێر","category":"دۆڵ"},"geometry":{"type":"Point","coordinates":[44.19856,36.96644]}},{"type":"Feature","id":"osm-natural-valley-bacaf7e96a2a53","properties":{"id":"osm-natural-valley-bacaf7e96a2a53","name":"وادي ولاته","kind":"natural","tier":"natural","priority":180,"context":"دۆڵ · الزيبار · هەولێر","category":"دۆڵ"},"geometry":{"type":"Point","coordinates":[44.16499,36.99734]}},{"type":"Feature","id":"road-label-osm-way-501476304","properties":{"id":"road-label-osm-way-501476304","name":"33","kind":"road","tier":"road","priority":88,"context":"primary · الزيبار · هەولێر","category":"ڕێگا"},"geometry":{"type":"Point","coordinates":[44.101416,36.865743]}},{"type":"Feature","id":"road-label-osm-way-46948434","properties":{"id":"road-label-osm-way-46948434","name":"طريق شاندر - بلة","kind":"road","tier":"road","priority":88,"context":"primary · راوندوز · هەولێر","category":"ڕێگا"},"geometry":{"type":"Point","coordinates":[44.15974,36.835715]}},{"type":"Feature","id":"road-label-osm-way-501474841","properties":{"id":"road-label-osm-way-501474841","name":"ڕێگای بارزان","kind":"road","tier":"road","priority":88,"context":"primary · الزيبار · هەولێر","category":"ڕێگا"},"geometry":{"type":"Point","coordinates":[44.068863,36.889727]}},{"type":"Feature","id":"road-label-osm-way-959004854","properties":{"id":"road-label-osm-way-959004854","name":"83","kind":"road","tier":"road","priority":72,"context":"secondary · الزيبار · هەولێر","category":"ڕێگا"},"geometry":{"type":"Point","coordinates":[44.219146,36.975463]}},{"type":"Feature","id":"road-label-osm-way-64748984","properties":{"id":"road-label-osm-way-64748984","name":"شهقامی سۆران-مێرگهسور","kind":"road","tier":"road","priority":72,"context":"secondary · راوندوز · هەولێر","category":"ڕێگا"},"geometry":{"type":"Point","coordinates":[44.235523,36.942064]}},{"type":"Feature","id":"road-label-osm-way-868564777","properties":{"id":"road-label-osm-way-868564777","name":"شهقامی سۆران-مێرگهسور","kind":"road","tier":"road","priority":72,"context":"secondary · راوندوز · هەولێر","category":"ڕێگا"},"geometry":{"type":"Point","coordinates":[44.241109,36.899783]}},{"type":"Feature","id":"road-label-osm-way-501480219","properties":{"id":"road-label-osm-way-501480219","name":"Ble-Mergasor Road","kind":"road","tier":"road","priority":55,"context":"tertiary · راوندوز · هەولێر","category":"ڕێگا"},"geometry":{"type":"Point","coordinates":[44.241954,36.854891]}},{"type":"Feature","id":"road-label-osm-way-46948435","properties":{"id":"road-label-osm-way-46948435","name":"پرا طۆرێ","kind":"road","tier":"road","priority":55,"context":"tertiary · راوندوز · هەولێر","category":"ڕێگا"},"geometry":{"type":"Point","coordinates":[44.204197,36.818495]}},{"type":"Feature","id":"road-label-osm-way-890532482","properties":{"id":"road-label-osm-way-890532482","name":"ڕێگەی ئەشکەوتی شانەدەر","kind":"road","tier":"road","priority":55,"context":"tertiary · راوندوز · هەولێر","category":"ڕێگا"},"geometry":{"type":"Point","coordinates":[44.214752,36.831538]}},{"type":"Feature","id":"road-label-osm-way-137201707","properties":{"id":"road-label-osm-way-137201707","name":"گەلی شکەفتە","kind":"road","tier":"road","priority":55,"context":"tertiary · راوندوز · هەولێر","category":"ڕێگا"},"geometry":{"type":"Point","coordinates":[44.22211,36.824121]}},{"type":"Feature","id":"osm-node-13183895001-hospital","properties":{"id":"osm-node-13183895001-hospital","name":"Ble Health Center","kind":"poi","tier":"poi_landmark","priority":95.1,"context":"نەخۆشخانە","category":"نەخۆشخانە"},"geometry":{"type":"Point","coordinates":[44.0656768,36.86364]}},{"type":"Feature","id":"osm-node-5483304221-hospital","properties":{"id":"osm-node-5483304221-hospital","name":"دختور نادر","kind":"poi","tier":"poi_landmark","priority":95.1,"context":"نەخۆشخانە","category":"نەخۆشخانە"},"geometry":{"type":"Point","coordinates":[44.0840488,36.8553976]}},{"type":"Feature","id":"osm-node-5695825522-hospital","properties":{"id":"osm-node-5695825522-hospital","name":"نەخۆشخانەی گشتی بلە","kind":"poi","tier":"poi_landmark","priority":95.1,"context":"نەخۆشخانە","category":"نەخۆشخانە"},"geometry":{"type":"Point","coordinates":[44.0653818,36.8812298]}},{"type":"Feature","id":"osm-way-229625931-stadium","properties":{"id":"osm-way-229625931-stadium","name":"YARİGEH","kind":"poi","tier":"poi_regional","priority":76.092,"context":"یاریگا","category":"یاریگا"},"geometry":{"type":"Point","coordinates":[44.0628563,36.8661778]}},{"type":"Feature","id":"osm-node-4699651605-attraction","properties":{"id":"osm-node-4699651605-attraction","name":"ئەشکەوتی شانەدەر","kind":"poi","tier":"poi_detail","priority":50.1,"context":"شوێنی گەشتیاری","category":"شوێنی گەشتیاری"},"geometry":{"type":"Point","coordinates":[44.2191486,36.8348085]}},{"type":"Feature","id":"osm-node-11443250173-attraction","properties":{"id":"osm-node-11443250173-attraction","name":"جبل بیرز","kind":"poi","tier":"poi_detail","priority":50.1,"context":"شوێنی گەشتیاری","category":"شوێنی گەشتیاری"},"geometry":{"type":"Point","coordinates":[44.0072968,36.820889]}},{"type":"Feature","id":"osm-node-9626566497-fuel","properties":{"id":"osm-node-9626566497-fuel","name":"بهنزینخانهی رێزان","kind":"poi","tier":"poi_regional","priority":82.094,"context":"وێستگەی سووتەمەنی","category":"وێستگەی سووتەمەنی"},"geometry":{"type":"Point","coordinates":[44.1233244,36.8613227]}},{"type":"Feature","id":"osm-node-5111363038-fuel","properties":{"id":"osm-node-5111363038-fuel","name":"بەنزینخانەی ئەڤە","kind":"poi","tier":"poi_regional","priority":82.094,"context":"وێستگەی سووتەمەنی","category":"وێستگەی سووتەمەنی"},"geometry":{"type":"Point","coordinates":[44.0756761,36.8665447]}},{"type":"Feature","id":"osm-node-5091715030-fuel","properties":{"id":"osm-node-5091715030-fuel","name":"بەنزینخانەی بارزان","kind":"poi","tier":"poi_regional","priority":82.094,"context":"وێستگەی سووتەمەنی","category":"وێستگەی سووتەمەنی"},"geometry":{"type":"Point","coordinates":[44.0283481,36.9280433]}},{"type":"Feature","id":"osm-node-2485303400-police","properties":{"id":"osm-node-2485303400-police","name":"بنکەی پۆلیسی بارزان","kind":"poi","tier":"poi_regional","priority":77.1,"context":"بنکەی پۆلیس","category":"بنکەی پۆلیس"},"geometry":{"type":"Point","coordinates":[44.050836,36.924463]}},{"type":"Feature","id":"osm-node-2485303519-police","properties":{"id":"osm-node-2485303519-police","name":"مخفر شرطە ریزان","kind":"poi","tier":"poi_regional","priority":77.1,"context":"بنکەی پۆلیس","category":"بنکەی پۆلیس"},"geometry":{"type":"Point","coordinates":[44.128502,36.865037]}},{"type":"Feature","id":"osm-node-9626547874-car_dealership","properties":{"id":"osm-node-9626547874-car_dealership","name":"روونگۆر","kind":"poi","tier":"poi_regional","priority":76.1,"context":"پێشانگای ئۆتۆمبیل","category":"پێشانگای ئۆتۆمبیل"},"geometry":{"type":"Point","coordinates":[44.0516018,36.9260869]}},{"type":"Feature","id":"osm-way-862416097-residential","properties":{"id":"osm-way-862416097-residential","name":"بخشاش","kind":"poi","tier":"poi_local","priority":68.045,"context":"کۆمپاوندی نیشتەجێبوون","category":"کۆمپاوندی نیشتەجێبوون"},"geometry":{"type":"Point","coordinates":[44.1849844,36.9474528]}},{"type":"Feature","id":"osm-way-511716019-residential","properties":{"id":"osm-way-511716019-residential","name":"بلێ","kind":"poi","tier":"poi_local","priority":68.045,"context":"کۆمپاوندی نیشتەجێبوون","category":"کۆمپاوندی نیشتەجێبوون"},"geometry":{"type":"Point","coordinates":[44.0722431,36.8700867]}},{"type":"Feature","id":"osm-way-510787491-residential","properties":{"id":"osm-way-510787491-residential","name":"دۆرێ","kind":"poi","tier":"poi_local","priority":68.045,"context":"کۆمپاوندی نیشتەجێبوون","category":"کۆمپاوندی نیشتەجێبوون"},"geometry":{"type":"Point","coordinates":[44.1366348,36.9046651]}},{"type":"Feature","id":"osm-way-883290683-residential","properties":{"id":"osm-way-883290683-residential","name":"شانەدەر","kind":"poi","tier":"poi_local","priority":68.045,"context":"کۆمپاوندی نیشتەجێبوون","category":"کۆمپاوندی نیشتەجێبوون"},"geometry":{"type":"Point","coordinates":[44.2455823,36.8008806]}},{"type":"Feature","id":"osm-way-1078507406-industrial","properties":{"id":"osm-way-1078507406-industrial","name":"Rezan Substation","kind":"poi","tier":"poi_local","priority":66.045,"context":"ناوچەی پیشەسازی","category":"ناوچەی پیشەسازی"},"geometry":{"type":"Point","coordinates":[44.1339102,36.8510316]}},{"type":"Feature","id":"osm-node-8612730650-restaurant","properties":{"id":"osm-node-8612730650-restaurant","name":"Sahl Restaurant","kind":"poi","tier":"poi_detail","priority":50.1,"context":"چێشتخانە","category":"چێشتخانە"},"geometry":{"type":"Point","coordinates":[44.2145572,36.8168338]}},{"type":"Feature","id":"osm-node-5070485921-supermarket","properties":{"id":"osm-node-5070485921-supermarket","name":"hasan market","kind":"poi","tier":"poi_detail","priority":50.1,"context":"سۆپەرمارکێت","category":"سۆپەرمارکێت"},"geometry":{"type":"Point","coordinates":[44.2028982,36.9777858]}},{"type":"Feature","id":"osm-node-5070485822-supermarket","properties":{"id":"osm-node-5070485822-supermarket","name":"shvan market","kind":"poi","tier":"poi_detail","priority":50.1,"context":"سۆپەرمارکێت","category":"سۆپەرمارکێت"},"geometry":{"type":"Point","coordinates":[44.2015156,36.9803552]}},{"type":"Feature","id":"osm-node-7839534286-school","properties":{"id":"osm-node-7839534286-school","name":"بڵێی هاوڕێ","kind":"poi","tier":"poi_detail","priority":50.1,"context":"قوتابخانە","category":"قوتابخانە"},"geometry":{"type":"Point","coordinates":[44.065715,36.8639389]}},{"type":"Feature","id":"osm-node-7041269085-restaurant","properties":{"id":"osm-node-7041269085-restaurant","name":"خواردنگەی ڕوبار","kind":"poi","tier":"poi_detail","priority":50.1,"context":"چێشتخانە","category":"چێشتخانە"},"geometry":{"type":"Point","coordinates":[44.12206,36.8618104]}},{"type":"Feature","id":"osm-node-7198945285-supermarket","properties":{"id":"osm-node-7198945285-supermarket","name":"فروشگها نزار","kind":"poi","tier":"poi_detail","priority":50.1,"context":"سۆپەرمارکێت","category":"سۆپەرمارکێت"},"geometry":{"type":"Point","coordinates":[44.0344332,36.7767416]}},{"type":"Feature","id":"osm-node-10049812817-school","properties":{"id":"osm-node-10049812817-school","name":"قوتابخانا پرێسە","kind":"poi","tier":"poi_detail","priority":50.1,"context":"قوتابخانە","category":"قوتابخانە"},"geometry":{"type":"Point","coordinates":[44.0216227,36.893888]}},{"type":"Feature","id":"osm-node-6498712587-school","properties":{"id":"osm-node-6498712587-school","name":"قوتابخانەی کانیەلنج","kind":"poi","tier":"poi_detail","priority":50.1,"context":"قوتابخانە","category":"قوتابخانە"},"geometry":{"type":"Point","coordinates":[44.2473977,36.9505214]}},{"type":"Feature","id":"osm-node-5294083227-supermarket","properties":{"id":"osm-node-5294083227-supermarket","name":"مارکێتی دەرگەلی","kind":"poi","tier":"poi_detail","priority":50.1,"context":"سۆپەرمارکێت","category":"سۆپەرمارکێت"},"geometry":{"type":"Point","coordinates":[44.2290787,36.8148613]}},{"type":"Feature","id":"osm-node-7283444685-supermarket","properties":{"id":"osm-node-7283444685-supermarket","name":"نزار مارکیت","kind":"poi","tier":"poi_detail","priority":50.1,"context":"سۆپەرمارکێت","category":"سۆپەرمارکێت"},"geometry":{"type":"Point","coordinates":[44.0353685,36.7766478]}},{"type":"Feature","id":"osm-node-7159515385-clinic","properties":{"id":"osm-node-7159515385-clinic","name":"نۆرینگەی ئێواران","kind":"poi","tier":"poi_detail","priority":50.1,"context":"کلینیک","category":"کلینیک"},"geometry":{"type":"Point","coordinates":[44.0623122,36.8679874]}},{"type":"Feature","id":"osm-node-9452967805-hotel","properties":{"id":"osm-node-9452967805-hotel","name":"هۆتێلی ڕوبار","kind":"poi","tier":"poi_detail","priority":50.1,"context":"هۆتێل","category":"هۆتێل"},"geometry":{"type":"Point","coordinates":[44.122027,36.8608756]}},{"type":"Feature","id":"osm-way-1030973867-restaurant","properties":{"id":"osm-way-1030973867-restaurant","name":"REZAN RESTAURANT","kind":"poi","tier":"poi_detail","priority":50.092,"context":"چێشتخانە","category":"چێشتخانە"},"geometry":{"type":"Point","coordinates":[44.1226292,36.8640503]}},{"type":"Feature","id":"osm-way-868457638-restaurant","properties":{"id":"osm-way-868457638-restaurant","name":"چێشتخانەی ڕێزان","kind":"poi","tier":"poi_detail","priority":50.092,"context":"چێشتخانە","category":"چێشتخانە"},"geometry":{"type":"Point","coordinates":[44.1226856,36.863941]}},{"type":"Feature","id":"osm-way-659387799-building","properties":{"id":"osm-way-659387799-building","name":"قوتابخانهی زکێفی بنهرهتی","kind":"poi","tier":"poi_detail","priority":50.055,"context":"قوتابخانە","category":"قوتابخانە"},"geometry":{"type":"Point","coordinates":[44.0749332,36.8693826]}},{"type":"Feature","id":"osm-way-1339080152-commercial","properties":{"id":"osm-way-1339080152-commercial","name":"resort","kind":"poi","tier":"poi_local","priority":64.045,"context":"بینای بازرگانی","category":"بینای بازرگانی"},"geometry":{"type":"Point","coordinates":[44.1963912,36.9442591]}},{"type":"Feature","id":"osm-node-12749544002-viewpoint","properties":{"id":"osm-node-12749544002-viewpoint","name":"Ashkaftq village","kind":"poi","tier":"poi_detail","priority":50.1,"context":"شوێنی سەیران","category":"شوێنی سەیران"},"geometry":{"type":"Point","coordinates":[44.2208895,36.8249241]}},{"type":"Feature","id":"osm-node-13183953901-viewpoint","properties":{"id":"osm-node-13183953901-viewpoint","name":"Asta","kind":"poi","tier":"poi_detail","priority":50.1,"context":"شوێنی سەیران","category":"شوێنی سەیران"},"geometry":{"type":"Point","coordinates":[44.0962999,36.8735268]}},{"type":"Feature","id":"osm-node-9133053015-cafe","properties":{"id":"osm-node-9133053015-cafe","name":"Ava cafe","kind":"poi","tier":"poi_detail","priority":50.1,"context":"کافێ","category":"کافێ"},"geometry":{"type":"Point","coordinates":[44.0706247,36.8646442]}},{"type":"Feature","id":"osm-node-13183953801-viewpoint","properties":{"id":"osm-node-13183953801-viewpoint","name":"Camera","kind":"poi","tier":"poi_detail","priority":50.1,"context":"شوێنی سەیران","category":"شوێنی سەیران"},"geometry":{"type":"Point","coordinates":[44.0935671,36.8669972]}},{"type":"Feature","id":"osm-node-13183951701-viewpoint","properties":{"id":"osm-node-13183951701-viewpoint","name":"Galava","kind":"poi","tier":"poi_detail","priority":50.1,"context":"شوێنی سەیران","category":"شوێنی سەیران"},"geometry":{"type":"Point","coordinates":[44.0805533,36.8668904]}},{"type":"Feature","id":"osm-node-5070487430-computer_shop","properties":{"id":"osm-node-5070487430-computer_shop","name":"KAWAN SHOP","kind":"poi","tier":"poi_detail","priority":50.1,"context":"دوکانی کۆمپیوتەر","category":"دوکانی کۆمپیوتەر"},"geometry":{"type":"Point","coordinates":[44.2053326,36.9820066]}},{"type":"Feature","id":"osm-node-10869757805-artwork","properties":{"id":"osm-node-10869757805-artwork","name":"Kurdesh","kind":"poi","tier":"poi_detail","priority":50.1,"context":"هونەری گشتی","category":"هونەری گشتی"},"geometry":{"type":"Point","coordinates":[44.2279074,36.9642277]}},{"type":"Feature","id":"osm-node-13183833001-viewpoint","properties":{"id":"osm-node-13183833001-viewpoint","name":"Purasal","kind":"poi","tier":"poi_detail","priority":50.1,"context":"شوێنی سەیران","category":"شوێنی سەیران"},"geometry":{"type":"Point","coordinates":[44.1775819,36.8346073]}},{"type":"Feature","id":"osm-node-13183851001-viewpoint","properties":{"id":"osm-node-13183851001-viewpoint","name":"Qalatok","kind":"poi","tier":"poi_detail","priority":50.1,"context":"شوێنی سەیران","category":"شوێنی سەیران"},"geometry":{"type":"Point","coordinates":[44.1568422,36.8407749]}},{"type":"Feature","id":"osm-node-10169404356-toilet","properties":{"id":"osm-node-10169404356-toilet","name":"Shanidar Cave Toilette","kind":"poi","tier":"poi_detail","priority":50.1,"context":"ئاودەستی گشتی","category":"ئاودەستی گشتی"},"geometry":{"type":"Point","coordinates":[44.2175043,36.8324906]}},{"type":"Feature","id":"osm-node-11656222628-mobile_phone_shop","properties":{"id":"osm-node-11656222628-mobile_phone_shop","name":"barzan phone","kind":"poi","tier":"poi_detail","priority":50.1,"context":"دوکانی مۆبایل","category":"دوکانی مۆبایل"},"geometry":{"type":"Point","coordinates":[44.039055,36.928768]}},{"type":"Feature","id":"osm-node-11656222600-convenience","properties":{"id":"osm-node-11656222600-convenience","name":"markety zagrus","kind":"poi","tier":"poi_detail","priority":50.1,"context":"دوکانی نزیک","category":"دوکانی نزیک"},"geometry":{"type":"Point","coordinates":[44.068535,36.864216]}},{"type":"Feature","id":"osm-node-11656222414-mobile_phone_shop","properties":{"id":"osm-node-11656222414-mobile_phone_shop","name":"mobile saft","kind":"poi","tier":"poi_detail","priority":50.1,"context":"دوکانی مۆبایل","category":"دوکانی مۆبایل"},"geometry":{"type":"Point","coordinates":[44.065876,36.864445]}},{"type":"Feature","id":"osm-node-4682625631-doctors","properties":{"id":"osm-node-4682625631-doctors","name":"my home","kind":"poi","tier":"poi_detail","priority":50.1,"context":"ناوەندی پزیشکی","category":"ناوەندی پزیشکی"},"geometry":{"type":"Point","coordinates":[44.2060464,36.9851191]}},{"type":"Feature","id":"osm-node-11656222293-mobile_phone_shop","properties":{"id":"osm-node-11656222293-mobile_phone_shop","name":"newar phone","kind":"poi","tier":"poi_detail","priority":50.1,"context":"دوکانی مۆبایل","category":"دوکانی مۆبایل"},"geometry":{"type":"Point","coordinates":[44.040138,36.928665]}},{"type":"Feature","id":"osm-node-11656222589-department_store","properties":{"id":"osm-node-11656222589-department_store","name":"peshangay barzan","kind":"poi","tier":"poi_detail","priority":50.1,"context":"فرۆشگای گەورە","category":"فرۆشگای گەورە"},"geometry":{"type":"Point","coordinates":[44.040497,36.92886]}},{"type":"Feature","id":"osm-node-4908610321-tourist_info","properties":{"id":"osm-node-4908610321-tourist_info","name":"ئاستانگ","kind":"poi","tier":"poi_detail","priority":50.1,"context":"زانیاری گەشتیاری","category":"زانیاری گەشتیاری"},"geometry":{"type":"Point","coordinates":[44.141942,36.9925806]}},{"type":"Feature","id":"osm-node-11449808171-viewpoint","properties":{"id":"osm-node-11449808171-viewpoint","name":"جبل برس","kind":"poi","tier":"poi_detail","priority":50.1,"context":"شوێنی سەیران","category":"شوێنی سەیران"},"geometry":{"type":"Point","coordinates":[44.0053458,36.8236037]}},{"type":"Feature","id":"osm-node-7683029785-alpine_hut","properties":{"id":"osm-node-7683029785-alpine_hut","name":"جبل کانیدیر","kind":"poi","tier":"poi_detail","priority":50.1,"context":"کەپر","category":"کەپر"},"geometry":{"type":"Point","coordinates":[44.1665251,36.8744564]}},{"type":"Feature","id":"osm-node-4815372721-clothes","properties":{"id":"osm-node-4815372721-clothes","name":"درینگه ها موسا هه سنی","kind":"poi","tier":"poi_detail","priority":50.1,"context":"جلوبەرگ فرۆشی","category":"جلوبەرگ فرۆشی"},"geometry":{"type":"Point","coordinates":[44.0336756,36.9489962]}},{"type":"Feature","id":"osm-node-8794141017-castle","properties":{"id":"osm-node-8794141017-castle","name":"دەفرا هسنا","kind":"poi","tier":"poi_detail","priority":50.1,"context":"قەڵا","category":"قەڵا"},"geometry":{"type":"Point","coordinates":[44.0337302,36.776902]}},{"type":"Feature","id":"osm-node-9331643117-camp_site","properties":{"id":"osm-node-9331643117-camp_site","name":"زورەگڤان","kind":"poi","tier":"poi_detail","priority":50.1,"context":"کەمپینگ","category":"کەمپینگ"},"geometry":{"type":"Point","coordinates":[44.0770523,36.8491806]}},{"type":"Feature","id":"osm-node-6855900085-camp_site","properties":{"id":"osm-node-6855900085-camp_site","name":"زۆرەگڤان","kind":"poi","tier":"poi_detail","priority":50.1,"context":"کەمپینگ","category":"کەمپینگ"},"geometry":{"type":"Point","coordinates":[44.0777547,36.8400437]}},{"type":"Feature","id":"osm-node-11493970369-viewpoint","properties":{"id":"osm-node-11493970369-viewpoint","name":"سد .... ،سیحی","kind":"poi","tier":"poi_detail","priority":50.1,"context":"شوێنی سەیران","category":"شوێنی سەیران"},"geometry":{"type":"Point","coordinates":[44.1215018,36.862542]}},{"type":"Feature","id":"osm-node-7198946985-fast_food","properties":{"id":"osm-node-7198946985-fast_food","name":"لفا دشتی","kind":"poi","tier":"poi_detail","priority":50.1,"context":"خواردنی خێرا","category":"خواردنی خێرا"},"geometry":{"type":"Point","coordinates":[44.0344852,36.7767372]}},{"type":"Feature","id":"osm-node-2488260032-graveyard","properties":{"id":"osm-node-2488260032-graveyard","name":"مقبرە بیدارون","kind":"poi","tier":"poi_detail","priority":50.1,"context":"قەبرستان","category":"قەبرستان"},"geometry":{"type":"Point","coordinates":[44.187663,36.8890727]}},{"type":"Feature","id":"osm-node-2488260034-graveyard","properties":{"id":"osm-node-2488260034-graveyard","name":"مقبرە کوران","kind":"poi","tier":"poi_detail","priority":50.1,"context":"قەبرستان","category":"قەبرستان"},"geometry":{"type":"Point","coordinates":[44.231008,36.904377]}},{"type":"Feature","id":"osm-node-4665332402-cafe","properties":{"id":"osm-node-4665332402-cafe","name":"مه ند و كافي","kind":"poi","tier":"poi_detail","priority":50.1,"context":"کافێ","category":"کافێ"},"geometry":{"type":"Point","coordinates":[44.2018196,36.9784589]}},{"type":"Feature","id":"osm-node-9626523595-bakery","properties":{"id":"osm-node-9626523595-bakery","name":"نانهواخانهی میللهت","kind":"poi","tier":"poi_detail","priority":50.1,"context":"نانەواخانە","category":"نانەواخانە"},"geometry":{"type":"Point","coordinates":[44.013517,36.9346171]}},{"type":"Feature","id":"osm-node-9872928618-viewpoint","properties":{"id":"osm-node-9872928618-viewpoint","name":"نهر زاراه","kind":"poi","tier":"poi_detail","priority":50.1,"context":"شوێنی سەیران","category":"شوێنی سەیران"},"geometry":{"type":"Point","coordinates":[44.1944648,36.9433498]}},{"type":"Feature","id":"osm-node-5111396641-viewpoint","properties":{"id":"osm-node-5111396641-viewpoint","name":"هەناسکەی کۆن","kind":"poi","tier":"poi_detail","priority":50.1,"context":"شوێنی سەیران","category":"شوێنی سەیران"},"geometry":{"type":"Point","coordinates":[44.0519174,36.9452782]}},{"type":"Feature","id":"osm-node-5494522921-viewpoint","properties":{"id":"osm-node-5494522921-viewpoint","name":"کانی توز","kind":"poi","tier":"poi_detail","priority":50.1,"context":"شوێنی سەیران","category":"شوێنی سەیران"},"geometry":{"type":"Point","coordinates":[44.0141709,36.7821385]}},{"type":"Feature","id":"osm-node-9626547873-viewpoint","properties":{"id":"osm-node-9626547873-viewpoint","name":"کۆمهڵگای گهشتیاری بارزان","kind":"poi","tier":"poi_detail","priority":50.1,"context":"شوێنی سەیران","category":"شوێنی سەیران"},"geometry":{"type":"Point","coordinates":[44.0273457,36.9334414]}},{"type":"Feature","id":"osm-node-10049793217-guesthouse","properties":{"id":"osm-node-10049793217-guesthouse","name":"گوندێ پرێسە","kind":"poi","tier":"poi_detail","priority":50.1,"context":"میوانخانە","category":"میوانخانە"},"geometry":{"type":"Point","coordinates":[44.0174173,36.8949289]}},{"type":"Feature","id":"osm-node-2482506339-graveyard","properties":{"id":"osm-node-2482506339-graveyard","name":"گۆڕستانی بانە","kind":"poi","tier":"poi_detail","priority":50.1,"context":"قەبرستان","category":"قەبرستان"},"geometry":{"type":"Point","coordinates":[44.241944,36.915501]}},{"type":"Feature","id":"osm-node-7574933685-muslim","properties":{"id":"osm-node-7574933685-muslim","name":"Kani Lanj Mosque","kind":"poi","tier":"poi_detail","priority":50.098,"context":"مزگەوت","category":"مزگەوت"},"geometry":{"type":"Point","coordinates":[44.2481696,36.9505166]}},{"type":"Feature","id":"osm-node-9626560952-muslim_sunni","properties":{"id":"osm-node-9626560952-muslim_sunni","name":"مزگهوت","kind":"poi","tier":"poi_detail","priority":50.098,"context":"مزگەوت","category":"مزگەوت"},"geometry":{"type":"Point","coordinates":[44.0014339,36.9369679]}},{"type":"Feature","id":"osm-node-13183895002-muslim","properties":{"id":"osm-node-13183895002-muslim","name":"مزگەوتی گەورەی بلێ","kind":"poi","tier":"poi_detail","priority":50.098,"context":"مزگەوت","category":"مزگەوت"},"geometry":{"type":"Point","coordinates":[44.0647916,36.8621806]}},{"type":"Feature","id":"osm-node-10169384767-parking","properties":{"id":"osm-node-10169384767-parking","name":"Shanidar Cave Parking","kind":"poi","tier":"poi_detail","priority":50.094,"context":"پارکینگ","category":"پارکینگ"},"geometry":{"type":"Point","coordinates":[44.2181159,36.8326484]}},{"type":"Feature","id":"osm-way-1084245310-cafe","properties":{"id":"osm-way-1084245310-cafe","name":"Ciya Restaurant & Cafe","kind":"poi","tier":"poi_detail","priority":50.092,"context":"کافێ","category":"کافێ"},"geometry":{"type":"Point","coordinates":[44.1223825,36.862494]}},{"type":"Feature","id":"osm-way-229626032-pitch","properties":{"id":"osm-way-229626032-pitch","name":"YARİGA","kind":"poi","tier":"poi_detail","priority":50.092,"context":"ناوەندی وەرزش","category":"ناوەندی وەرزش"},"geometry":{"type":"Point","coordinates":[44.129891,36.852338]}},{"type":"Feature","id":"osm-way-229625675-pitch","properties":{"id":"osm-way-229625675-pitch","name":"YARİGEH","kind":"poi","tier":"poi_detail","priority":50.092,"context":"ناوەندی وەرزش","category":"ناوەندی وەرزش"},"geometry":{"type":"Point","coordinates":[44.0338816,36.9254047]}},{"type":"Feature","id":"osm-way-229625957-pitch","properties":{"id":"osm-way-229625957-pitch","name":"YARİGEH","kind":"poi","tier":"poi_detail","priority":50.092,"context":"ناوەندی وەرزش","category":"ناوەندی وەرزش"},"geometry":{"type":"Point","coordinates":[44.0604547,36.8682927]}},{"type":"Feature","id":"osm-way-501470251-graveyard","properties":{"id":"osm-way-501470251-graveyard","name":"گۆڕستانی بارزان","kind":"poi","tier":"poi_detail","priority":50.092,"context":"قەبرستان","category":"قەبرستان"},"geometry":{"type":"Point","coordinates":[44.0607606,36.9119046]}},{"type":"Feature","id":"osm-way-473887149-forest","properties":{"id":"osm-way-473887149-forest","name":"Daristan","kind":"poi","tier":"poi_detail","priority":50.045,"context":"دارستان","category":"دارستان"},"geometry":{"type":"Point","coordinates":[44.1424651,36.8132964]}},{"type":"Feature","id":"osm-way-968288127-forest","properties":{"id":"osm-way-968288127-forest","name":"دارستان","kind":"poi","tier":"poi_detail","priority":50.045,"context":"دارستان","category":"دارستان"},"geometry":{"type":"Point","coordinates":[44.1965693,36.8375585]}}]}