{"type":"FeatureCollection","features":[{"type":"Feature","id":"osm-node-2488259155","properties":{"id":"osm-node-2488259155","name":"ئالانە","kind":"village","tier":"locality","priority":300,"context":"ڕەواندز · هەولێر","category":"گوند"},"geometry":{"type":"Point","coordinates":[44.4423041,36.5438089]}},{"type":"Feature","id":"osm-node-2488259169","properties":{"id":"osm-node-2488259169","name":"ئامۆکان","kind":"village","tier":"locality","priority":300,"context":"شەقڵاوە · هەولێر","category":"گوند"},"geometry":{"type":"Point","coordinates":[44.27952,36.624712]}},{"type":"Feature","id":"osm-node-2488259185","properties":{"id":"osm-node-2488259185","name":"ئەشکەفتە","kind":"village","tier":"locality","priority":300,"context":"شەقڵاوە · هەولێر","category":"گوند"},"geometry":{"type":"Point","coordinates":[44.26547,36.6439196]}},{"type":"Feature","id":"osm-node-2488259328","properties":{"id":"osm-node-2488259328","name":"باتاس","kind":"village","tier":"locality","priority":300,"context":"شەقڵاوە · هەولێر","category":"گوند"},"geometry":{"type":"Point","coordinates":[44.3351443,36.5642002]}},{"type":"Feature","id":"geonames-97856","properties":{"id":"geonames-97856","name":"باشور","kind":"village","tier":"locality","priority":300,"context":"شەقڵاوە · هەولێر","category":"گوند"},"geometry":{"type":"Point","coordinates":[44.31011,36.51913]}},{"type":"Feature","id":"osm-node-9935487293","properties":{"id":"osm-node-9935487293","name":"باشووری بچووک","kind":"village","tier":"locality","priority":300,"context":"شەقڵاوە · هەولێر","category":"گوند"},"geometry":{"type":"Point","coordinates":[44.3104517,36.5199743]}},{"type":"Feature","id":"osm-node-2488259323","properties":{"id":"osm-node-2488259323","name":"باشووری گەورە","kind":"village","tier":"locality","priority":300,"context":"شەقڵاوە · هەولێر","category":"گوند"},"geometry":{"type":"Point","coordinates":[44.332452,36.511926]}},{"type":"Feature","id":"geonames-446758","properties":{"id":"geonames-446758","name":"بله","kind":"village","tier":"locality","priority":300,"context":"ڕەواندز · هەولێر","category":"گوند"},"geometry":{"type":"Point","coordinates":[44.49697,36.52451]}},{"type":"Feature","id":"osm-way-901513994","properties":{"id":"osm-way-901513994","name":"بلەی خواروو","kind":"village","tier":"locality","priority":300,"context":"ڕەواندز · هەولێر","category":"گوند"},"geometry":{"type":"Point","coordinates":[44.49469165327264,36.5262121]}},{"type":"Feature","id":"osm-node-2488268921","properties":{"id":"osm-node-2488268921","name":"بناوە","kind":"village","tier":"locality","priority":300,"context":"ڕەواندز · هەولێر","category":"گوند"},"geometry":{"type":"Point","coordinates":[44.473722,36.50399]}},{"type":"Feature","id":"osm-node-2488205816","properties":{"id":"osm-node-2488205816","name":"بێخاڵ","kind":"village","tier":"locality","priority":300,"context":"ڕەواندز · هەولێر","category":"گوند"},"geometry":{"type":"Point","coordinates":[44.4960493,36.6144973]}},{"type":"Feature","id":"geonames-8470548","properties":{"id":"geonames-8470548","name":"بێلینگری","kind":"village","tier":"locality","priority":300,"context":"ڕەواندز · هەولێر","category":"گوند"},"geometry":{"type":"Point","coordinates":[44.48589,36.68251]}},{"type":"Feature","id":"osm-node-2488259277","properties":{"id":"osm-node-2488259277","name":"بەرازان","kind":"village","tier":"locality","priority":300,"context":"شەقڵاوە · هەولێر","category":"گوند"},"geometry":{"type":"Point","coordinates":[44.2794804,36.5629316]}},{"type":"Feature","id":"osm-node-2488259208","properties":{"id":"osm-node-2488259208","name":"بەردە گەور","kind":"village","tier":"locality","priority":300,"context":"شەقڵاوە · هەولێر","category":"گوند"},"geometry":{"type":"Point","coordinates":[44.2937237,36.5391568]}},{"type":"Feature","id":"osm-node-2488259234","properties":{"id":"osm-node-2488259234","name":"بەنۆکە","kind":"village","tier":"locality","priority":300,"context":"شەقڵاوە · هەولێر","category":"گوند"},"geometry":{"type":"Point","coordinates":[44.3183189,36.6312534]}},{"type":"Feature","id":"osm-node-4197572405","properties":{"id":"osm-node-4197572405","name":"بەورکان","kind":"village","tier":"locality","priority":300,"context":"ڕەواندز · هەولێر","category":"گوند"},"geometry":{"type":"Point","coordinates":[44.3454332,36.6828212]}},{"type":"Feature","id":"osm-node-4487038391","properties":{"id":"osm-node-4487038391","name":"تەنگەبیر","kind":"village","tier":"locality","priority":300,"context":"شەقڵاوە · هەولێر","category":"گوند"},"geometry":{"type":"Point","coordinates":[44.2723034,36.5194703]}},{"type":"Feature","id":"geonames-446720","properties":{"id":"geonames-446720","name":"جافرەکان","kind":"village","tier":"locality","priority":300,"context":"ڕەواندز · هەولێر","category":"گوند"},"geometry":{"type":"Point","coordinates":[44.33122,36.71068]}},{"type":"Feature","id":"osm-node-2488259843","properties":{"id":"osm-node-2488259843","name":"جۆلەمێرگ","kind":"village","tier":"locality","priority":300,"context":"ڕەواندز · هەولێر","category":"گوند"},"geometry":{"type":"Point","coordinates":[44.4146944,36.5885751]}},{"type":"Feature","id":"osm-node-2488259489","properties":{"id":"osm-node-2488259489","name":"جۆنەرە","kind":"village","tier":"locality","priority":300,"context":"ڕەواندز · هەولێر","category":"گوند"},"geometry":{"type":"Point","coordinates":[44.3578733,36.6590866]}},{"type":"Feature","id":"osm-node-2488259971","properties":{"id":"osm-node-2488259971","name":"خرواتان","kind":"village","tier":"locality","priority":300,"context":"شەقڵاوە · هەولێر","category":"گوند"},"geometry":{"type":"Point","coordinates":[44.362468,36.53061]}},{"type":"Feature","id":"osm-node-7622181431","properties":{"id":"osm-node-7622181431","name":"خوشکەڵ","kind":"village","tier":"locality","priority":300,"context":"ڕەواندز · هەولێر","category":"گوند"},"geometry":{"type":"Point","coordinates":[44.4713082,36.7384763]}},{"type":"Feature","id":"osm-node-2488259955","properties":{"id":"osm-node-2488259955","name":"خەلان","kind":"village","tier":"locality","priority":300,"context":"ڕەواندز · هەولێر","category":"گوند"},"geometry":{"type":"Point","coordinates":[44.3723825,36.6772014]}},{"type":"Feature","id":"osm-node-2488269807","properties":{"id":"osm-node-2488269807","name":"خەندۆر","kind":"village","tier":"locality","priority":300,"context":"ڕەواندز · هەولێر","category":"گوند"},"geometry":{"type":"Point","coordinates":[44.4681982,36.5430091]}},{"type":"Feature","id":"osm-node-2488259512","properties":{"id":"osm-node-2488259512","name":"دۆڵە تێسوو","kind":"village","tier":"locality","priority":300,"context":"ئاکرێ · نەینەوا","category":"گوند"},"geometry":{"type":"Point","coordinates":[44.2805153,36.7066412]}},{"type":"Feature","id":"osm-way-1497937301","properties":{"id":"osm-way-1497937301","name":"دێ","kind":"village","tier":"locality","priority":300,"context":"ئاکرێ · نەینەوا","category":"گوند"},"geometry":{"type":"Point","coordinates":[44.312186429757254,36.72985985]}},{"type":"Feature","id":"osm-node-2488259500","properties":{"id":"osm-node-2488259500","name":"دەربەندۆک","kind":"village","tier":"locality","priority":300,"context":"ڕەواندز · هەولێر","category":"گوند"},"geometry":{"type":"Point","coordinates":[44.3847349,36.6556762]}},{"type":"Feature","id":"osm-node-2488259499","properties":{"id":"osm-node-2488259499","name":"دەربەندۆک","kind":"village","tier":"locality","priority":300,"context":"شەقڵاوە · هەولێر","category":"گوند"},"geometry":{"type":"Point","coordinates":[44.3112457,36.5830126]}},{"type":"Feature","id":"osm-node-2488259504","properties":{"id":"osm-node-2488259504","name":"دەشتیلۆک","kind":"village","tier":"locality","priority":300,"context":"ڕەواندز · هەولێر","category":"گوند"},"geometry":{"type":"Point","coordinates":[44.3970053,36.6194726]}},{"type":"Feature","id":"geonames-446731","properties":{"id":"geonames-446731","name":"دەشتە لۆک","kind":"village","tier":"locality","priority":300,"context":"ڕەواندز · هەولێر","category":"گوند"},"geometry":{"type":"Point","coordinates":[44.39755,36.62024]}},{"type":"Feature","id":"osm-node-2488260554","properties":{"id":"osm-node-2488260554","name":"زارگەلی","kind":"village","tier":"locality","priority":300,"context":"ڕەواندز · هەولێر","category":"گوند"},"geometry":{"type":"Point","coordinates":[44.4126998,36.6174937]}},{"type":"Feature","id":"osm-node-5111408723","properties":{"id":"osm-node-5111408723","name":"زەردەگۆم","kind":"village","tier":"locality","priority":300,"context":"ڕەواندز · هەولێر","category":"گوند"},"geometry":{"type":"Point","coordinates":[44.36272,36.72721]}},{"type":"Feature","id":"osm-node-2488260226","properties":{"id":"osm-node-2488260226","name":"ساوە","kind":"village","tier":"locality","priority":300,"context":"ئاکرێ · نەینەوا","category":"گوند"},"geometry":{"type":"Point","coordinates":[44.2985301,36.7069182]}},{"type":"Feature","id":"osm-node-3008443341","properties":{"id":"osm-node-3008443341","name":"سپیلک","kind":"village","tier":"locality","priority":300,"context":"شەقڵاوە · هەولێر","category":"گوند"},"geometry":{"type":"Point","coordinates":[44.3230408,36.6158472]}},{"type":"Feature","id":"osm-node-2488260324","properties":{"id":"osm-node-2488260324","name":"سێناوە","kind":"village","tier":"locality","priority":300,"context":"ڕەواندز · هەولێر","category":"گوند"},"geometry":{"type":"Point","coordinates":[44.3311367,36.6485999]}},{"type":"Feature","id":"geonames-7539037","properties":{"id":"geonames-7539037","name":"سەربردۆک","kind":"village","tier":"locality","priority":300,"context":"ڕەواندز · هەولێر","category":"گوند"},"geometry":{"type":"Point","coordinates":[44.33999,36.73042]}},{"type":"Feature","id":"osm-node-2480245816","properties":{"id":"osm-node-2480245816","name":"سەربەردوکە","kind":"village","tier":"locality","priority":300,"context":"ڕەواندز · هەولێر","category":"گوند"},"geometry":{"type":"Point","coordinates":[44.3396628,36.7306775]}},{"type":"Feature","id":"osm-node-10595980269","properties":{"id":"osm-node-10595980269","name":"سەردەشت","kind":"village","tier":"locality","priority":300,"context":"ڕەواندز · هەولێر","category":"گوند"},"geometry":{"type":"Point","coordinates":[44.4713462,36.7189601]}},{"type":"Feature","id":"geonames-446793","properties":{"id":"geonames-446793","name":"شۆراوا","kind":"village","tier":"locality","priority":300,"context":"ڕەواندز · هەولێر","category":"گوند"},"geometry":{"type":"Point","coordinates":[44.48351,36.69418]}},{"type":"Feature","id":"osm-node-2488259536","properties":{"id":"osm-node-2488259536","name":"فلوون","kind":"village","tier":"locality","priority":300,"context":"شەقڵاوە · هەولێر","category":"گوند"},"geometry":{"type":"Point","coordinates":[44.283095,36.609267]}},{"type":"Feature","id":"geonames-446690","properties":{"id":"geonames-446690","name":"فلۆن","kind":"village","tier":"locality","priority":300,"context":"شەقڵاوە · هەولێر","category":"گوند"},"geometry":{"type":"Point","coordinates":[44.28301,36.60931]}},{"type":"Feature","id":"osm-node-9935492650","properties":{"id":"osm-node-9935492650","name":"قاسمیە","kind":"village","tier":"locality","priority":300,"context":"شەقڵاوە · هەولێر","category":"گوند"},"geometry":{"type":"Point","coordinates":[44.3027412,36.5297381]}},{"type":"Feature","id":"osm-node-7592117070","properties":{"id":"osm-node-7592117070","name":"قەسرۆک","kind":"village","tier":"locality","priority":300,"context":"ڕەواندز · هەولێر","category":"گوند"},"geometry":{"type":"Point","coordinates":[44.3067895,36.7420492]}},{"type":"Feature","id":"osm-node-5111396644","properties":{"id":"osm-node-5111396644","name":"قەمەریان","kind":"village","tier":"locality","priority":300,"context":"ڕەواندز · هەولێر","category":"گوند"},"geometry":{"type":"Point","coordinates":[44.3405438,36.7196976]}},{"type":"Feature","id":"osm-node-2488260102","properties":{"id":"osm-node-2488260102","name":"قەڵاتە","kind":"village","tier":"locality","priority":300,"context":"ئاکرێ · نەینەوا","category":"گوند"},"geometry":{"type":"Point","coordinates":[44.284839,36.711438]}},{"type":"Feature","id":"osm-node-2488260015","properties":{"id":"osm-node-2488260015","name":"لێرەمیر","kind":"village","tier":"locality","priority":300,"context":"ڕەواندز · هەولێر","category":"گوند"},"geometry":{"type":"Point","coordinates":[44.3744544,36.6412409]}},{"type":"Feature","id":"osm-way-512453852","properties":{"id":"osm-way-512453852","name":"ماجداوە","kind":"village","tier":"locality","priority":300,"context":"ڕەواندز · هەولێر","category":"گوند"},"geometry":{"type":"Point","coordinates":[44.492098900583954,36.6698495]}},{"type":"Feature","id":"osm-node-2480245812","properties":{"id":"osm-node-2480245812","name":"ماولیان","kind":"village","tier":"locality","priority":300,"context":"ڕەواندز · هەولێر","category":"گوند"},"geometry":{"type":"Point","coordinates":[44.3403764,36.7437951]}},{"type":"Feature","id":"osm-node-2488260021","properties":{"id":"osm-node-2488260021","name":"ماڵمن","kind":"village","tier":"locality","priority":300,"context":"ئاکرێ · نەینەوا","category":"گوند"},"geometry":{"type":"Point","coordinates":[44.2977604,36.7219269]}},{"type":"Feature","id":"osm-node-2488260047","properties":{"id":"osm-node-2488260047","name":"مەرزان","kind":"village","tier":"locality","priority":300,"context":"شەقڵاوە · هەولێر","category":"گوند"},"geometry":{"type":"Point","coordinates":[44.26091,36.5214083]}},{"type":"Feature","id":"osm-node-2488260022","properties":{"id":"osm-node-2488260022","name":"مەلا موسا","kind":"village","tier":"locality","priority":300,"context":"ئاکرێ · نەینەوا","category":"گوند"},"geometry":{"type":"Point","coordinates":[44.2645923,36.7137792]}},{"type":"Feature","id":"osm-node-2488260028","properties":{"id":"osm-node-2488260028","name":"مەمدی","kind":"village","tier":"locality","priority":300,"context":"شەقڵاوە · هەولێر","category":"گوند"},"geometry":{"type":"Point","coordinates":[44.283539,36.549711]}},{"type":"Feature","id":"osm-node-8609669817","properties":{"id":"osm-node-8609669817","name":"مەولانی خواروو","kind":"village","tier":"locality","priority":300,"context":"ڕەواندز · هەولێر","category":"گوند"},"geometry":{"type":"Point","coordinates":[44.3187268,36.7302428]}},{"type":"Feature","id":"osm-node-2480245809","properties":{"id":"osm-node-2480245809","name":"هەروێ","kind":"village","tier":"locality","priority":300,"context":"ڕەواندز · هەولێر","category":"گوند"},"geometry":{"type":"Point","coordinates":[44.3165175,36.7394714]}},{"type":"Feature","id":"osm-node-5111396643","properties":{"id":"osm-node-5111396643","name":"هەنارەی خواروو","kind":"village","tier":"locality","priority":300,"context":"ڕەواندز · هەولێر","category":"گوند"},"geometry":{"type":"Point","coordinates":[44.3466076,36.6910058]}},{"type":"Feature","id":"osm-node-2488259699","properties":{"id":"osm-node-2488259699","name":"هەنارەی خواروو","kind":"village","tier":"locality","priority":300,"context":"شەقڵاوە · هەولێر","category":"گوند"},"geometry":{"type":"Point","coordinates":[44.331469,36.5687881]}},{"type":"Feature","id":"osm-node-2488259680","properties":{"id":"osm-node-2488259680","name":"هەنارەی سەروو","kind":"village","tier":"locality","priority":300,"context":"ڕەواندز · هەولێر","category":"گوند"},"geometry":{"type":"Point","coordinates":[44.3508339,36.7014002]}},{"type":"Feature","id":"osm-node-2488259687","properties":{"id":"osm-node-2488259687","name":"هەنارەی سەروو","kind":"village","tier":"locality","priority":300,"context":"شەقڵاوە · هەولێر","category":"گوند"},"geometry":{"type":"Point","coordinates":[44.3336651,36.5728792]}},{"type":"Feature","id":"osm-node-2488259357","properties":{"id":"osm-node-2488259357","name":"پەرکین","kind":"village","tier":"locality","priority":300,"context":"ڕەواندز · هەولێر","category":"گوند"},"geometry":{"type":"Point","coordinates":[44.3482284,36.6132449]}},{"type":"Feature","id":"osm-node-2488259344","properties":{"id":"osm-node-2488259344","name":"چۆم بیکی","kind":"village","tier":"locality","priority":300,"context":"ئاکرێ · نەینەوا","category":"گوند"},"geometry":{"type":"Point","coordinates":[44.29291,36.7277365]}},{"type":"Feature","id":"geonames-446704","properties":{"id":"geonames-446704","name":"ڕازگە","kind":"village","tier":"locality","priority":300,"context":"شەقڵاوە · هەولێر","category":"گوند"},"geometry":{"type":"Point","coordinates":[44.32852,36.50109]}},{"type":"Feature","id":"osm-node-7591414888","properties":{"id":"osm-node-7591414888","name":"ڕماوێژ","kind":"village","tier":"locality","priority":300,"context":"ڕەواندز · هەولێر","category":"گوند"},"geometry":{"type":"Point","coordinates":[44.4303339,36.5541532]}},{"type":"Feature","id":"osm-node-2488260162","properties":{"id":"osm-node-2488260162","name":"ڕکاوە","kind":"village","tier":"locality","priority":300,"context":"شەقڵاوە · هەولێر","category":"گوند"},"geometry":{"type":"Point","coordinates":[44.2794232,36.5839584]}},{"type":"Feature","id":"osm-node-2480245814","properties":{"id":"osm-node-2480245814","name":"ڕەشگوڵ","kind":"village","tier":"locality","priority":300,"context":"ڕەواندز · هەولێر","category":"گوند"},"geometry":{"type":"Point","coordinates":[44.3576738,36.7337242]}},{"type":"Feature","id":"geonames-91902","properties":{"id":"geonames-91902","name":"ڕەشەگۆم","kind":"village","tier":"locality","priority":300,"context":"ڕەواندز · هەولێر","category":"گوند"},"geometry":{"type":"Point","coordinates":[44.36294,36.72717]}},{"type":"Feature","id":"osm-node-5135857825","properties":{"id":"osm-node-5135857825","name":"کانی سپی","kind":"village","tier":"locality","priority":300,"context":"ڕەواندز · هەولێر","category":"گوند"},"geometry":{"type":"Point","coordinates":[44.4770186,36.7156298]}},{"type":"Feature","id":"osm-node-2488259930","properties":{"id":"osm-node-2488259930","name":"کانی وەتمان","kind":"village","tier":"locality","priority":300,"context":"ڕەواندز · هەولێر","category":"گوند"},"geometry":{"type":"Point","coordinates":[44.3753217,36.6113618]}},{"type":"Feature","id":"osm-node-2488259921","properties":{"id":"osm-node-2488259921","name":"کانی کۆلک","kind":"village","tier":"locality","priority":300,"context":"ڕەواندز · هەولێر","category":"گوند"},"geometry":{"type":"Point","coordinates":[44.3440313,36.646006]}},{"type":"Feature","id":"osm-node-7591414889","properties":{"id":"osm-node-7591414889","name":"کانیەڕەش","kind":"village","tier":"locality","priority":300,"context":"ڕەواندز · هەولێر","category":"گوند"},"geometry":{"type":"Point","coordinates":[44.4203491,36.5702862]}},{"type":"Feature","id":"osm-node-7591674031","properties":{"id":"osm-node-7591674031","name":"کنەک","kind":"village","tier":"locality","priority":300,"context":"ڕەواندز · هەولێر","category":"گوند"},"geometry":{"type":"Point","coordinates":[44.3621463,36.6705035]}},{"type":"Feature","id":"osm-node-2488259983","properties":{"id":"osm-node-2488259983","name":"کونە سیخوڕ","kind":"village","tier":"locality","priority":300,"context":"ڕەواندز · هەولێر","category":"گوند"},"geometry":{"type":"Point","coordinates":[44.3282545,36.692851]}},{"type":"Feature","id":"osm-node-7622193729","properties":{"id":"osm-node-7622193729","name":"کونەمار","kind":"village","tier":"locality","priority":300,"context":"ڕەواندز · هەولێر","category":"گوند"},"geometry":{"type":"Point","coordinates":[44.495151,36.717391]}},{"type":"Feature","id":"osm-node-2488259888","properties":{"id":"osm-node-2488259888","name":"کەلەکین","kind":"village","tier":"locality","priority":300,"context":"ڕەواندز · هەولێر","category":"گوند"},"geometry":{"type":"Point","coordinates":[44.338584,36.621577]}},{"type":"Feature","id":"geonames-8470546","properties":{"id":"geonames-8470546","name":"گرد خیوەت","kind":"village","tier":"locality","priority":300,"context":"ڕەواندز · هەولێر","category":"گوند"},"geometry":{"type":"Point","coordinates":[44.49419,36.67828]}},{"type":"Feature","id":"osm-node-8972675100","properties":{"id":"osm-node-8972675100","name":"گرد کۆک","kind":"village","tier":"locality","priority":300,"context":"ڕەواندز · هەولێر","category":"گوند"},"geometry":{"type":"Point","coordinates":[44.4551297,36.524849]}},{"type":"Feature","id":"osm-node-9522647163","properties":{"id":"osm-node-9522647163","name":"گردخێوەت","kind":"village","tier":"locality","priority":300,"context":"ڕەواندز · هەولێر","category":"گوند"},"geometry":{"type":"Point","coordinates":[44.4900738,36.6799964]}},{"type":"Feature","id":"osm-node-2488209056","properties":{"id":"osm-node-2488209056","name":"گورگە","kind":"village","tier":"locality","priority":300,"context":"ڕەواندز · هەولێر","category":"گوند"},"geometry":{"type":"Point","coordinates":[44.4570228,36.5335358]}},{"type":"Feature","id":"osm-node-2488259657","properties":{"id":"osm-node-2488259657","name":"گولەک","kind":"village","tier":"locality","priority":300,"context":"شەقڵاوە · هەولێر","category":"گوند"},"geometry":{"type":"Point","coordinates":[44.315762,36.6038672]}},{"type":"Feature","id":"osm-node-2488259143","properties":{"id":"osm-node-2488259143","name":"گوندی ئافریان","kind":"village","tier":"locality","priority":300,"context":"شەقڵاوە · هەولێر","category":"گوند"},"geometry":{"type":"Point","coordinates":[44.2910404,36.5997375]}},{"type":"Feature","id":"osm-node-2480245810","properties":{"id":"osm-node-2480245810","name":"گوندی جافرەکا","kind":"village","tier":"locality","priority":300,"context":"ڕەواندز · هەولێر","category":"گوند"},"geometry":{"type":"Point","coordinates":[44.3312945,36.7131026]}},{"type":"Feature","id":"osm-node-2488259572","properties":{"id":"osm-node-2488259572","name":"گۆڕەز","kind":"village","tier":"locality","priority":300,"context":"ڕەواندز · هەولێر","category":"گوند"},"geometry":{"type":"Point","coordinates":[44.324909,36.678795]}},{"type":"Feature","id":"osm-node-2488260543","properties":{"id":"osm-node-2488260543","name":"یەکماڵە","kind":"village","tier":"locality","priority":300,"context":"شەقڵاوە · هەولێر","category":"گوند"},"geometry":{"type":"Point","coordinates":[44.276657,36.595533]}},{"type":"Feature","id":"osm-node-2488260374","properties":{"id":"osm-node-2488260374","name":"دۆڵی بەرازان","kind":"locality","tier":"locality","priority":200,"context":"شەقڵاوە · هەولێر","category":"شوێنی ناوخۆیی"},"geometry":{"type":"Point","coordinates":[44.272803,36.559822]}},{"type":"Feature","id":"osm-node-2488259471","properties":{"id":"osm-node-2488259471","name":"چەمی شامیان","kind":"locality","tier":"locality","priority":200,"context":"شەقڵاوە · هەولێر","category":"شوێنی ناوخۆیی"},"geometry":{"type":"Point","coordinates":[44.272358,36.559673]}},{"type":"Feature","id":"osm-node-2488259459","properties":{"id":"osm-node-2488259459","name":"چەمی کانی سپیلک","kind":"locality","tier":"locality","priority":200,"context":"ڕەواندز · هەولێر","category":"شوێنی ناوخۆیی"},"geometry":{"type":"Point","coordinates":[44.4315975,36.5522799]}},{"type":"Feature","id":"osm-node-2488259542","properties":{"id":"osm-node-2488259542","name":"گەلیی عەلی بەگ","kind":"locality","tier":"locality","priority":200,"context":"ڕەواندز · هەولێر","category":"شوێنی ناوخۆیی"},"geometry":{"type":"Point","coordinates":[44.4458382,36.6317419]}},{"type":"Feature","id":"osm-node-2488259552","properties":{"id":"osm-node-2488259552","name":"گەلیی قەڵاتە","kind":"locality","tier":"locality","priority":200,"context":"شەقڵاوە · هەولێر","category":"شوێنی ناوخۆیی"},"geometry":{"type":"Point","coordinates":[44.3666239,36.5342577]}},{"type":"Feature","id":"osm-natural-valley-1ca6588d8efa04","properties":{"id":"osm-natural-valley-1ca6588d8efa04","name":"Cham-i Bila-i-Zhori","kind":"natural","tier":"natural","priority":180,"context":"دۆڵ · راوندوز · هەولێر","category":"دۆڵ"},"geometry":{"type":"Point","coordinates":[44.45139,36.53]}},{"type":"Feature","id":"osm-natural-stream-5e2c5fa1141063","properties":{"id":"osm-natural-stream-5e2c5fa1141063","name":"Cham-i Kani Nere","kind":"natural","tier":"natural","priority":180,"context":"جۆگە · شقلاوة · هەولێر","category":"جۆگە"},"geometry":{"type":"Point","coordinates":[44.32222,36.51167]}},{"type":"Feature","id":"osm-natural-mountain-a8990173a71224","properties":{"id":"osm-natural-mountain-a8990173a71224","name":"Chiya-i Abrun","kind":"natural","tier":"natural","priority":180,"context":"شاخ · راوندوز · هەولێر","category":"شاخ"},"geometry":{"type":"Point","coordinates":[44.49583,36.50528]}},{"type":"Feature","id":"osm-natural-mountain-76827bce92cde5","properties":{"id":"osm-natural-mountain-76827bce92cde5","name":"Chiya-i Harir","kind":"natural","tier":"natural","priority":180,"context":"شاخ · راوندوز · هەولێر","category":"شاخ"},"geometry":{"type":"Point","coordinates":[44.40167,36.54722]}},{"type":"Feature","id":"osm-natural-hill-7e2beafb8799b2","properties":{"id":"osm-natural-hill-7e2beafb8799b2","name":"Chiya-ye Zarawuk","kind":"natural","tier":"natural","priority":180,"context":"گرد · راوندوز · هەولێر","category":"گرد"},"geometry":{"type":"Point","coordinates":[44.45167,36.665]}},{"type":"Feature","id":"osm-natural-stream-d073c8f2bcce86","properties":{"id":"osm-natural-stream-d073c8f2bcce86","name":"Gali `Ali Bayk","kind":"natural","tier":"natural","priority":180,"context":"جۆگە · راوندوز · هەولێر","category":"جۆگە"},"geometry":{"type":"Point","coordinates":[44.4569,36.62994]}},{"type":"Feature","id":"osm-natural-mountain-7a98742b98ad46","properties":{"id":"osm-natural-mountain-7a98742b98ad46","name":"Jabal Harir Sipilk","kind":"natural","tier":"natural","priority":180,"context":"شاخ · شقلاوة · هەولێر","category":"شاخ"},"geometry":{"type":"Point","coordinates":[44.37631,36.56818]}},{"type":"Feature","id":"osm-natural-valley-8a6385748a87bb","properties":{"id":"osm-natural-valley-8a6385748a87bb","name":"Kale","kind":"natural","tier":"natural","priority":180,"context":"دۆڵ · شقلاوة · هەولێر","category":"دۆڵ"},"geometry":{"type":"Point","coordinates":[44.3215176,36.6110515]}},{"type":"Feature","id":"osm-natural-river-c28c6442cfa3bb","properties":{"id":"osm-natural-river-c28c6442cfa3bb","name":"Khalifan River","kind":"natural","tier":"natural","priority":180,"context":"ڕووبار · راوندوز · هەولێر","category":"ڕووبار"},"geometry":{"type":"Point","coordinates":[44.4357921,36.6289322]}},{"type":"Feature","id":"osm-natural-mountain_pass-0fe886ade0a6fb","properties":{"id":"osm-natural-mountain_pass-0fe886ade0a6fb","name":"Mamarr Spilik","kind":"natural","tier":"natural","priority":180,"context":"دەروازەی شاخ · راوندوز · هەولێر","category":"دەروازەی شاخ"},"geometry":{"type":"Point","coordinates":[44.33333,36.66667]}},{"type":"Feature","id":"osm-natural-stream-1d40e0d42625cb","properties":{"id":"osm-natural-stream-1d40e0d42625cb","name":"Nahr Alanah","kind":"natural","tier":"natural","priority":180,"context":"جۆگە · راوندوز · هەولێر","category":"جۆگە"},"geometry":{"type":"Point","coordinates":[44.45611,36.62972]}},{"type":"Feature","id":"osm-natural-mountain-a02c3d520cf3fd","properties":{"id":"osm-natural-mountain-a02c3d520cf3fd","name":"Qarakhan Dola","kind":"natural","tier":"natural","priority":180,"context":"شاخ · راوندوز · هەولێر","category":"شاخ"},"geometry":{"type":"Point","coordinates":[44.48306,36.54028]}},{"type":"Feature","id":"osm-natural-peak-1aedde97a6cd2b","properties":{"id":"osm-natural-peak-1aedde97a6cd2b","name":"Qimmat Garwah Biran","kind":"natural","tier":"natural","priority":180,"context":"لوتکە · راوندوز · هەولێر","category":"لوتکە"},"geometry":{"type":"Point","coordinates":[44.43949,36.67986]}},{"type":"Feature","id":"osm-natural-stream-c606e0db5fc8f2","properties":{"id":"osm-natural-stream-c606e0db5fc8f2","name":"Rubar Margasivah","kind":"natural","tier":"natural","priority":180,"context":"جۆگە · راوندوز · هەولێر","category":"جۆگە"},"geometry":{"type":"Point","coordinates":[44.45,36.73333]}},{"type":"Feature","id":"osm-natural-stream-ef37797894fdaf","properties":{"id":"osm-natural-stream-ef37797894fdaf","name":"Rubar-i Balikiyan","kind":"natural","tier":"natural","priority":180,"context":"جۆگە · راوندوز · هەولێر","category":"جۆگە"},"geometry":{"type":"Point","coordinates":[44.48694,36.63111]}},{"type":"Feature","id":"osm-natural-peak-d47d4a6afb486b","properties":{"id":"osm-natural-peak-d47d4a6afb486b","name":"Sar-i Birdoka","kind":"natural","tier":"natural","priority":180,"context":"لوتکە · راوندوز · هەولێر","category":"لوتکە"},"geometry":{"type":"Point","coordinates":[44.34806,36.73611]}},{"type":"Feature","id":"osm-natural-valley-7dbb6a5ddb3787","properties":{"id":"osm-natural-valley-7dbb6a5ddb3787","name":"Shiw-i Yaltik","kind":"natural","tier":"natural","priority":180,"context":"دۆڵ · راوندوز · هەولێر","category":"دۆڵ"},"geometry":{"type":"Point","coordinates":[44.45889,36.50583]}},{"type":"Feature","id":"osm-natural-stream-c9b18863f40b08","properties":{"id":"osm-natural-stream-c9b18863f40b08","name":"Shiwa Gali Razka","kind":"natural","tier":"natural","priority":180,"context":"جۆگە · راوندوز · هەولێر","category":"جۆگە"},"geometry":{"type":"Point","coordinates":[44.44635,36.5358]}},{"type":"Feature","id":"osm-natural-hill-b0c4cc94fe498a","properties":{"id":"osm-natural-hill-b0c4cc94fe498a","name":"Tall Sahrahwiran","kind":"natural","tier":"natural","priority":180,"context":"گرد · شقلاوة · هەولێر","category":"گرد"},"geometry":{"type":"Point","coordinates":[44.25773,36.51496]}},{"type":"Feature","id":"osm-natural-valley-21b2b0c7e640ca","properties":{"id":"osm-natural-valley-21b2b0c7e640ca","name":"Wadi Sbikahlah","kind":"natural","tier":"natural","priority":180,"context":"دۆڵ · شقلاوة · هەولێر","category":"دۆڵ"},"geometry":{"type":"Point","coordinates":[44.29395,36.56044]}},{"type":"Feature","id":"osm-natural-valley-6cc2f4179885d9","properties":{"id":"osm-natural-valley-6cc2f4179885d9","name":"Wadi Shiwa Siman Bagi","kind":"natural","tier":"natural","priority":180,"context":"دۆڵ · شقلاوة · هەولێر","category":"دۆڵ"},"geometry":{"type":"Point","coordinates":[44.37145,36.55369]}},{"type":"Feature","id":"osm-natural-river-fc28b9a277abf6","properties":{"id":"osm-natural-river-fc28b9a277abf6","name":"balakyan river","kind":"natural","tier":"natural","priority":180,"context":"ڕووبار · راوندوز · هەولێر","category":"ڕووبار"},"geometry":{"type":"Point","coordinates":[44.4444223,36.6585975]}},{"type":"Feature","id":"osm-natural-hill-5f4f7a62892d4f","properties":{"id":"osm-natural-hill-5f4f7a62892d4f","name":"تل بروجي رشكا","kind":"natural","tier":"natural","priority":180,"context":"گرد · شقلاوة · هەولێر","category":"گرد"},"geometry":{"type":"Point","coordinates":[44.39473,36.53598]}},{"type":"Feature","id":"osm-natural-hill-c0cdf443eec527","properties":{"id":"osm-natural-hill-c0cdf443eec527","name":"تل بيشت هوار","kind":"natural","tier":"natural","priority":180,"context":"گرد · شقلاوة · هەولێر","category":"گرد"},"geometry":{"type":"Point","coordinates":[44.2566,36.5742]}},{"type":"Feature","id":"osm-natural-mountain-ae65e83fdf0d7f","properties":{"id":"osm-natural-mountain-ae65e83fdf0d7f","name":"تل تلاني كروي خاندوله","kind":"natural","tier":"natural","priority":180,"context":"شاخ · راوندوز · هەولێر","category":"شاخ"},"geometry":{"type":"Point","coordinates":[44.47226,36.53788]}},{"type":"Feature","id":"osm-natural-hill-1f5685201c1afd","properties":{"id":"osm-natural-hill-1f5685201c1afd","name":"تل تيك","kind":"natural","tier":"natural","priority":180,"context":"گرد · راوندوز · هەولێر","category":"گرد"},"geometry":{"type":"Point","coordinates":[44.42436,36.58377]}},{"type":"Feature","id":"osm-natural-hill-cbe5fb9c7e5dfc","properties":{"id":"osm-natural-hill-cbe5fb9c7e5dfc","name":"تل دولي رزا","kind":"natural","tier":"natural","priority":180,"context":"گرد · راوندوز · هەولێر","category":"گرد"},"geometry":{"type":"Point","coordinates":[44.44741,36.51048]}},{"type":"Feature","id":"osm-natural-hill-fa075c7043aa6d","properties":{"id":"osm-natural-hill-fa075c7043aa6d","name":"تل رزي خرواتان","kind":"natural","tier":"natural","priority":180,"context":"گرد · شقلاوة · هەولێر","category":"گرد"},"geometry":{"type":"Point","coordinates":[44.3883,36.54015]}},{"type":"Feature","id":"osm-natural-hill-5ecf9301040c58","properties":{"id":"osm-natural-hill-5ecf9301040c58","name":"تل قلا قوله","kind":"natural","tier":"natural","priority":180,"context":"گرد · شقلاوة · هەولێر","category":"گرد"},"geometry":{"type":"Point","coordinates":[44.2597,36.53184]}},{"type":"Feature","id":"osm-natural-hill-5e06be46137bb0","properties":{"id":"osm-natural-hill-5e06be46137bb0","name":"تل كاني بيسان","kind":"natural","tier":"natural","priority":180,"context":"گرد · راوندوز · هەولێر","category":"گرد"},"geometry":{"type":"Point","coordinates":[44.46205,36.55602]}},{"type":"Feature","id":"osm-natural-hill-b1270ed2af589a","properties":{"id":"osm-natural-hill-b1270ed2af589a","name":"تل كرده بز","kind":"natural","tier":"natural","priority":180,"context":"گرد · شقلاوة · هەولێر","category":"گرد"},"geometry":{"type":"Point","coordinates":[44.26676,36.51451]}},{"type":"Feature","id":"osm-natural-hill-f69e608cce64c0","properties":{"id":"osm-natural-hill-f69e608cce64c0","name":"تل كردي اخل","kind":"natural","tier":"natural","priority":180,"context":"گرد · راوندوز · هەولێر","category":"گرد"},"geometry":{"type":"Point","coordinates":[44.43331,36.56198]}},{"type":"Feature","id":"osm-natural-hill-66e2aa1b8d3af0","properties":{"id":"osm-natural-hill-66e2aa1b8d3af0","name":"تل كردي جيا","kind":"natural","tier":"natural","priority":180,"context":"گرد · راوندوز · هەولێر","category":"گرد"},"geometry":{"type":"Point","coordinates":[44.4555,36.50468]}},{"type":"Feature","id":"osm-natural-mountain-d03ee14d00d944","properties":{"id":"osm-natural-mountain-d03ee14d00d944","name":"تل كردي ستيري","kind":"natural","tier":"natural","priority":180,"context":"شاخ · شقلاوة · هەولێر","category":"شاخ"},"geometry":{"type":"Point","coordinates":[44.39018,36.51289]}},{"type":"Feature","id":"osm-natural-hill-cf2608287af292","properties":{"id":"osm-natural-hill-cf2608287af292","name":"تل كردي قودي","kind":"natural","tier":"natural","priority":180,"context":"گرد · راوندوز · هەولێر","category":"گرد"},"geometry":{"type":"Point","coordinates":[44.48528,36.50865]}},{"type":"Feature","id":"osm-natural-hill-51dbeaa49dbb7f","properties":{"id":"osm-natural-hill-51dbeaa49dbb7f","name":"تل كردي محمود","kind":"natural","tier":"natural","priority":180,"context":"گرد · راوندوز · هەولێر","category":"گرد"},"geometry":{"type":"Point","coordinates":[44.42629,36.56854]}},{"type":"Feature","id":"osm-natural-hill-b2a81837ef4aaa","properties":{"id":"osm-natural-hill-b2a81837ef4aaa","name":"تل كوران جقل","kind":"natural","tier":"natural","priority":180,"context":"گرد · راوندوز · هەولێر","category":"گرد"},"geometry":{"type":"Point","coordinates":[44.42293,36.57984]}},{"type":"Feature","id":"osm-natural-mountain-5bb6c8f3ace7a3","properties":{"id":"osm-natural-mountain-5bb6c8f3ace7a3","name":"تل كورباشيلان","kind":"natural","tier":"natural","priority":180,"context":"شاخ · راوندوز · هەولێر","category":"شاخ"},"geometry":{"type":"Point","coordinates":[44.41655,36.52829]}},{"type":"Feature","id":"osm-natural-mountain-14736a2eec5ae9","properties":{"id":"osm-natural-mountain-14736a2eec5ae9","name":"جبل بالكيان","kind":"natural","tier":"natural","priority":180,"context":"شاخ · راوندوز · هەولێر","category":"شاخ"},"geometry":{"type":"Point","coordinates":[44.44989,36.65766]}},{"type":"Feature","id":"osm-natural-mountain-4a34c0119b5612","properties":{"id":"osm-natural-mountain-4a34c0119b5612","name":"جبل برادوست","kind":"natural","tier":"natural","priority":180,"context":"شاخ · راوندوز · هەولێر","category":"شاخ"},"geometry":{"type":"Point","coordinates":[44.39033,36.73601]}},{"type":"Feature","id":"osm-natural-mountain-8e6bd9a307ca0a","properties":{"id":"osm-natural-mountain-8e6bd9a307ca0a","name":"جبل كورك","kind":"natural","tier":"natural","priority":180,"context":"شاخ · راوندوز · هەولێر","category":"شاخ"},"geometry":{"type":"Point","coordinates":[44.46124,36.58854]}},{"type":"Feature","id":"osm-natural-mountain-70e00a6e8b4c75","properties":{"id":"osm-natural-mountain-70e00a6e8b4c75","name":"جبل ماله موس","kind":"natural","tier":"natural","priority":180,"context":"شاخ · ئاکرێ · نەینەوا","category":"شاخ"},"geometry":{"type":"Point","coordinates":[44.25031,36.68586]}},{"type":"Feature","id":"osm-natural-stream-d00653ce0febfe","properties":{"id":"osm-natural-stream-d00653ce0febfe","name":"روباري بوكني","kind":"natural","tier":"natural","priority":180,"context":"جۆگە · راوندوز · هەولێر","category":"جۆگە"},"geometry":{"type":"Point","coordinates":[44.48714,36.63154]}},{"type":"Feature","id":"osm-natural-forest-717ba224b9c1d9","properties":{"id":"osm-natural-forest-717ba224b9c1d9","name":"سپیندارەکانی خەلیفان","kind":"natural","tier":"natural","priority":180,"context":"دارستان · راوندوز · هەولێر","category":"دارستان"},"geometry":{"type":"Point","coordinates":[44.426487,36.5596029]}},{"type":"Feature","id":"osm-natural-peak-073f863c18b478","properties":{"id":"osm-natural-peak-073f863c18b478","name":"قمة بيجن","kind":"natural","tier":"natural","priority":180,"context":"لوتکە · راوندوز · هەولێر","category":"لوتکە"},"geometry":{"type":"Point","coordinates":[44.47949,36.56549]}},{"type":"Feature","id":"osm-natural-peak-9360641892bdb0","properties":{"id":"osm-natural-peak-9360641892bdb0","name":"قمة قلاه كتك","kind":"natural","tier":"natural","priority":180,"context":"لوتکە · راوندوز · هەولێر","category":"لوتکە"},"geometry":{"type":"Point","coordinates":[44.47351,36.55568]}},{"type":"Feature","id":"osm-natural-peak-5896ec14ce616d","properties":{"id":"osm-natural-peak-5896ec14ce616d","name":"قمة قوجي ھارمندان","kind":"natural","tier":"natural","priority":180,"context":"لوتکە · شقلاوة · هەولێر","category":"لوتکە"},"geometry":{"type":"Point","coordinates":[44.25477,36.58587]}},{"type":"Feature","id":"osm-natural-peak-b0bde9657fc37e","properties":{"id":"osm-natural-peak-b0bde9657fc37e","name":"قمة كورك","kind":"natural","tier":"natural","priority":180,"context":"لوتکە · راوندوز · هەولێر","category":"لوتکە"},"geometry":{"type":"Point","coordinates":[44.46641,36.59444]}},{"type":"Feature","id":"osm-natural-peak-7dbdcc250bc7a4","properties":{"id":"osm-natural-peak-7dbdcc250bc7a4","name":"قمة كومي حدن","kind":"natural","tier":"natural","priority":180,"context":"لوتکە · راوندوز · هەولێر","category":"لوتکە"},"geometry":{"type":"Point","coordinates":[44.39939,36.54881]}},{"type":"Feature","id":"osm-natural-peak-4dd24b13fb10ab","properties":{"id":"osm-natural-peak-4dd24b13fb10ab","name":"قمة كومي كني بيور","kind":"natural","tier":"natural","priority":180,"context":"لوتکە · راوندوز · هەولێر","category":"لوتکە"},"geometry":{"type":"Point","coordinates":[44.42417,36.50292]}},{"type":"Feature","id":"osm-natural-stream-11ead39fa078d3","properties":{"id":"osm-natural-stream-11ead39fa078d3","name":"كلي جيوي","kind":"natural","tier":"natural","priority":180,"context":"جۆگە · راوندوز · هەولێر","category":"جۆگە"},"geometry":{"type":"Point","coordinates":[44.473075,36.7163941]}},{"type":"Feature","id":"osm-natural-stream-0bfd9ce18f65f1","properties":{"id":"osm-natural-stream-0bfd9ce18f65f1","name":"كلي خلان","kind":"natural","tier":"natural","priority":180,"context":"جۆگە · راوندوز · هەولێر","category":"جۆگە"},"geometry":{"type":"Point","coordinates":[44.3625033,36.6791107]}},{"type":"Feature","id":"osm-natural-stream-c1c717d79b3a3e","properties":{"id":"osm-natural-stream-c1c717d79b3a3e","name":"كندي خاتون اغا","kind":"natural","tier":"natural","priority":180,"context":"جۆگە · راوندوز · هەولێر","category":"جۆگە"},"geometry":{"type":"Point","coordinates":[44.49728,36.68293]}},{"type":"Feature","id":"osm-natural-valley-1532e9cdad457d","properties":{"id":"osm-natural-valley-1532e9cdad457d","name":"كندي قولنا","kind":"natural","tier":"natural","priority":180,"context":"دۆڵ · راوندوز · هەولێر","category":"دۆڵ"},"geometry":{"type":"Point","coordinates":[44.49593,36.6948]}},{"type":"Feature","id":"osm-natural-stream-208dcfd794a700","properties":{"id":"osm-natural-stream-208dcfd794a700","name":"نهر رواندز","kind":"natural","tier":"natural","priority":180,"context":"جۆگە · ئاکرێ · نەینەوا","category":"جۆگە"},"geometry":{"type":"Point","coordinates":[44.2905906,36.7163439]}},{"type":"Feature","id":"osm-natural-stream-3659c1ff099ea5","properties":{"id":"osm-natural-stream-3659c1ff099ea5","name":"نهر زي","kind":"natural","tier":"natural","priority":180,"context":"جۆگە · راوندوز · هەولێر","category":"جۆگە"},"geometry":{"type":"Point","coordinates":[44.40198,36.67385]}},{"type":"Feature","id":"osm-natural-valley-b4ec3604b09e95","properties":{"id":"osm-natural-valley-b4ec3604b09e95","name":"وادي برازان","kind":"natural","tier":"natural","priority":180,"context":"دۆڵ · شقلاوة · هەولێر","category":"دۆڵ"},"geometry":{"type":"Point","coordinates":[44.27031,36.56358]}},{"type":"Feature","id":"osm-natural-valley-33f5b151b4d870","properties":{"id":"osm-natural-valley-33f5b151b4d870","name":"وادي بروشوك","kind":"natural","tier":"natural","priority":180,"context":"دۆڵ · راوندوز · هەولێر","category":"دۆڵ"},"geometry":{"type":"Point","coordinates":[44.49047,36.71334]}},{"type":"Feature","id":"osm-natural-valley-21de7f34b3b0ec","properties":{"id":"osm-natural-valley-21de7f34b3b0ec","name":"وادي جمه رهش","kind":"natural","tier":"natural","priority":180,"context":"دۆڵ · شقلاوة · هەولێر","category":"دۆڵ"},"geometry":{"type":"Point","coordinates":[44.3365,36.5092]}},{"type":"Feature","id":"osm-natural-valley-108542a09955d9","properties":{"id":"osm-natural-valley-108542a09955d9","name":"وادي خان دوله","kind":"natural","tier":"natural","priority":180,"context":"دۆڵ · راوندوز · هەولێر","category":"دۆڵ"},"geometry":{"type":"Point","coordinates":[44.4584,36.53266]}},{"type":"Feature","id":"osm-natural-valley-89cdd35093d1ac","properties":{"id":"osm-natural-valley-89cdd35093d1ac","name":"وادي دربندوك","kind":"natural","tier":"natural","priority":180,"context":"دۆڵ · شقلاوة · هەولێر","category":"دۆڵ"},"geometry":{"type":"Point","coordinates":[44.2833,36.5834]}},{"type":"Feature","id":"osm-natural-valley-8a52bca65b2909","properties":{"id":"osm-natural-valley-8a52bca65b2909","name":"وادي شاميان","kind":"natural","tier":"natural","priority":180,"context":"دۆڵ · شقلاوة · هەولێر","category":"دۆڵ"},"geometry":{"type":"Point","coordinates":[44.27283,36.55814]}},{"type":"Feature","id":"osm-natural-valley-6687e07d910dff","properties":{"id":"osm-natural-valley-6687e07d910dff","name":"وادي شيو اكراصور","kind":"natural","tier":"natural","priority":180,"context":"دۆڵ · راوندوز · هەولێر","category":"دۆڵ"},"geometry":{"type":"Point","coordinates":[44.45315,36.51037]}},{"type":"Feature","id":"osm-natural-valley-78d0ee5cdeeed1","properties":{"id":"osm-natural-valley-78d0ee5cdeeed1","name":"وادي شيو اكراقره حول","kind":"natural","tier":"natural","priority":180,"context":"دۆڵ · راوندوز · هەولێر","category":"دۆڵ"},"geometry":{"type":"Point","coordinates":[44.44721,36.51515]}},{"type":"Feature","id":"osm-natural-valley-64efb77e8ddd5f","properties":{"id":"osm-natural-valley-64efb77e8ddd5f","name":"وادي شيو اكراكورتكا","kind":"natural","tier":"natural","priority":180,"context":"دۆڵ · راوندوز · هەولێر","category":"دۆڵ"},"geometry":{"type":"Point","coordinates":[44.44835,36.52567]}},{"type":"Feature","id":"osm-natural-valley-013d4e1ed4110e","properties":{"id":"osm-natural-valley-013d4e1ed4110e","name":"وادي شيو ايلنك","kind":"natural","tier":"natural","priority":180,"context":"دۆڵ · راوندوز · هەولێر","category":"دۆڵ"},"geometry":{"type":"Point","coordinates":[44.46773,36.50619]}},{"type":"Feature","id":"osm-natural-valley-1fd21f3857c95a","properties":{"id":"osm-natural-valley-1fd21f3857c95a","name":"وادي شيوا بيرك","kind":"natural","tier":"natural","priority":180,"context":"دۆڵ · راوندوز · هەولێر","category":"دۆڵ"},"geometry":{"type":"Point","coordinates":[44.41018,36.58486]}},{"type":"Feature","id":"osm-natural-valley-120e6a2a76a0eb","properties":{"id":"osm-natural-valley-120e6a2a76a0eb","name":"وادي شيوا كر صور","kind":"natural","tier":"natural","priority":180,"context":"دۆڵ · راوندوز · هەولێر","category":"دۆڵ"},"geometry":{"type":"Point","coordinates":[44.39713,36.58441]}},{"type":"Feature","id":"osm-natural-valley-19c6a80eb8b93e","properties":{"id":"osm-natural-valley-19c6a80eb8b93e","name":"وادي شيوه جولميرك","kind":"natural","tier":"natural","priority":180,"context":"دۆڵ · راوندوز · هەولێر","category":"دۆڵ"},"geometry":{"type":"Point","coordinates":[44.41912,36.56451]}},{"type":"Feature","id":"osm-natural-valley-476f44ee4a385b","properties":{"id":"osm-natural-valley-476f44ee4a385b","name":"وادي شيوي الاسي","kind":"natural","tier":"natural","priority":180,"context":"دۆڵ · راوندوز · هەولێر","category":"دۆڵ"},"geometry":{"type":"Point","coordinates":[44.45651,36.51441]}},{"type":"Feature","id":"osm-natural-valley-57531599e5c127","properties":{"id":"osm-natural-valley-57531599e5c127","name":"وادي شيوي بيوي","kind":"natural","tier":"natural","priority":180,"context":"دۆڵ · راوندوز · هەولێر","category":"دۆڵ"},"geometry":{"type":"Point","coordinates":[44.45437,36.5216]}},{"type":"Feature","id":"osm-natural-valley-c1517c1d89f31f","properties":{"id":"osm-natural-valley-c1517c1d89f31f","name":"وادي شيوي سر كاني","kind":"natural","tier":"natural","priority":180,"context":"دۆڵ · راوندوز · هەولێر","category":"دۆڵ"},"geometry":{"type":"Point","coordinates":[44.454,36.51955]}},{"type":"Feature","id":"osm-natural-valley-df89da81f2ddcb","properties":{"id":"osm-natural-valley-df89da81f2ddcb","name":"وادي شيوي شكفت","kind":"natural","tier":"natural","priority":180,"context":"دۆڵ · راوندوز · هەولێر","category":"دۆڵ"},"geometry":{"type":"Point","coordinates":[44.43124,36.55855]}},{"type":"Feature","id":"osm-natural-valley-3d4065cafa5ff0","properties":{"id":"osm-natural-valley-3d4065cafa5ff0","name":"وادي شيوي فشك","kind":"natural","tier":"natural","priority":180,"context":"دۆڵ · راوندوز · هەولێر","category":"دۆڵ"},"geometry":{"type":"Point","coordinates":[44.41749,36.57143]}},{"type":"Feature","id":"osm-natural-valley-6d1b8262b783ee","properties":{"id":"osm-natural-valley-6d1b8262b783ee","name":"وادي شيوي كاكو","kind":"natural","tier":"natural","priority":180,"context":"دۆڵ · راوندوز · هەولێر","category":"دۆڵ"},"geometry":{"type":"Point","coordinates":[44.46793,36.50667]}},{"type":"Feature","id":"osm-natural-valley-0042580b8ba6b5","properties":{"id":"osm-natural-valley-0042580b8ba6b5","name":"وادي شيوي كراميران","kind":"natural","tier":"natural","priority":180,"context":"دۆڵ · راوندوز · هەولێر","category":"دۆڵ"},"geometry":{"type":"Point","coordinates":[44.43281,36.54908]}},{"type":"Feature","id":"osm-natural-valley-87af418077c653","properties":{"id":"osm-natural-valley-87af418077c653","name":"وادي شيوي كني صور","kind":"natural","tier":"natural","priority":180,"context":"دۆڵ · راوندوز · هەولێر","category":"دۆڵ"},"geometry":{"type":"Point","coordinates":[44.41376,36.57081]}},{"type":"Feature","id":"osm-natural-valley-4797cb6e636ae0","properties":{"id":"osm-natural-valley-4797cb6e636ae0","name":"وادي عمر ولي","kind":"natural","tier":"natural","priority":180,"context":"دۆڵ · راوندوز · هەولێر","category":"دۆڵ"},"geometry":{"type":"Point","coordinates":[44.39764,36.58084]}},{"type":"Feature","id":"osm-natural-valley-5c5c62cda73441","properties":{"id":"osm-natural-valley-5c5c62cda73441","name":"وادي كاني سبيلك","kind":"natural","tier":"natural","priority":180,"context":"دۆڵ · راوندوز · هەولێر","category":"دۆڵ"},"geometry":{"type":"Point","coordinates":[44.43172,36.55072]}},{"type":"Feature","id":"osm-natural-valley-abec5fb90b7a09","properties":{"id":"osm-natural-valley-abec5fb90b7a09","name":"وادي كاني نيريا","kind":"natural","tier":"natural","priority":180,"context":"دۆڵ · شقلاوة · هەولێر","category":"دۆڵ"},"geometry":{"type":"Point","coordinates":[44.37647,36.50139]}},{"type":"Feature","id":"osm-natural-valley-91c3c23c62d7ae","properties":{"id":"osm-natural-valley-91c3c23c62d7ae","name":"وادي كلي الانا","kind":"natural","tier":"natural","priority":180,"context":"دۆڵ · راوندوز · هەولێر","category":"دۆڵ"},"geometry":{"type":"Point","coordinates":[44.4372,36.54174]}},{"type":"Feature","id":"osm-natural-valley-ec40b075c3f582","properties":{"id":"osm-natural-valley-ec40b075c3f582","name":"وادي كلي بله","kind":"natural","tier":"natural","priority":180,"context":"دۆڵ · راوندوز · هەولێر","category":"دۆڵ"},"geometry":{"type":"Point","coordinates":[44.45883,36.53225]}},{"type":"Feature","id":"osm-natural-valley-9c5f777f309fe1","properties":{"id":"osm-natural-valley-9c5f777f309fe1","name":"وادي كلي درشا","kind":"natural","tier":"natural","priority":180,"context":"دۆڵ · راوندوز · هەولێر","category":"دۆڵ"},"geometry":{"type":"Point","coordinates":[44.40358,36.57872]}},{"type":"Feature","id":"osm-natural-valley-41c7f06cb3bc9a","properties":{"id":"osm-natural-valley-41c7f06cb3bc9a","name":"وادي كلي ريماويج","kind":"natural","tier":"natural","priority":180,"context":"دۆڵ · راوندوز · هەولێر","category":"دۆڵ"},"geometry":{"type":"Point","coordinates":[44.43151,36.55467]}},{"type":"Feature","id":"osm-natural-valley-d59dea5047697f","properties":{"id":"osm-natural-valley-d59dea5047697f","name":"وادي كلي سومرات","kind":"natural","tier":"natural","priority":180,"context":"دۆڵ · شقلاوة · هەولێر","category":"دۆڵ"},"geometry":{"type":"Point","coordinates":[44.37896,36.52418]}},{"type":"Feature","id":"osm-natural-valley-b96f83c49a2348","properties":{"id":"osm-natural-valley-b96f83c49a2348","name":"وادي كلي شنبوا","kind":"natural","tier":"natural","priority":180,"context":"دۆڵ · راوندوز · هەولێر","category":"دۆڵ"},"geometry":{"type":"Point","coordinates":[44.44069,36.54122]}},{"type":"Feature","id":"osm-natural-valley-f50fbea89234b0","properties":{"id":"osm-natural-valley-f50fbea89234b0","name":"وادي كلي قلاته","kind":"natural","tier":"natural","priority":180,"context":"دۆڵ · شقلاوة · هەولێر","category":"دۆڵ"},"geometry":{"type":"Point","coordinates":[44.36581,36.53323]}},{"type":"Feature","id":"osm-natural-valley-e2ab6358536ccf","properties":{"id":"osm-natural-valley-e2ab6358536ccf","name":"وادي كلي كلا خواد","kind":"natural","tier":"natural","priority":180,"context":"دۆڵ · راوندوز · هەولێر","category":"دۆڵ"},"geometry":{"type":"Point","coordinates":[44.41284,36.56815]}},{"type":"Feature","id":"osm-natural-valley-414b921e963b97","properties":{"id":"osm-natural-valley-414b921e963b97","name":"وادي كلي هنجيراوكا","kind":"natural","tier":"natural","priority":180,"context":"دۆڵ · شقلاوة · هەولێر","category":"دۆڵ"},"geometry":{"type":"Point","coordinates":[44.37842,36.52435]}},{"type":"Feature","id":"osm-natural-valley-70f1500fd1b320","properties":{"id":"osm-natural-valley-70f1500fd1b320","name":"وادي كوماسين","kind":"natural","tier":"natural","priority":180,"context":"دۆڵ · شقلاوة · هەولێر","category":"دۆڵ"},"geometry":{"type":"Point","coordinates":[44.32799,36.50183]}},{"type":"Feature","id":"osm-natural-valley-9801b4fd7701d9","properties":{"id":"osm-natural-valley-9801b4fd7701d9","name":"وادي كومي كوله رش","kind":"natural","tier":"natural","priority":180,"context":"دۆڵ · راوندوز · هەولێر","category":"دۆڵ"},"geometry":{"type":"Point","coordinates":[44.44801,36.53571]}},{"type":"Feature","id":"osm-natural-valley-cd280ca56e042a","properties":{"id":"osm-natural-valley-cd280ca56e042a","name":"وادي مزران","kind":"natural","tier":"natural","priority":180,"context":"دۆڵ · شقلاوة · هەولێر","category":"دۆڵ"},"geometry":{"type":"Point","coordinates":[44.26629,36.53566]}},{"type":"Feature","id":"osm-natural-valley-e758960a935220","properties":{"id":"osm-natural-valley-e758960a935220","name":"وادي مورتكه","kind":"natural","tier":"natural","priority":180,"context":"دۆڵ · شقلاوة · هەولێر","category":"دۆڵ"},"geometry":{"type":"Point","coordinates":[44.25747,36.5586]}},{"type":"Feature","id":"osm-natural-stream-92b54d53c90c18","properties":{"id":"osm-natural-stream-92b54d53c90c18","name":"چەمی کانی سپیلک","kind":"natural","tier":"natural","priority":180,"context":"جۆگە · راوندوز · هەولێر","category":"جۆگە"},"geometry":{"type":"Point","coordinates":[44.469192,36.5321586]}},{"type":"Feature","id":"osm-natural-valley-ef971d0a1572eb","properties":{"id":"osm-natural-valley-ef971d0a1572eb","name":"گەلیی بەنۆکە","kind":"natural","tier":"natural","priority":180,"context":"دۆڵ · شقلاوة · هەولێر","category":"دۆڵ"},"geometry":{"type":"Point","coordinates":[44.313584,36.6247423]}},{"type":"Feature","id":"road-label-osm-way-331194597","properties":{"id":"road-label-osm-way-331194597","name":"Soran-Shaqlawa-Akre Road","kind":"road","tier":"road","priority":95,"context":"trunk · شقلاوة · هەولێر","category":"ڕێگا"},"geometry":{"type":"Point","coordinates":[44.294201,36.60958]}},{"type":"Feature","id":"road-label-osm-way-331194590","properties":{"id":"road-label-osm-way-331194590","name":"شەقامی سەربەخۆیی","kind":"road","tier":"road","priority":95,"context":"trunk · راوندوز · هەولێر","category":"ڕێگا"},"geometry":{"type":"Point","coordinates":[44.409506,36.615455]}},{"type":"Feature","id":"road-label-osm-way-1187844721","properties":{"id":"road-label-osm-way-1187844721","name":"ڕێگای خەلیفان - هەریر","kind":"road","tier":"road","priority":95,"context":"trunk · راوندوز · هەولێر","category":"ڕێگا"},"geometry":{"type":"Point","coordinates":[44.338735,36.61346]}},{"type":"Feature","id":"road-label-osm-way-331194626","properties":{"id":"road-label-osm-way-331194626","name":"ڕێگای سپیلک","kind":"road","tier":"road","priority":95,"context":"trunk · شقلاوة · هەولێر","category":"ڕێگا"},"geometry":{"type":"Point","coordinates":[44.305149,36.609905]}},{"type":"Feature","id":"road-label-osm-way-122546001","properties":{"id":"road-label-osm-way-122546001","name":"ڕێگای سۆران","kind":"road","tier":"road","priority":95,"context":"trunk · راوندوز · هەولێر","category":"ڕێگا"},"geometry":{"type":"Point","coordinates":[44.456543,36.629664]}},{"type":"Feature","id":"road-label-osm-way-122546009","properties":{"id":"road-label-osm-way-122546009","name":"ڕێگای سۆران-خەلیفان","kind":"road","tier":"road","priority":95,"context":"trunk · راوندوز · هەولێر","category":"ڕێگا"},"geometry":{"type":"Point","coordinates":[44.471869,36.629338]}},{"type":"Feature","id":"road-label-osm-way-248057737","properties":{"id":"road-label-osm-way-248057737","name":"ڕێگای هەولێر - ئاکرێ","kind":"road","tier":"road","priority":95,"context":"trunk · شقلاوة · هەولێر","category":"ڕێگا"},"geometry":{"type":"Point","coordinates":[44.301922,36.561946]}},{"type":"Feature","id":"road-label-osm-way-1318526504","properties":{"id":"road-label-osm-way-1318526504","name":"588","kind":"road","tier":"road","priority":88,"context":"primary · راوندوز · هەولێر","category":"ڕێگا"},"geometry":{"type":"Point","coordinates":[44.388568,36.590629]}},{"type":"Feature","id":"road-label-osm-way-554699482","properties":{"id":"road-label-osm-way-554699482","name":"Harir Road","kind":"road","tier":"road","priority":88,"context":"primary · شقلاوة · هەولێر","category":"ڕێگا"},"geometry":{"type":"Point","coordinates":[44.336752,36.567716]}},{"type":"Feature","id":"road-label-osm-way-554699483","properties":{"id":"road-label-osm-way-554699483","name":"Khalifan - Harir Road","kind":"road","tier":"road","priority":88,"context":"primary · شقلاوة · هەولێر","category":"ڕێگا"},"geometry":{"type":"Point","coordinates":[44.320299,36.589619]}},{"type":"Feature","id":"road-label-osm-way-46890453","properties":{"id":"road-label-osm-way-46890453","name":"Khlifan-Ranya Road","kind":"road","tier":"road","priority":88,"context":"primary · راوندوز · هەولێر","category":"ڕێگا"},"geometry":{"type":"Point","coordinates":[44.455044,36.516344]}},{"type":"Feature","id":"road-label-osm-way-522057177","properties":{"id":"road-label-osm-way-522057177","name":"Shaqlawa-Harir Road","kind":"road","tier":"road","priority":88,"context":"primary · شقلاوة · هەولێر","category":"ڕێگا"},"geometry":{"type":"Point","coordinates":[44.378181,36.509837]}},{"type":"Feature","id":"road-label-osm-way-512962456","properties":{"id":"road-label-osm-way-512962456","name":"شهقامی سوران-میرگهسور","kind":"road","tier":"road","priority":88,"context":"primary · راوندوز · هەولێر","category":"ڕێگا"},"geometry":{"type":"Point","coordinates":[44.478879,36.70374]}},{"type":"Feature","id":"road-label-osm-way-512840453","properties":{"id":"road-label-osm-way-512840453","name":"شهقامی سۆران-مێرگهسور","kind":"road","tier":"road","priority":88,"context":"primary · راوندوز · هەولێر","category":"ڕێگا"},"geometry":{"type":"Point","coordinates":[44.491947,36.668365]}},{"type":"Feature","id":"road-label-osm-way-509537860","properties":{"id":"road-label-osm-way-509537860","name":"شەقامی سەرەکی هەریر","kind":"road","tier":"road","priority":88,"context":"primary · شقلاوة · هەولێر","category":"ڕێگا"},"geometry":{"type":"Point","coordinates":[44.351163,36.554566]}},{"type":"Feature","id":"road-label-osm-way-525294877","properties":{"id":"road-label-osm-way-525294877","name":"شەقامی سەرەکی هەریر","kind":"road","tier":"road","priority":88,"context":"primary · شقلاوة · هەولێر","category":"ڕێگا"},"geometry":{"type":"Point","coordinates":[44.351318,36.548785]}},{"type":"Feature","id":"road-label-osm-way-122020074","properties":{"id":"road-label-osm-way-122020074","name":"پردەکەی بێخاڵ","kind":"road","tier":"road","priority":88,"context":"primary · راوندوز · هەولێر","category":"ڕێگا"},"geometry":{"type":"Point","coordinates":[44.498322,36.617997]}},{"type":"Feature","id":"road-label-osm-way-511995178","properties":{"id":"road-label-osm-way-511995178","name":"ڕێگای بێخاڵ-ڕەواندز","kind":"road","tier":"road","priority":88,"context":"primary · راوندوز · هەولێر","category":"ڕێگا"},"geometry":{"type":"Point","coordinates":[44.470432,36.62382]}},{"type":"Feature","id":"road-label-osm-way-512017542","properties":{"id":"road-label-osm-way-512017542","name":"ڕێگای ڕەواندز-بێخاڵ","kind":"road","tier":"road","priority":88,"context":"primary · راوندوز · هەولێر","category":"ڕێگا"},"geometry":{"type":"Point","coordinates":[44.495826,36.600787]}},{"type":"Feature","id":"road-label-osm-way-635212927","properties":{"id":"road-label-osm-way-635212927","name":"Harir Road","kind":"road","tier":"road","priority":86,"context":"primary · شقلاوة · هەولێر","category":"ڕێگا"},"geometry":{"type":"Point","coordinates":[44.354409,36.550573]}},{"type":"Feature","id":"road-label-osm-way-529608292","properties":{"id":"road-label-osm-way-529608292","name":"جادەی ئارمەندان","kind":"road","tier":"road","priority":72,"context":"secondary · شقلاوة · هەولێر","category":"ڕێگا"},"geometry":{"type":"Point","coordinates":[44.260378,36.582553]}},{"type":"Feature","id":"road-label-osm-way-529608291","properties":{"id":"road-label-osm-way-529608291","name":"جادەی رکاوە","kind":"road","tier":"road","priority":72,"context":"secondary · شقلاوة · هەولێر","category":"ڕێگا"},"geometry":{"type":"Point","coordinates":[44.282709,36.585626]}},{"type":"Feature","id":"road-label-osm-way-92253636","properties":{"id":"road-label-osm-way-92253636","name":"Barda Gawr Road","kind":"road","tier":"road","priority":55,"context":"tertiary · شقلاوة · هەولێر","category":"ڕێگا"},"geometry":{"type":"Point","coordinates":[44.303075,36.545277]}},{"type":"Feature","id":"road-label-osm-way-122563176","properties":{"id":"road-label-osm-way-122563176","name":"Bekhma Road","kind":"road","tier":"road","priority":55,"context":"tertiary · راوندوز · هەولێر","category":"ڕێگا"},"geometry":{"type":"Point","coordinates":[44.318036,36.677834]}},{"type":"Feature","id":"road-label-osm-way-122563170","properties":{"id":"road-label-osm-way-122563170","name":"Bekhma tunnel","kind":"road","tier":"road","priority":55,"context":"tertiary · ئاکرێ · نەینەوا","category":"ڕێگا"},"geometry":{"type":"Point","coordinates":[44.279584,36.692786]}},{"type":"Feature","id":"road-label-osm-way-706068430","properties":{"id":"road-label-osm-way-706068430","name":"Doly Malakan Road","kind":"road","tier":"road","priority":55,"context":"tertiary · راوندوز · هەولێر","category":"ڕێگا"},"geometry":{"type":"Point","coordinates":[44.470034,36.546644]}},{"type":"Feature","id":"road-label-osm-way-1318526502","properties":{"id":"road-label-osm-way-1318526502","name":"Khlifan-Ranya Road","kind":"road","tier":"road","priority":55,"context":"tertiary · راوندوز · هەولێر","category":"ڕێگا"},"geometry":{"type":"Point","coordinates":[44.386875,36.591009]}},{"type":"Feature","id":"road-label-osm-way-365521894","properties":{"id":"road-label-osm-way-365521894","name":"Leramir Road","kind":"road","tier":"road","priority":55,"context":"tertiary · راوندوز · هەولێر","category":"ڕێگا"},"geometry":{"type":"Point","coordinates":[44.38979,36.642661]}},{"type":"Feature","id":"road-label-osm-way-723367859","properties":{"id":"road-label-osm-way-723367859","name":"Shreshma Road","kind":"road","tier":"road","priority":55,"context":"tertiary · راوندوز · هەولێر","category":"ڕێگا"},"geometry":{"type":"Point","coordinates":[44.408801,36.634987]}},{"type":"Feature","id":"road-label-osm-way-331194624","properties":{"id":"road-label-osm-way-331194624","name":"جادەی ئامۆکان","kind":"road","tier":"road","priority":55,"context":"tertiary · شقلاوة · هەولێر","category":"ڕێگا"},"geometry":{"type":"Point","coordinates":[44.290719,36.618969]}},{"type":"Feature","id":"road-label-osm-way-365494926","properties":{"id":"road-label-osm-way-365494926","name":"جادەی بەرازان","kind":"road","tier":"road","priority":55,"context":"tertiary · شقلاوة · هەولێر","category":"ڕێگا"},"geometry":{"type":"Point","coordinates":[44.286807,36.566538]}},{"type":"Feature","id":"road-label-osm-way-366091166","properties":{"id":"road-label-osm-way-366091166","name":"شەقامی دەربەندۆک","kind":"road","tier":"road","priority":55,"context":"tertiary · شقلاوة · هەولێر","category":"ڕێگا"},"geometry":{"type":"Point","coordinates":[44.31497,36.584975]}},{"type":"Feature","id":"road-label-osm-way-718856936","properties":{"id":"road-label-osm-way-718856936","name":"طريق حرير - باسرمه","kind":"road","tier":"road","priority":55,"context":"tertiary · شقلاوة · هەولێر","category":"ڕێگا"},"geometry":{"type":"Point","coordinates":[44.356699,36.517423]}},{"type":"Feature","id":"road-label-osm-way-403675517","properties":{"id":"road-label-osm-way-403675517","name":"ڕێگای دەشتیلۆکا","kind":"road","tier":"road","priority":55,"context":"tertiary · راوندوز · هەولێر","category":"ڕێگا"},"geometry":{"type":"Point","coordinates":[44.400339,36.619546]}},{"type":"Feature","id":"road-label-osm-way-516112859","properties":{"id":"road-label-osm-way-516112859","name":"ڕێگای سرێشمە","kind":"road","tier":"road","priority":55,"context":"tertiary · راوندوز · هەولێر","category":"ڕێگا"},"geometry":{"type":"Point","coordinates":[44.407717,36.620173]}},{"type":"Feature","id":"osm-way-1030746722-airport","properties":{"id":"osm-way-1030746722-airport","name":"فڕۆکەخانەی سەربازیی هەریر","kind":"poi","tier":"poi_landmark","priority":100.088,"context":"فڕۆکەخانە","category":"فڕۆکەخانە"},"geometry":{"type":"Point","coordinates":[44.3397956,36.5328199]}},{"type":"Feature","id":"osm-node-9984113217-hospital","properties":{"id":"osm-node-9984113217-hospital","name":"بنکەی تەندروستی ئامۆکان","kind":"poi","tier":"poi_landmark","priority":95.1,"context":"نەخۆشخانە","category":"نەخۆشخانە"},"geometry":{"type":"Point","coordinates":[44.2834691,36.6238896]}},{"type":"Feature","id":"osm-node-5127861024-hospital","properties":{"id":"osm-node-5127861024-hospital","name":"بنکەی تەندروستی باتاس","kind":"poi","tier":"poi_landmark","priority":95.1,"context":"نەخۆشخانە","category":"نەخۆشخانە"},"geometry":{"type":"Point","coordinates":[44.3353654,36.5613963]}},{"type":"Feature","id":"osm-node-13245888001-hospital","properties":{"id":"osm-node-13245888001-hospital","name":"بنکەی تەندروستی بێخمە","kind":"poi","tier":"poi_landmark","priority":95.1,"context":"نەخۆشخانە","category":"نەخۆشخانە"},"geometry":{"type":"Point","coordinates":[44.3122946,36.683906]}},{"type":"Feature","id":"osm-node-4973088274-hospital","properties":{"id":"osm-node-4973088274-hospital","name":"بنکەی تەندروستی هەریر","kind":"poi","tier":"poi_landmark","priority":95.1,"context":"نەخۆشخانە","category":"نەخۆشخانە"},"geometry":{"type":"Point","coordinates":[44.3492109,36.5553539]}},{"type":"Feature","id":"osm-node-4989733723-hospital","properties":{"id":"osm-node-4989733723-hospital","name":"نەخۆشخانەی فریاکەوتنی خەلیفان","kind":"poi","tier":"poi_landmark","priority":95.1,"context":"نەخۆشخانە","category":"نەخۆشخانە"},"geometry":{"type":"Point","coordinates":[44.4109345,36.6169901]}},{"type":"Feature","id":"osm-node-12368097302-hospital","properties":{"id":"osm-node-12368097302-hospital","name":"نەخۆشخانەی فریاکەوتنی هەریر","kind":"poi","tier":"poi_landmark","priority":95.1,"context":"نەخۆشخانە","category":"نەخۆشخانە"},"geometry":{"type":"Point","coordinates":[44.3479545,36.5468669]}},{"type":"Feature","id":"osm-node-4959379438-hospital","properties":{"id":"osm-node-4959379438-hospital","name":"نەخۆشخانەی هەریر","kind":"poi","tier":"poi_landmark","priority":95.1,"context":"نەخۆشخانە","category":"نەخۆشخانە"},"geometry":{"type":"Point","coordinates":[44.3487009,36.5468094]}},{"type":"Feature","id":"osm-node-4959381922-bank","properties":{"id":"osm-node-4959381922-bank","name":"بانکی هەریر","kind":"poi","tier":"poi_landmark","priority":92.1,"context":"بانک","category":"بانک"},"geometry":{"type":"Point","coordinates":[44.3520223,36.5487074]}},{"type":"Feature","id":"osm-way-361603620-bank","properties":{"id":"osm-way-361603620-bank","name":"بانکی خەلیفان","kind":"poi","tier":"poi_landmark","priority":92.092,"context":"بانک","category":"بانک"},"geometry":{"type":"Point","coordinates":[44.4111415,36.6082315]}},{"type":"Feature","id":"osm-way-303375780-military","properties":{"id":"osm-way-303375780-military","name":"Spilk","kind":"poi","tier":"poi_regional","priority":80.045,"context":"بنکەی سەربازی","category":"بنکەی سەربازی"},"geometry":{"type":"Point","coordinates":[44.3212081,36.6178266]}},{"type":"Feature","id":"osm-way-361603524-stadium","properties":{"id":"osm-way-361603524-stadium","name":"یاریگای تۆپی پێی خەلیفان","kind":"poi","tier":"poi_regional","priority":76.092,"context":"یاریگا","category":"یاریگا"},"geometry":{"type":"Point","coordinates":[44.4116992,36.6085846]}},{"type":"Feature","id":"osm-way-405156961-stadium","properties":{"id":"osm-way-405156961-stadium","name":"یاریگای کەلەکین","kind":"poi","tier":"poi_regional","priority":76.092,"context":"یاریگا","category":"یاریگا"},"geometry":{"type":"Point","coordinates":[44.3402605,36.6154088]}},{"type":"Feature","id":"osm-node-10229111147-archaeological","properties":{"id":"osm-node-10229111147-archaeological","name":"Batas-Harir Relief","kind":"poi","tier":"poi_detail","priority":50.1,"context":"شوێنی شوێنەوار","category":"شوێنی شوێنەوار"},"geometry":{"type":"Point","coordinates":[44.3483398,36.5635975]}},{"type":"Feature","id":"osm-node-12070394615-attraction","properties":{"id":"osm-node-12070394615-attraction","name":"Kani","kind":"poi","tier":"poi_detail","priority":50.1,"context":"شوێنی گەشتیاری","category":"شوێنی گەشتیاری"},"geometry":{"type":"Point","coordinates":[44.4274378,36.5572517]}},{"type":"Feature","id":"osm-node-5135676922-attraction","properties":{"id":"osm-node-5135676922-attraction","name":"Kani Maran","kind":"poi","tier":"poi_detail","priority":50.1,"context":"شوێنی گەشتیاری","category":"شوێنی گەشتیاری"},"geometry":{"type":"Point","coordinates":[44.4693854,36.6281817]}},{"type":"Feature","id":"osm-node-5583065279-attraction","properties":{"id":"osm-node-5583065279-attraction","name":"Khalan Tourism Area","kind":"poi","tier":"poi_detail","priority":50.1,"context":"شوێنی گەشتیاری","category":"شوێنی گەشتیاری"},"geometry":{"type":"Point","coordinates":[44.3591206,36.6872821]}},{"type":"Feature","id":"osm-node-6275506887-attraction","properties":{"id":"osm-node-6275506887-attraction","name":"Waterfalls","kind":"poi","tier":"poi_detail","priority":50.1,"context":"شوێنی گەشتیاری","category":"شوێنی گەشتیاری"},"geometry":{"type":"Point","coordinates":[44.4269233,36.6281427]}},{"type":"Feature","id":"osm-node-5135809823-attraction","properties":{"id":"osm-node-5135809823-attraction","name":"بێخاڵ","kind":"poi","tier":"poi_detail","priority":50.1,"context":"شوێنی گەشتیاری","category":"شوێنی گەشتیاری"},"geometry":{"type":"Point","coordinates":[44.4981355,36.6181561]}},{"type":"Feature","id":"osm-node-5135677221-attraction","properties":{"id":"osm-node-5135677221-attraction","name":"دووئاوی بیخال و گەلی عەلی بەگ","kind":"poi","tier":"poi_detail","priority":50.1,"context":"شوێنی گەشتیاری","category":"شوێنی گەشتیاری"},"geometry":{"type":"Point","coordinates":[44.4871291,36.6311726]}},{"type":"Feature","id":"osm-node-8367979618-attraction","properties":{"id":"osm-node-8367979618-attraction","name":"مضایق بین الجبال","kind":"poi","tier":"poi_detail","priority":50.1,"context":"شوێنی گەشتیاری","category":"شوێنی گەشتیاری"},"geometry":{"type":"Point","coordinates":[44.4190556,36.6191736]}},{"type":"Feature","id":"osm-node-10687956705-attraction","properties":{"id":"osm-node-10687956705-attraction","name":"منتجع جبل کورک","kind":"poi","tier":"poi_detail","priority":50.1,"context":"شوێنی گەشتیاری","category":"شوێنی گەشتیاری"},"geometry":{"type":"Point","coordinates":[44.4927247,36.6083489]}},{"type":"Feature","id":"osm-node-5135888227-attraction","properties":{"id":"osm-node-5135888227-attraction","name":"مەزنە","kind":"poi","tier":"poi_detail","priority":50.1,"context":"شوێنی گەشتیاری","category":"شوێنی گەشتیاری"},"geometry":{"type":"Point","coordinates":[44.4549932,36.7437095]}},{"type":"Feature","id":"osm-node-5135888226-attraction","properties":{"id":"osm-node-5135888226-attraction","name":"هاودیان","kind":"poi","tier":"poi_detail","priority":50.1,"context":"شوێنی گەشتیاری","category":"شوێنی گەشتیاری"},"geometry":{"type":"Point","coordinates":[44.4792488,36.7005587]}},{"type":"Feature","id":"osm-node-13906700758-attraction","properties":{"id":"osm-node-13906700758-attraction","name":"هاوینەهەواری کوریتەنگ","kind":"poi","tier":"poi_detail","priority":50.1,"context":"شوێنی گەشتیاری","category":"شوێنی گەشتیاری"},"geometry":{"type":"Point","coordinates":[44.4317714,36.550183]}},{"type":"Feature","id":"osm-node-5906915185-attraction","properties":{"id":"osm-node-5906915185-attraction","name":"هەوارگەی ئاڵانە","kind":"poi","tier":"poi_detail","priority":50.1,"context":"شوێنی گەشتیاری","category":"شوێنی گەشتیاری"},"geometry":{"type":"Point","coordinates":[44.4346508,36.548487]}},{"type":"Feature","id":"osm-node-5906914685-attraction","properties":{"id":"osm-node-5906914685-attraction","name":"هەوارگەی دۆڵی ئاڵانە","kind":"poi","tier":"poi_detail","priority":50.1,"context":"شوێنی گەشتیاری","category":"شوێنی گەشتیاری"},"geometry":{"type":"Point","coordinates":[44.4348474,36.5483697]}},{"type":"Feature","id":"osm-node-6760388287-attraction","properties":{"id":"osm-node-6760388287-attraction","name":"کبرات استراحە","kind":"poi","tier":"poi_detail","priority":50.1,"context":"شوێنی گەشتیاری","category":"شوێنی گەشتیاری"},"geometry":{"type":"Point","coordinates":[44.4012768,36.5999234]}},{"type":"Feature","id":"osm-node-4397135025-attraction","properties":{"id":"osm-node-4397135025-attraction","name":"کۆڕەک","kind":"poi","tier":"poi_detail","priority":50.1,"context":"شوێنی گەشتیاری","category":"شوێنی گەشتیاری"},"geometry":{"type":"Point","coordinates":[44.4933397,36.6074911]}},{"type":"Feature","id":"osm-way-584014205-attraction","properties":{"id":"osm-way-584014205-attraction","name":"Khalan Tourism Area","kind":"poi","tier":"poi_detail","priority":50.092,"context":"شوێنی گەشتیاری","category":"شوێنی گەشتیاری"},"geometry":{"type":"Point","coordinates":[44.3554827,36.6858023]}},{"type":"Feature","id":"osm-way-527985300-building","properties":{"id":"osm-way-527985300-building","name":"ڕاداری چیای کۆڕەک","kind":"poi","tier":"poi_regional","priority":88.055,"context":"سەنتەری کۆڕەک","category":"سەنتەری کۆڕەک"},"geometry":{"type":"Point","coordinates":[44.4594005,36.5892195]}},{"type":"Feature","id":"osm-node-4976171221-fuel","properties":{"id":"osm-node-4976171221-fuel","name":"بەنزینخانەی ئاراسن","kind":"poi","tier":"poi_regional","priority":82.094,"context":"وێستگەی سووتەمەنی","category":"وێستگەی سووتەمەنی"},"geometry":{"type":"Point","coordinates":[44.3341423,36.5700944]}},{"type":"Feature","id":"osm-node-5306784921-fuel","properties":{"id":"osm-node-5306784921-fuel","name":"بەنزینخانەی باتاس","kind":"poi","tier":"poi_regional","priority":82.094,"context":"وێستگەی سووتەمەنی","category":"وێستگەی سووتەمەنی"},"geometry":{"type":"Point","coordinates":[44.343014,36.5632418]}},{"type":"Feature","id":"osm-node-5306780822-fuel","properties":{"id":"osm-node-5306780822-fuel","name":"بەنزینخانەی برادۆست","kind":"poi","tier":"poi_regional","priority":82.094,"context":"وێستگەی سووتەمەنی","category":"وێستگەی سووتەمەنی"},"geometry":{"type":"Point","coordinates":[44.342488,36.564336]}},{"type":"Feature","id":"osm-node-4317276640-fuel","properties":{"id":"osm-node-4317276640-fuel","name":"بەنزینخانەی بێجان","kind":"poi","tier":"poi_regional","priority":82.094,"context":"وێستگەی سووتەمەنی","category":"وێستگەی سووتەمەنی"},"geometry":{"type":"Point","coordinates":[44.3924365,36.5953144]}},{"type":"Feature","id":"osm-node-7254714591-fuel","properties":{"id":"osm-node-7254714591-fuel","name":"بەنزینخانەی بەنی هەریر","kind":"poi","tier":"poi_regional","priority":82.094,"context":"وێستگەی سووتەمەنی","category":"وێستگەی سووتەمەنی"},"geometry":{"type":"Point","coordinates":[44.3537385,36.6093052]}},{"type":"Feature","id":"osm-node-4060128383-fuel","properties":{"id":"osm-node-4060128383-fuel","name":"بەنزینخانەی خەلیفان","kind":"poi","tier":"poi_regional","priority":82.094,"context":"وێستگەی سووتەمەنی","category":"وێستگەی سووتەمەنی"},"geometry":{"type":"Point","coordinates":[44.4158616,36.6186322]}},{"type":"Feature","id":"osm-node-4987549721-fuel","properties":{"id":"osm-node-4987549721-fuel","name":"بەنزینخانەی سانا","kind":"poi","tier":"poi_regional","priority":82.094,"context":"وێستگەی سووتەمەنی","category":"وێستگەی سووتەمەنی"},"geometry":{"type":"Point","coordinates":[44.3887416,36.593027]}},{"type":"Feature","id":"osm-node-2549051141-fuel","properties":{"id":"osm-node-2549051141-fuel","name":"بەنزینخانەی شاخی ڕواندز","kind":"poi","tier":"poi_regional","priority":82.094,"context":"وێستگەی سووتەمەنی","category":"وێستگەی سووتەمەنی"},"geometry":{"type":"Point","coordinates":[44.3862593,36.5934772]}},{"type":"Feature","id":"osm-node-4340229032-fuel","properties":{"id":"osm-node-4340229032-fuel","name":"بەنزینخانەی قەڵای سپیلک","kind":"poi","tier":"poi_regional","priority":82.094,"context":"وێستگەی سووتەمەنی","category":"وێستگەی سووتەمەنی"},"geometry":{"type":"Point","coordinates":[44.3159628,36.6144218]}},{"type":"Feature","id":"osm-node-4984381323-fuel","properties":{"id":"osm-node-4984381323-fuel","name":"بەنزینخانەی لاڤیا","kind":"poi","tier":"poi_regional","priority":82.094,"context":"وێستگەی سووتەمەنی","category":"وێستگەی سووتەمەنی"},"geometry":{"type":"Point","coordinates":[44.3544158,36.5348029]}},{"type":"Feature","id":"osm-node-4983254721-fuel","properties":{"id":"osm-node-4983254721-fuel","name":"بەنزینخانەی لوقمان","kind":"poi","tier":"poi_regional","priority":82.094,"context":"وێستگەی سووتەمەنی","category":"وێستگەی سووتەمەنی"},"geometry":{"type":"Point","coordinates":[44.4169262,36.618239]}},{"type":"Feature","id":"osm-node-3077316341-fuel","properties":{"id":"osm-node-3077316341-fuel","name":"بەنزینخانەی هێمن","kind":"poi","tier":"poi_regional","priority":82.094,"context":"وێستگەی سووتەمەنی","category":"وێستگەی سووتەمەنی"},"geometry":{"type":"Point","coordinates":[44.4281182,36.6272296]}},{"type":"Feature","id":"osm-node-4959379439-fuel","properties":{"id":"osm-node-4959379439-fuel","name":"بەنزینخانەی هێمن","kind":"poi","tier":"poi_regional","priority":82.094,"context":"وێستگەی سووتەمەنی","category":"وێستگەی سووتەمەنی"},"geometry":{"type":"Point","coordinates":[44.3487783,36.5461175]}},{"type":"Feature","id":"osm-node-9620212088-fuel","properties":{"id":"osm-node-9620212088-fuel","name":"بەنزینخانەی چیا","kind":"poi","tier":"poi_regional","priority":82.094,"context":"وێستگەی سووتەمەنی","category":"وێستگەی سووتەمەنی"},"geometry":{"type":"Point","coordinates":[44.368369,36.6003324]}},{"type":"Feature","id":"osm-node-6807787087-fuel","properties":{"id":"osm-node-6807787087-fuel","name":"بەنزینخانەی ڕۆژهەڵاتی سۆران","kind":"poi","tier":"poi_regional","priority":82.094,"context":"وێستگەی سووتەمەنی","category":"وێستگەی سووتەمەنی"},"geometry":{"type":"Point","coordinates":[44.3868567,36.5929835]}},{"type":"Feature","id":"osm-node-4613745793-fuel","properties":{"id":"osm-node-4613745793-fuel","name":"بەنزینخانەی ڤانیس","kind":"poi","tier":"poi_regional","priority":82.094,"context":"وێستگەی سووتەمەنی","category":"وێستگەی سووتەمەنی"},"geometry":{"type":"Point","coordinates":[44.3089092,36.6076846]}},{"type":"Feature","id":"osm-node-5056522123-fuel","properties":{"id":"osm-node-5056522123-fuel","name":"بەنزینخانەی کوردستان","kind":"poi","tier":"poi_regional","priority":82.094,"context":"وێستگەی سووتەمەنی","category":"وێستگەی سووتەمەنی"},"geometry":{"type":"Point","coordinates":[44.384987,36.5937592]}},{"type":"Feature","id":"osm-node-5158262322-fuel","properties":{"id":"osm-node-5158262322-fuel","name":"وێستگەی سوتەمەنی بناری گۆرەز","kind":"poi","tier":"poi_regional","priority":82.094,"context":"وێستگەی سووتەمەنی","category":"وێستگەی سووتەمەنی"},"geometry":{"type":"Point","coordinates":[44.4977385,36.6513244]}},{"type":"Feature","id":"osm-node-5148313021-fuel","properties":{"id":"osm-node-5148313021-fuel","name":"وێستگەی سوتەمەنی زارگەلی","kind":"poi","tier":"poi_regional","priority":82.094,"context":"وێستگەی سووتەمەنی","category":"وێستگەی سووتەمەنی"},"geometry":{"type":"Point","coordinates":[44.4981063,36.6521542]}},{"type":"Feature","id":"osm-node-5148312122-fuel","properties":{"id":"osm-node-5148312122-fuel","name":"وێستگەی سوتەمەنی زێر","kind":"poi","tier":"poi_regional","priority":82.094,"context":"وێستگەی سووتەمەنی","category":"وێستگەی سووتەمەنی"},"geometry":{"type":"Point","coordinates":[44.4867423,36.6874173]}},{"type":"Feature","id":"osm-node-5294088224-fuel","properties":{"id":"osm-node-5294088224-fuel","name":"وێستگەی سوتەمەنی مستەفا","kind":"poi","tier":"poi_regional","priority":82.094,"context":"وێستگەی سووتەمەنی","category":"وێستگەی سووتەمەنی"},"geometry":{"type":"Point","coordinates":[44.479005,36.70352]}},{"type":"Feature","id":"osm-node-5563417822-fuel","properties":{"id":"osm-node-5563417822-fuel","name":"وێستگەی سوتەمەنی ناز","kind":"poi","tier":"poi_regional","priority":82.094,"context":"وێستگەی سووتەمەنی","category":"وێستگەی سووتەمەنی"},"geometry":{"type":"Point","coordinates":[44.4308173,36.5515901]}},{"type":"Feature","id":"osm-node-5004569124-fuel","properties":{"id":"osm-node-5004569124-fuel","name":"وێستگەی سوتەمەنی هەریر","kind":"poi","tier":"poi_regional","priority":82.094,"context":"وێستگەی سووتەمەنی","category":"وێستگەی سووتەمەنی"},"geometry":{"type":"Point","coordinates":[44.3495596,36.5574734]}},{"type":"Feature","id":"osm-node-5148312123-fuel","properties":{"id":"osm-node-5148312123-fuel","name":"وێستگەی سوتەمەنی ڤین","kind":"poi","tier":"poi_regional","priority":82.094,"context":"وێستگەی سووتەمەنی","category":"وێستگەی سووتەمەنی"},"geometry":{"type":"Point","coordinates":[44.4887651,36.6801135]}},{"type":"Feature","id":"osm-way-297006231-fuel","properties":{"id":"osm-way-297006231-fuel","name":"بەنزینخانەی شانەدەر","kind":"poi","tier":"poi_regional","priority":82.086,"context":"وێستگەی سووتەمەنی","category":"وێستگەی سووتەمەنی"},"geometry":{"type":"Point","coordinates":[44.3171317,36.6152907]}},{"type":"Feature","id":"osm-way-327952799-fuel","properties":{"id":"osm-way-327952799-fuel","name":"محطة وقود قلعة سبليك","kind":"poi","tier":"poi_regional","priority":82.086,"context":"وێستگەی سووتەمەنی","category":"وێستگەی سووتەمەنی"},"geometry":{"type":"Point","coordinates":[44.3157164,36.6141661]}},{"type":"Feature","id":"osm-node-9620274309-police","properties":{"id":"osm-node-9620274309-police","name":"بنکهی پۆلیسی خهلیفان","kind":"poi","tier":"poi_regional","priority":77.1,"context":"بنکەی پۆلیس","category":"بنکەی پۆلیس"},"geometry":{"type":"Point","coordinates":[44.4108778,36.607021]}},{"type":"Feature","id":"osm-node-6002295540-police","properties":{"id":"osm-node-6002295540-police","name":"بنکەی نەهێشتنی تاوان","kind":"poi","tier":"poi_regional","priority":77.1,"context":"بنکەی پۆلیس","category":"بنکەی پۆلیس"},"geometry":{"type":"Point","coordinates":[44.3489406,36.5561789]}},{"type":"Feature","id":"osm-node-4973091678-police","properties":{"id":"osm-node-4973091678-police","name":"بنکەی پۆلیس","kind":"poi","tier":"poi_regional","priority":77.1,"context":"بنکەی پۆلیس","category":"بنکەی پۆلیس"},"geometry":{"type":"Point","coordinates":[44.3489294,36.5560044]}},{"type":"Feature","id":"osm-node-2485303466-police","properties":{"id":"osm-node-2485303466-police","name":"مخفر شرطة خلان","kind":"poi","tier":"poi_regional","priority":77.1,"context":"بنکەی پۆلیس","category":"بنکەی پۆلیس"},"geometry":{"type":"Point","coordinates":[44.371718,36.674863]}},{"type":"Feature","id":"osm-node-2485303459-police","properties":{"id":"osm-node-2485303459-police","name":"مخفر شرطە کلی علی بیک","kind":"poi","tier":"poi_regional","priority":77.1,"context":"بنکەی پۆلیس","category":"بنکەی پۆلیس"},"geometry":{"type":"Point","coordinates":[44.438733,36.63212]}},{"type":"Feature","id":"osm-node-4366390690-police","properties":{"id":"osm-node-4366390690-police","name":"هاتووچۆی دەرەوەی شار","kind":"poi","tier":"poi_regional","priority":77.1,"context":"بنکەی پۆلیس","category":"بنکەی پۆلیس"},"geometry":{"type":"Point","coordinates":[44.499248,36.6473148]}},{"type":"Feature","id":"osm-node-6510668792-car_dealership","properties":{"id":"osm-node-6510668792-car_dealership","name":"پێشانگای ئۆتۆمبێلی ئاشتی","kind":"poi","tier":"poi_regional","priority":76.1,"context":"پێشانگای ئۆتۆمبیل","category":"پێشانگای ئۆتۆمبیل"},"geometry":{"type":"Point","coordinates":[44.3871159,36.5929934]}},{"type":"Feature","id":"osm-node-5062075322-car_dealership","properties":{"id":"osm-node-5062075322-car_dealership","name":"پێشانگای ئۆتۆمبێلی خەلیفان","kind":"poi","tier":"poi_regional","priority":76.1,"context":"پێشانگای ئۆتۆمبیل","category":"پێشانگای ئۆتۆمبیل"},"geometry":{"type":"Point","coordinates":[44.38604,36.5931578]}},{"type":"Feature","id":"osm-node-5282053823-car_dealership","properties":{"id":"osm-node-5282053823-car_dealership","name":"پێشانگای هەریر بۆ ئوتومبێل","kind":"poi","tier":"poi_regional","priority":76.1,"context":"پێشانگای ئۆتۆمبیل","category":"پێشانگای ئۆتۆمبیل"},"geometry":{"type":"Point","coordinates":[44.3470666,36.5603001]}},{"type":"Feature","id":"osm-way-303376080-residential","properties":{"id":"osm-way-303376080-residential","name":"Goraz","kind":"poi","tier":"poi_local","priority":68.045,"context":"کۆمپاوندی نیشتەجێبوون","category":"کۆمپاوندی نیشتەجێبوون"},"geometry":{"type":"Point","coordinates":[44.3240513,36.677241]}},{"type":"Feature","id":"osm-way-7477749-residential","properties":{"id":"osm-way-7477749-residential","name":"Xelîfan","kind":"poi","tier":"poi_local","priority":68.045,"context":"کۆمپاوندی نیشتەجێبوون","category":"کۆمپاوندی نیشتەجێبوون"},"geometry":{"type":"Point","coordinates":[44.4097188,36.6056134]}},{"type":"Feature","id":"osm-way-901513994-residential","properties":{"id":"osm-way-901513994-residential","name":"بلەی خواروو","kind":"poi","tier":"poi_local","priority":68.045,"context":"کۆمپاوندی نیشتەجێبوون","category":"کۆمپاوندی نیشتەجێبوون"},"geometry":{"type":"Point","coordinates":[44.4946917,36.5262121]}},{"type":"Feature","id":"osm-way-858653402-residential","properties":{"id":"osm-way-858653402-residential","name":"خوشکەڵ","kind":"poi","tier":"poi_local","priority":68.045,"context":"کۆمپاوندی نیشتەجێبوون","category":"کۆمپاوندی نیشتەجێبوون"},"geometry":{"type":"Point","coordinates":[44.4712477,36.7387913]}},{"type":"Feature","id":"osm-way-512453852-residential","properties":{"id":"osm-way-512453852-residential","name":"ماجداوە","kind":"poi","tier":"poi_local","priority":68.045,"context":"کۆمپاوندی نیشتەجێبوون","category":"کۆمپاوندی نیشتەجێبوون"},"geometry":{"type":"Point","coordinates":[44.4920989,36.6698495]}},{"type":"Feature","id":"osm-way-130639897-residential","properties":{"id":"osm-way-130639897-residential","name":"هەریر","kind":"poi","tier":"poi_local","priority":68.045,"context":"کۆمپاوندی نیشتەجێبوون","category":"کۆمپاوندی نیشتەجێبوون"},"geometry":{"type":"Point","coordinates":[44.3458973,36.5575716]}},{"type":"Feature","id":"osm-node-12250462401-school","properties":{"id":"osm-node-12250462401-school","name":"Bawyan School","kind":"poi","tier":"poi_detail","priority":50.1,"context":"قوتابخانە","category":"قوتابخانە"},"geometry":{"type":"Point","coordinates":[44.3859475,36.5193003]}},{"type":"Feature","id":"osm-node-9013236180-school","properties":{"id":"osm-node-9013236180-school","name":"Bnari Goraz Elementary School Mixed","kind":"poi","tier":"poi_detail","priority":50.1,"context":"قوتابخانە","category":"قوتابخانە"},"geometry":{"type":"Point","coordinates":[44.4964202,36.6485721]}},{"type":"Feature","id":"osm-node-6825578086-restaurant","properties":{"id":"osm-node-6825578086-restaurant","name":"Chiya","kind":"poi","tier":"poi_detail","priority":50.1,"context":"چێشتخانە","category":"چێشتخانە"},"geometry":{"type":"Point","coordinates":[44.4584364,36.5988996]}},{"type":"Feature","id":"osm-node-7139368304-pharmacy","properties":{"id":"osm-node-7139368304-pharmacy","name":"ROZHGAR PHARMACY","kind":"poi","tier":"poi_detail","priority":50.1,"context":"دەرمانخانە","category":"دەرمانخانە"},"geometry":{"type":"Point","coordinates":[44.348087,36.5542036]}},{"type":"Feature","id":"osm-node-8920469914-supermarket","properties":{"id":"osm-node-8920469914-supermarket","name":"Razhwan Market","kind":"poi","tier":"poi_detail","priority":50.1,"context":"سۆپەرمارکێت","category":"سۆپەرمارکێت"},"geometry":{"type":"Point","coordinates":[44.3425243,36.5584138]}},{"type":"Feature","id":"osm-node-9125549742-school","properties":{"id":"osm-node-9125549742-school","name":"Saraward Elementary School (Girls)","kind":"poi","tier":"poi_detail","priority":50.1,"context":"قوتابخانە","category":"قوتابخانە"},"geometry":{"type":"Point","coordinates":[44.3418062,36.5541375]}},{"type":"Feature","id":"osm-node-11737897669-clinic","properties":{"id":"osm-node-11737897669-clinic","name":"Sonya Dental Clinic","kind":"poi","tier":"poi_detail","priority":50.1,"context":"کلینیک","category":"کلینیک"},"geometry":{"type":"Point","coordinates":[44.3522366,36.5494352]}},{"type":"Feature","id":"osm-node-8992910925-supermarket","properties":{"id":"osm-node-8992910925-supermarket","name":"Teammart","kind":"poi","tier":"poi_detail","priority":50.1,"context":"سۆپەرمارکێت","category":"سۆپەرمارکێت"},"geometry":{"type":"Point","coordinates":[44.4050841,36.6086431]}},{"type":"Feature","id":"osm-node-7399634587-school","properties":{"id":"osm-node-7399634587-school","name":"ئامادەیی سرێشمەی زانستی تێکەلاو","kind":"poi","tier":"poi_detail","priority":50.1,"context":"قوتابخانە","category":"قوتابخانە"},"geometry":{"type":"Point","coordinates":[44.4116005,36.6458867]}},{"type":"Feature","id":"osm-node-9385582517-kindergarten","properties":{"id":"osm-node-9385582517-kindergarten","name":"باخچەی ساوایانی خەلیفان","kind":"poi","tier":"poi_detail","priority":50.1,"context":"باخچەی ساوایان","category":"باخچەی ساوایان"},"geometry":{"type":"Point","coordinates":[44.4109492,36.6077441]}},{"type":"Feature","id":"osm-node-4959379436-marketplace","properties":{"id":"osm-node-4959379436-marketplace","name":"بازاری سەوزە و میوە","kind":"poi","tier":"poi_detail","priority":50.1,"context":"بازاڕ","category":"بازاڕ"},"geometry":{"type":"Point","coordinates":[44.3532656,36.5527304]}},{"type":"Feature","id":"osm-node-4975588222-fire_station","properties":{"id":"osm-node-4975588222-fire_station","name":"بنکەی بەرگری شارستانی هەریر","kind":"poi","tier":"poi_detail","priority":50.1,"context":"بنکەی ئاگرکوژێنەوە","category":"بنکەی ئاگرکوژێنەوە"},"geometry":{"type":"Point","coordinates":[44.34928,36.5566849]}},{"type":"Feature","id":"osm-node-7086359188-supermarket","properties":{"id":"osm-node-7086359188-supermarket","name":"تیم مارت","kind":"poi","tier":"poi_detail","priority":50.1,"context":"سۆپەرمارکێت","category":"سۆپەرمارکێت"},"geometry":{"type":"Point","coordinates":[44.3501051,36.5563874]}},{"type":"Feature","id":"osm-node-5287747621-supermarket","properties":{"id":"osm-node-5287747621-supermarket","name":"تیم مارت - هەریر","kind":"poi","tier":"poi_detail","priority":50.1,"context":"سۆپەرمارکێت","category":"سۆپەرمارکێت"},"geometry":{"type":"Point","coordinates":[44.3544904,36.5508797]}},{"type":"Feature","id":"osm-node-5349583221-supermarket","properties":{"id":"osm-node-5349583221-supermarket","name":"تیم مارت- خەلیفان","kind":"poi","tier":"poi_detail","priority":50.1,"context":"سۆپەرمارکێت","category":"سۆپەرمارکێت"},"geometry":{"type":"Point","coordinates":[44.4121982,36.6175184]}},{"type":"Feature","id":"osm-node-5857244686-restaurant","properties":{"id":"osm-node-5857244686-restaurant","name":"خواردنگەی تەهران","kind":"poi","tier":"poi_detail","priority":50.1,"context":"چێشتخانە","category":"چێشتخانە"},"geometry":{"type":"Point","coordinates":[44.4312676,36.5517844]}},{"type":"Feature","id":"osm-node-4876888621-restaurant","properties":{"id":"osm-node-4876888621-restaurant","name":"خواردنگەی دۆڵی ئالانە","kind":"poi","tier":"poi_detail","priority":50.1,"context":"چێشتخانە","category":"چێشتخانە"},"geometry":{"type":"Point","coordinates":[44.4310516,36.5503615]}},{"type":"Feature","id":"osm-node-8937054436-restaurant","properties":{"id":"osm-node-8937054436-restaurant","name":"خوانگەهی سەهەند","kind":"poi","tier":"poi_detail","priority":50.1,"context":"چێشتخانە","category":"چێشتخانە"},"geometry":{"type":"Point","coordinates":[44.4979637,36.6174041]}},{"type":"Feature","id":"osm-node-5076709522-school","properties":{"id":"osm-node-5076709522-school","name":"دواناوەندی خانزادی کچان","kind":"poi","tier":"poi_detail","priority":50.1,"context":"قوتابخانە","category":"قوتابخانە"},"geometry":{"type":"Point","coordinates":[44.3503304,36.5551018]}},{"type":"Feature","id":"osm-node-5084261726-pharmacy","properties":{"id":"osm-node-5084261726-pharmacy","name":"دەرمانخانەی زەردەخەنە","kind":"poi","tier":"poi_detail","priority":50.1,"context":"دەرمانخانە","category":"دەرمانخانە"},"geometry":{"type":"Point","coordinates":[44.3532442,36.5529237]}},{"type":"Feature","id":"osm-node-6002988386-pharmacy","properties":{"id":"osm-node-6002988386-pharmacy","name":"دەرمانخانەی محمد فارما","kind":"poi","tier":"poi_detail","priority":50.1,"context":"دەرمانخانە","category":"دەرمانخانە"},"geometry":{"type":"Point","coordinates":[44.3500705,36.5564962]}},{"type":"Feature","id":"osm-node-5150169132-pharmacy","properties":{"id":"osm-node-5150169132-pharmacy","name":"دەرمانخانەی هەریر","kind":"poi","tier":"poi_detail","priority":50.1,"context":"دەرمانخانە","category":"دەرمانخانە"},"geometry":{"type":"Point","coordinates":[44.3492014,36.5465177]}},{"type":"Feature","id":"osm-node-6022883194-pharmacy","properties":{"id":"osm-node-6022883194-pharmacy","name":"دەرمانخانەی هەریری خێرخوازی","kind":"poi","tier":"poi_detail","priority":50.1,"context":"دەرمانخانە","category":"دەرمانخانە"},"geometry":{"type":"Point","coordinates":[44.3514065,36.5542449]}},{"type":"Feature","id":"osm-node-12368093401-pharmacy","properties":{"id":"osm-node-12368093401-pharmacy","name":"دەرمانخانەی ڕێگای هەریر","kind":"poi","tier":"poi_detail","priority":50.1,"context":"دەرمانخانە","category":"دەرمانخانە"},"geometry":{"type":"Point","coordinates":[44.3497281,36.5478329]}},{"type":"Feature","id":"osm-node-5177650522-pharmacy","properties":{"id":"osm-node-5177650522-pharmacy","name":"دەرمانخانەی گوڵان","kind":"poi","tier":"poi_detail","priority":50.1,"context":"دەرمانخانە","category":"دەرمانخانە"},"geometry":{"type":"Point","coordinates":[44.3506624,36.5517431]}},{"type":"Feature","id":"osm-node-6005333786-supermarket","properties":{"id":"osm-node-6005333786-supermarket","name":"سوپەرمارکێتی عەفرین","kind":"poi","tier":"poi_detail","priority":50.1,"context":"سۆپەرمارکێت","category":"سۆپەرمارکێت"},"geometry":{"type":"Point","coordinates":[44.3384665,36.5669034]}},{"type":"Feature","id":"osm-node-5029817622-supermarket","properties":{"id":"osm-node-5029817622-supermarket","name":"سوپەرمارکێتی یارین","kind":"poi","tier":"poi_detail","priority":50.1,"context":"سۆپەرمارکێت","category":"سۆپەرمارکێت"},"geometry":{"type":"Point","coordinates":[44.3497671,36.5563877]}},{"type":"Feature","id":"osm-node-5064095822-clinic","properties":{"id":"osm-node-5064095822-clinic","name":"سەنتەری هێژای پزیشکی","kind":"poi","tier":"poi_detail","priority":50.1,"context":"کلینیک","category":"کلینیک"},"geometry":{"type":"Point","coordinates":[44.3500409,36.5559701]}},{"type":"Feature","id":"osm-node-5064088223-clinic","properties":{"id":"osm-node-5064088223-clinic","name":"سەنتەری هەریر میدیکا","kind":"poi","tier":"poi_detail","priority":50.1,"context":"کلینیک","category":"کلینیک"},"geometry":{"type":"Point","coordinates":[44.3488775,36.5456972]}},{"type":"Feature","id":"osm-node-6003008585-supermarket","properties":{"id":"osm-node-6003008585-supermarket","name":"فرۆشگای بانە","kind":"poi","tier":"poi_detail","priority":50.1,"context":"سۆپەرمارکێت","category":"سۆپەرمارکێت"},"geometry":{"type":"Point","coordinates":[44.3448841,36.5617576]}},{"type":"Feature","id":"osm-node-6751693086-school","properties":{"id":"osm-node-6751693086-school","name":"قوتابخانەی ئامادەیی باسرمەی کوڕان","kind":"poi","tier":"poi_detail","priority":50.1,"context":"قوتابخانە","category":"قوتابخانە"},"geometry":{"type":"Point","coordinates":[44.3497056,36.5017184]}},{"type":"Feature","id":"osm-node-9550272560-school","properties":{"id":"osm-node-9550272560-school","name":"قوتابخانەی ئامادەیی بالەکیان تێکەلاو","kind":"poi","tier":"poi_detail","priority":50.1,"context":"قوتابخانە","category":"قوتابخانە"},"geometry":{"type":"Point","coordinates":[44.4940153,36.6563087]}},{"type":"Feature","id":"osm-node-4973065175-school","properties":{"id":"osm-node-4973065175-school","name":"قوتابخانەی ئامادەیی بەدرخانی کوران","kind":"poi","tier":"poi_detail","priority":50.1,"context":"قوتابخانە","category":"قوتابخانە"},"geometry":{"type":"Point","coordinates":[44.3559514,36.5487691]}},{"type":"Feature","id":"osm-node-5172648378-school","properties":{"id":"osm-node-5172648378-school","name":"قوتابخانەی ئامادەیی گۆڤەندی کوڕان","kind":"poi","tier":"poi_detail","priority":50.1,"context":"قوتابخانە","category":"قوتابخانە"},"geometry":{"type":"Point","coordinates":[44.3414182,36.5565731]}},{"type":"Feature","id":"osm-node-5127865922-school","properties":{"id":"osm-node-5127865922-school","name":"قوتابخانەی باتاسی بنەڕەتی","kind":"poi","tier":"poi_detail","priority":50.1,"context":"قوتابخانە","category":"قوتابخانە"},"geometry":{"type":"Point","coordinates":[44.3363571,36.5657317]}},{"type":"Feature","id":"osm-node-9195566281-school","properties":{"id":"osm-node-9195566281-school","name":"قوتابخانەی بانەسەری بنەڕەتی","kind":"poi","tier":"poi_detail","priority":50.1,"context":"قوتابخانە","category":"قوتابخانە"},"geometry":{"type":"Point","coordinates":[44.3975592,36.5993367]}},{"type":"Feature","id":"osm-node-9209914917-school","properties":{"id":"osm-node-9209914917-school","name":"قوتابخانەی بلەی خوارووی بنەڕەتی","kind":"poi","tier":"poi_detail","priority":50.1,"context":"قوتابخانە","category":"قوتابخانە"},"geometry":{"type":"Point","coordinates":[44.4935422,36.5260544]}},{"type":"Feature","id":"osm-node-6060111685-school","properties":{"id":"osm-node-6060111685-school","name":"قوتابخانەی بن چیای بنەڕەتی تێکەڵاو","kind":"poi","tier":"poi_detail","priority":50.1,"context":"قوتابخانە","category":"قوتابخانە"},"geometry":{"type":"Point","coordinates":[44.3404419,36.5690135]}},{"type":"Feature","id":"osm-node-4973105131-school","properties":{"id":"osm-node-4973105131-school","name":"قوتابخانەی بنەرەتی گولەک","kind":"poi","tier":"poi_detail","priority":50.1,"context":"قوتابخانە","category":"قوتابخانە"},"geometry":{"type":"Point","coordinates":[44.3135886,36.603334]}},{"type":"Feature","id":"osm-node-4317281172-school","properties":{"id":"osm-node-4317281172-school","name":"قوتابخانەی بنەڕەتی","kind":"poi","tier":"poi_detail","priority":50.1,"context":"قوتابخانە","category":"قوتابخانە"},"geometry":{"type":"Point","coordinates":[44.3966476,36.5896937]}},{"type":"Feature","id":"osm-node-12492088166-school","properties":{"id":"osm-node-12492088166-school","name":"قوتابخانەی بنەڕەتی ئافریان","kind":"poi","tier":"poi_detail","priority":50.1,"context":"قوتابخانە","category":"قوتابخانە"},"geometry":{"type":"Point","coordinates":[44.2910983,36.6003489]}},{"type":"Feature","id":"osm-node-9981843717-school","properties":{"id":"osm-node-9981843717-school","name":"قوتابخانەی بنەڕەتی ئامۆکا","kind":"poi","tier":"poi_detail","priority":50.1,"context":"قوتابخانە","category":"قوتابخانە"},"geometry":{"type":"Point","coordinates":[44.2833839,36.6242264]}},{"type":"Feature","id":"osm-node-6229179685-school","properties":{"id":"osm-node-6229179685-school","name":"قوتابخانەی بنەڕەتی باویان","kind":"poi","tier":"poi_detail","priority":50.1,"context":"قوتابخانە","category":"قوتابخانە"},"geometry":{"type":"Point","coordinates":[44.3999394,36.6076673]}},{"type":"Feature","id":"osm-node-6897863585-school","properties":{"id":"osm-node-6897863585-school","name":"قوتابخانەی بنەڕەتی بەرازان","kind":"poi","tier":"poi_detail","priority":50.1,"context":"قوتابخانە","category":"قوتابخانە"},"geometry":{"type":"Point","coordinates":[44.2812622,36.5639212]}},{"type":"Feature","id":"osm-node-5081900424-school","properties":{"id":"osm-node-5081900424-school","name":"قوتابخانەی بنەڕەتی خرواتان","kind":"poi","tier":"poi_detail","priority":50.1,"context":"قوتابخانە","category":"قوتابخانە"},"geometry":{"type":"Point","coordinates":[44.3594705,36.5299204]}},{"type":"Feature","id":"osm-node-5380313022-school","properties":{"id":"osm-node-5380313022-school","name":"قوتابخانەی بنەڕەتی دەربەندۆک","kind":"poi","tier":"poi_detail","priority":50.1,"context":"قوتابخانە","category":"قوتابخانە"},"geometry":{"type":"Point","coordinates":[44.309885,36.5821127]}},{"type":"Feature","id":"osm-node-9004210344-school","properties":{"id":"osm-node-9004210344-school","name":"قوتابخانەی بنەڕەتی سورسورەی تێکەڵاو","kind":"poi","tier":"poi_detail","priority":50.1,"context":"قوتابخانە","category":"قوتابخانە"},"geometry":{"type":"Point","coordinates":[44.3493485,36.5080136]}},{"type":"Feature","id":"osm-node-6169329185-school","properties":{"id":"osm-node-6169329185-school","name":"قوتابخانەی بنەڕەتی ماردین","kind":"poi","tier":"poi_detail","priority":50.1,"context":"قوتابخانە","category":"قوتابخانە"},"geometry":{"type":"Point","coordinates":[44.4041979,36.6092298]}},{"type":"Feature","id":"osm-node-5294083230-school","properties":{"id":"osm-node-5294083230-school","name":"قوتابخانەی بنەڕەتی هەنارەی خواروو","kind":"poi","tier":"poi_detail","priority":50.1,"context":"قوتابخانە","category":"قوتابخانە"},"geometry":{"type":"Point","coordinates":[44.3436145,36.6911301]}},{"type":"Feature","id":"osm-node-5294058032-school","properties":{"id":"osm-node-5294058032-school","name":"قوتابخانەی بنەڕەتی گردخیوەت","kind":"poi","tier":"poi_detail","priority":50.1,"context":"قوتابخانە","category":"قوتابخانە"},"geometry":{"type":"Point","coordinates":[44.4895258,36.6781255]}},{"type":"Feature","id":"osm-node-1793557143-school","properties":{"id":"osm-node-1793557143-school","name":"قوتابخانەی بنەڕەتیی بەنۆکە","kind":"poi","tier":"poi_detail","priority":50.1,"context":"قوتابخانە","category":"قوتابخانە"},"geometry":{"type":"Point","coordinates":[44.3206865,36.629727]}},{"type":"Feature","id":"osm-node-4317255061-school","properties":{"id":"osm-node-4317255061-school","name":"قوتابخانەی بنەڕەتیی نێرگزین","kind":"poi","tier":"poi_detail","priority":50.1,"context":"قوتابخانە","category":"قوتابخانە"},"geometry":{"type":"Point","coordinates":[44.3417267,36.6219029]}},