{"type":"FeatureCollection","features":[{"type":"Feature","id":"osm-node-2488259147","properties":{"id":"osm-node-2488259147","name":"ئاقوبانی خواروو","kind":"village","tier":"locality","priority":300,"context":"شەقڵاوە · هەولێر","category":"گوند"},"geometry":{"type":"Point","coordinates":[44.426724,36.352147]}},{"type":"Feature","id":"osm-node-2488259148","properties":{"id":"osm-node-2488259148","name":"ئاقوبانی سەروو","kind":"village","tier":"locality","priority":300,"context":"شەقڵاوە · هەولێر","category":"گوند"},"geometry":{"type":"Point","coordinates":[44.4099088,36.3462918]}},{"type":"Feature","id":"geonames-446226","properties":{"id":"geonames-446226","name":"ئەشکفت","kind":"village","tier":"locality","priority":300,"context":"شەقڵاوە · هەولێر","category":"گوند"},"geometry":{"type":"Point","coordinates":[44.48709,36.4461]}},{"type":"Feature","id":"osm-node-2488268784","properties":{"id":"osm-node-2488268784","name":"ئەشکەفتە","kind":"village","tier":"locality","priority":300,"context":"شەقڵاوە · هەولێر","category":"گوند"},"geometry":{"type":"Point","coordinates":[44.4963289,36.4473469]}},{"type":"Feature","id":"osm-node-2488259149","properties":{"id":"osm-node-2488259149","name":"ئەڵاوە","kind":"village","tier":"locality","priority":300,"context":"شەقڵاوە · هەولێر","category":"گوند"},"geometry":{"type":"Point","coordinates":[44.3366225,36.3032621]}},{"type":"Feature","id":"osm-node-5100099513","properties":{"id":"osm-node-5100099513","name":"باسرمە","kind":"village","tier":"locality","priority":300,"context":"شەقڵاوە · هەولێر","category":"گوند"},"geometry":{"type":"Point","coordinates":[44.3706123,36.4915739]}},{"type":"Feature","id":"osm-node-10055400417","properties":{"id":"osm-node-10055400417","name":"بایزبەگ","kind":"village","tier":"locality","priority":300,"context":"شەقڵاوە · هەولێر","category":"گوند"},"geometry":{"type":"Point","coordinates":[44.4652195,36.2666172]}},{"type":"Feature","id":"osm-node-5345632023","properties":{"id":"osm-node-5345632023","name":"بناری سیساوه","kind":"village","tier":"locality","priority":300,"context":"شەقڵاوە · هەولێر","category":"گوند"},"geometry":{"type":"Point","coordinates":[44.4133781,36.48382]}},{"type":"Feature","id":"osm-node-12372417240","properties":{"id":"osm-node-12372417240","name":"بیرێژی","kind":"village","tier":"locality","priority":300,"context":"شەقڵاوە · هەولێر","category":"گوند"},"geometry":{"type":"Point","coordinates":[44.2673922,36.3579052]}},{"type":"Feature","id":"geonames-446290","properties":{"id":"geonames-446290","name":"بێرش","kind":"village","tier":"locality","priority":300,"context":"شەقڵاوە · هەولێر","category":"گوند"},"geometry":{"type":"Point","coordinates":[44.26766,36.35743]}},{"type":"Feature","id":"osm-node-2488259256","properties":{"id":"osm-node-2488259256","name":"بەرەکە","kind":"village","tier":"locality","priority":300,"context":"شەقڵاوە · هەولێر","category":"گوند"},"geometry":{"type":"Point","coordinates":[44.42118,36.3887]}},{"type":"Feature","id":"osm-node-2488208477","properties":{"id":"osm-node-2488208477","name":"تاراوە","kind":"village","tier":"locality","priority":300,"context":"ڕەواندز · هەولێر","category":"گوند"},"geometry":{"type":"Point","coordinates":[44.4777668,36.4768086]}},{"type":"Feature","id":"osm-node-2488208501","properties":{"id":"osm-node-2488208501","name":"توتمەرە","kind":"village","tier":"locality","priority":300,"context":"ڕەواندز · هەولێر","category":"گوند"},"geometry":{"type":"Point","coordinates":[44.4889364,36.4804269]}},{"type":"Feature","id":"geonames-446357","properties":{"id":"geonames-446357","name":"تۆپزاوا","kind":"village","tier":"locality","priority":300,"context":"شەقڵاوە · هەولێر","category":"گوند"},"geometry":{"type":"Point","coordinates":[44.3225,36.29971]}},{"type":"Feature","id":"osm-node-12372436535","properties":{"id":"osm-node-12372436535","name":"تەوسکە","kind":"village","tier":"locality","priority":300,"context":"شەقڵاوە · هەولێر","category":"گوند"},"geometry":{"type":"Point","coordinates":[44.2952739,36.3848711]}},{"type":"Feature","id":"osm-node-4789968323","properties":{"id":"osm-node-4789968323","name":"حاجی بایز","kind":"village","tier":"locality","priority":300,"context":"شەقڵاوە · هەولێر","category":"گوند"},"geometry":{"type":"Point","coordinates":[44.329955,36.422292]}},{"type":"Feature","id":"osm-node-4973119626","properties":{"id":"osm-node-4973119626","name":"حەسەناوە","kind":"village","tier":"locality","priority":300,"context":"ڕەواندز · هەولێر","category":"گوند"},"geometry":{"type":"Point","coordinates":[44.4214671,36.4753261]}},{"type":"Feature","id":"osm-node-2488259973","properties":{"id":"osm-node-2488259973","name":"خەتیبیان","kind":"village","tier":"locality","priority":300,"context":"شەقڵاوە · هەولێر","category":"گوند"},"geometry":{"type":"Point","coordinates":[44.3302948,36.4871034]}},{"type":"Feature","id":"osm-node-9133861391","properties":{"id":"osm-node-9133861391","name":"دۆرێ","kind":"village","tier":"locality","priority":300,"context":"شەقڵاوە · هەولێر","category":"گوند"},"geometry":{"type":"Point","coordinates":[44.4692305,36.299385]}},{"type":"Feature","id":"osm-way-1481150544","properties":{"id":"osm-way-1481150544","name":"دێ","kind":"village","tier":"locality","priority":300,"context":"ڕەواندز · هەولێر","category":"گوند"},"geometry":{"type":"Point","coordinates":[44.453863844974244,36.468339650000004]}},{"type":"Feature","id":"osm-node-2488259494","properties":{"id":"osm-node-2488259494","name":"دەربەندی شەقڵاوە","kind":"village","tier":"locality","priority":300,"context":"شەقڵاوە · هەولێر","category":"گوند"},"geometry":{"type":"Point","coordinates":[44.35037,36.414016]}},{"type":"Feature","id":"osm-node-2488259495","properties":{"id":"osm-node-2488259495","name":"دەربەندی گۆمەسپان","kind":"village","tier":"locality","priority":300,"context":"شەقڵاوە · هەولێر","category":"گوند"},"geometry":{"type":"Point","coordinates":[44.3263678,36.2755424]}},{"type":"Feature","id":"osm-node-2397628662","properties":{"id":"osm-node-2397628662","name":"سابیراوە","kind":"village","tier":"locality","priority":300,"context":"شەقڵاوە · هەولێر","category":"گوند"},"geometry":{"type":"Point","coordinates":[44.3470917,36.4031697]}},{"type":"Feature","id":"osm-node-2488269856","properties":{"id":"osm-node-2488269856","name":"سارتکە","kind":"village","tier":"locality","priority":300,"context":"شەقڵاوە · هەولێر","category":"گوند"},"geometry":{"type":"Point","coordinates":[44.496264,36.457537]}},{"type":"Feature","id":"osm-node-10055399013","properties":{"id":"osm-node-10055399013","name":"سوسێ","kind":"village","tier":"locality","priority":300,"context":"شەقڵاوە · هەولێر","category":"گوند"},"geometry":{"type":"Point","coordinates":[44.4445854,36.2612592]}},{"type":"Feature","id":"osm-node-9571456873","properties":{"id":"osm-node-9571456873","name":"سولاوکی خوارووا","kind":"village","tier":"locality","priority":300,"context":"شەقڵاوە · هەولێر","category":"گوند"},"geometry":{"type":"Point","coordinates":[44.4093726,36.291394]}},{"type":"Feature","id":"osm-node-9571505917","properties":{"id":"osm-node-9571505917","name":"سولاوکی سەروو","kind":"village","tier":"locality","priority":300,"context":"شەقڵاوە · هەولێر","category":"گوند"},"geometry":{"type":"Point","coordinates":[44.4116458,36.2947604]}},{"type":"Feature","id":"osm-node-2488196515","properties":{"id":"osm-node-2488196515","name":"سپیندارە","kind":"village","tier":"locality","priority":300,"context":"شەقڵاوە · هەولێر","category":"گوند"},"geometry":{"type":"Point","coordinates":[44.4741875,36.3476862]}},{"type":"Feature","id":"osm-node-2488260231","properties":{"id":"osm-node-2488260231","name":"سپیگرە","kind":"village","tier":"locality","priority":300,"context":"شەقڵاوە · هەولێر","category":"گوند"},"geometry":{"type":"Point","coordinates":[44.376588,36.381194]}},{"type":"Feature","id":"osm-node-2488260325","properties":{"id":"osm-node-2488260325","name":"سیساوە","kind":"village","tier":"locality","priority":300,"context":"شەقڵاوە · هەولێر","category":"گوند"},"geometry":{"type":"Point","coordinates":[44.3943403,36.4891082]}},{"type":"Feature","id":"geonames-7097625","properties":{"id":"geonames-7097625","name":"سەری ڕەش","kind":"village","tier":"locality","priority":300,"context":"شەقڵاوە · هەولێر","category":"گوند"},"geometry":{"type":"Point","coordinates":[44.25856,36.34421]}},{"type":"Feature","id":"osm-node-2488208468","properties":{"id":"osm-node-2488208468","name":"شارسینە","kind":"village","tier":"locality","priority":300,"context":"ڕەواندز · هەولێر","category":"گوند"},"geometry":{"type":"Point","coordinates":[44.4777546,36.4870124]}},{"type":"Feature","id":"osm-node-2488260254","properties":{"id":"osm-node-2488260254","name":"شیخ محمودیان","kind":"village","tier":"locality","priority":300,"context":"شەقڵاوە · هەولێر","category":"گوند"},"geometry":{"type":"Point","coordinates":[44.4124,36.46072]}},{"type":"Feature","id":"osm-node-2488260260","properties":{"id":"osm-node-2488260260","name":"شیناوە","kind":"village","tier":"locality","priority":300,"context":"شەقڵاوە · هەولێر","category":"گوند"},"geometry":{"type":"Point","coordinates":[44.393519,36.480126]}},{"type":"Feature","id":"osm-node-2401483508","properties":{"id":"osm-node-2401483508","name":"شێراوە","kind":"village","tier":"locality","priority":300,"context":"شەقڵاوە · هەولێر","category":"گوند"},"geometry":{"type":"Point","coordinates":[44.3015587,36.4813854]}},{"type":"Feature","id":"osm-node-6534854590","properties":{"id":"osm-node-6534854590","name":"شەکرۆک","kind":"village","tier":"locality","priority":300,"context":"شەقڵاوە · هەولێر","category":"گوند"},"geometry":{"type":"Point","coordinates":[44.3947454,36.4627603]}},{"type":"Feature","id":"osm-node-2488260369","properties":{"id":"osm-node-2488260369","name":"عوسمان بەگ","kind":"village","tier":"locality","priority":300,"context":"شەقڵاوە · هەولێر","category":"گوند"},"geometry":{"type":"Point","coordinates":[44.2667777,36.4122971]}},{"type":"Feature","id":"geonames-446366","properties":{"id":"geonames-446366","name":"عەلیاوە","kind":"village","tier":"locality","priority":300,"context":"شەقڵاوە · هەولێر","category":"گوند"},"geometry":{"type":"Point","coordinates":[44.33086,36.30354]}},{"type":"Feature","id":"osm-node-2488260603","properties":{"id":"osm-node-2488260603","name":"فاتاوە","kind":"village","tier":"locality","priority":300,"context":"شەقڵاوە · هەولێر","category":"گوند"},"geometry":{"type":"Point","coordinates":[44.3855931,36.4876265]}},{"type":"Feature","id":"osm-node-2488260096","properties":{"id":"osm-node-2488260096","name":"قادیانە","kind":"village","tier":"locality","priority":300,"context":"شەقڵاوە · هەولێر","category":"گوند"},"geometry":{"type":"Point","coordinates":[44.36222,36.47554]}},{"type":"Feature","id":"osm-node-2488260139","properties":{"id":"osm-node-2488260139","name":"قەسرۆک","kind":"village","tier":"locality","priority":300,"context":"شەقڵاوە · هەولێر","category":"گوند"},"geometry":{"type":"Point","coordinates":[44.3707615,36.4643354]}},{"type":"Feature","id":"osm-node-2488260606","properties":{"id":"osm-node-2488260606","name":"قەلا سنج","kind":"village","tier":"locality","priority":300,"context":"شەقڵاوە · هەولێر","category":"گوند"},"geometry":{"type":"Point","coordinates":[44.3235004,36.3577106]}},{"type":"Feature","id":"osm-node-2488260097","properties":{"id":"osm-node-2488260097","name":"قەلا سنجی خواروو","kind":"village","tier":"locality","priority":300,"context":"شەقڵاوە · هەولێر","category":"گوند"},"geometry":{"type":"Point","coordinates":[44.32671,36.335811]}},{"type":"Feature","id":"osm-node-2488260098","properties":{"id":"osm-node-2488260098","name":"قەلا سنجی سەروو","kind":"village","tier":"locality","priority":300,"context":"شەقڵاوە · هەولێر","category":"گوند"},"geometry":{"type":"Point","coordinates":[44.3234234,36.3569881]}},{"type":"Feature","id":"geonames-92672","properties":{"id":"geonames-92672","name":"قەڵا سنگە","kind":"village","tier":"locality","priority":300,"context":"شەقڵاوە · هەولێر","category":"گوند"},"geometry":{"type":"Point","coordinates":[44.31838,36.33738]}},{"type":"Feature","id":"osm-node-2488260012","properties":{"id":"osm-node-2488260012","name":"لاسە","kind":"village","tier":"locality","priority":300,"context":"شەقڵاوە · هەولێر","category":"گوند"},"geometry":{"type":"Point","coordinates":[44.3867257,36.3976126]}},{"type":"Feature","id":"osm-node-2488260025","properties":{"id":"osm-node-2488260025","name":"مامە جەلکە","kind":"village","tier":"locality","priority":300,"context":"شەقڵاوە · هەولێر","category":"گوند"},"geometry":{"type":"Point","coordinates":[44.3808333,36.4488793]}},{"type":"Feature","id":"osm-node-2488260049","properties":{"id":"osm-node-2488260049","name":"ماوەرانی خواروو","kind":"village","tier":"locality","priority":300,"context":"شەقڵاوە · هەولێر","category":"گوند"},"geometry":{"type":"Point","coordinates":[44.289767,36.457274]}},{"type":"Feature","id":"osm-node-2488260043","properties":{"id":"osm-node-2488260043","name":"ماوەرانی سەروو","kind":"village","tier":"locality","priority":300,"context":"شەقڵاوە · هەولێر","category":"گوند"},"geometry":{"type":"Point","coordinates":[44.310692,36.437461]}},{"type":"Feature","id":"osm-node-2488260057","properties":{"id":"osm-node-2488260057","name":"میراوا","kind":"village","tier":"locality","priority":300,"context":"شەقڵاوە · هەولێر","category":"گوند"},"geometry":{"type":"Point","coordinates":[44.360871,36.4339283]}},{"type":"Feature","id":"osm-way-545557913","properties":{"id":"osm-way-545557913","name":"میراوە","kind":"village","tier":"locality","priority":300,"context":"شەقڵاوە · هەولێر","category":"گوند"},"geometry":{"type":"Point","coordinates":[44.360261122406406,36.434342650000005]}},{"type":"Feature","id":"osm-node-2488260070","properties":{"id":"osm-node-2488260070","name":"میرزا ڕۆستەم","kind":"village","tier":"locality","priority":300,"context":"شەقڵاوە · هەولێر","category":"گوند"},"geometry":{"type":"Point","coordinates":[44.376755,36.459693]}},{"type":"Feature","id":"osm-node-2488260086","properties":{"id":"osm-node-2488260086","name":"ناوداروکان","kind":"village","tier":"locality","priority":300,"context":"شەقڵاوە · هەولێر","category":"گوند"},"geometry":{"type":"Point","coordinates":[44.422965,36.2844906]}},{"type":"Feature","id":"osm-node-2488269303","properties":{"id":"osm-node-2488269303","name":"هەرووتە کۆن","kind":"village","tier":"locality","priority":300,"context":"ڕەواندز · هەولێر","category":"گوند"},"geometry":{"type":"Point","coordinates":[44.497528,36.469389]}},{"type":"Feature","id":"osm-node-2488259732","properties":{"id":"osm-node-2488259732","name":"هەسارە","kind":"village","tier":"locality","priority":300,"context":"شەقڵاوە · هەولێر","category":"گوند"},"geometry":{"type":"Point","coordinates":[44.3508522,36.4142715]}},{"type":"Feature","id":"osm-way-277918446","properties":{"id":"osm-way-277918446","name":"هەنارە","kind":"village","tier":"locality","priority":300,"context":"شەقڵاوە · هەولێر","category":"گوند"},"geometry":{"type":"Point","coordinates":[44.25232927573424,36.2893984]}},{"type":"Feature","id":"osm-node-2488259224","properties":{"id":"osm-node-2488259224","name":"پلنگە","kind":"village","tier":"locality","priority":300,"context":"شەقڵاوە · هەولێر","category":"گوند"},"geometry":{"type":"Point","coordinates":[44.2581471,36.4708293]}},{"type":"Feature","id":"osm-node-2488259405","properties":{"id":"osm-node-2488259405","name":"پونگینە","kind":"village","tier":"locality","priority":300,"context":"شەقڵاوە · هەولێر","category":"گوند"},"geometry":{"type":"Point","coordinates":[44.429741,36.329086]}},{"type":"Feature","id":"geonames-7097616","properties":{"id":"geonames-7097616","name":"پڵنگا","kind":"village","tier":"locality","priority":300,"context":"شەقڵاوە · هەولێر","category":"گوند"},"geometry":{"type":"Point","coordinates":[44.49264,36.28204]}},{"type":"Feature","id":"osm-node-2488259838","properties":{"id":"osm-node-2488259838","name":"چنێران","kind":"village","tier":"locality","priority":300,"context":"شەقڵاوە · هەولێر","category":"گوند"},"geometry":{"type":"Point","coordinates":[44.3892934,36.3690296]}},{"type":"Feature","id":"osm-node-10175455801","properties":{"id":"osm-node-10175455801","name":"کانی کەوان","kind":"village","tier":"locality","priority":300,"context":"شەقڵاوە · هەولێر","category":"گوند"},"geometry":{"type":"Point","coordinates":[44.280493,36.2583104]}},{"type":"Feature","id":"osm-node-2401483509","properties":{"id":"osm-node-2401483509","name":"کونەقیر","kind":"village","tier":"locality","priority":300,"context":"شەقڵاوە · هەولێر","category":"گوند"},"geometry":{"type":"Point","coordinates":[44.2921785,36.4891502]}},{"type":"Feature","id":"osm-node-2488259949","properties":{"id":"osm-node-2488259949","name":"کۆیکان","kind":"village","tier":"locality","priority":300,"context":"شەقڵاوە · هەولێر","category":"گوند"},"geometry":{"type":"Point","coordinates":[44.380237,36.4867495]}},{"type":"Feature","id":"geonames-94768","properties":{"id":"geonames-94768","name":"کیشکە","kind":"village","tier":"locality","priority":300,"context":"شەقڵاوە · هەولێر","category":"گوند"},"geometry":{"type":"Point","coordinates":[44.36139,36.26091]}},{"type":"Feature","id":"osm-node-2488259482","properties":{"id":"osm-node-2488259482","name":"کێشکە","kind":"village","tier":"locality","priority":300,"context":"کۆیە · هەولێر","category":"گوند"},"geometry":{"type":"Point","coordinates":[44.3635902,36.2587789]}},{"type":"Feature","id":"osm-node-2488260010","properties":{"id":"osm-node-2488260010","name":"کەورتیان","kind":"village","tier":"locality","priority":300,"context":"شەقڵاوە · هەولێر","category":"گوند"},"geometry":{"type":"Point","coordinates":[44.4428307,36.3707649]}},{"type":"Feature","id":"geonames-446284","properties":{"id":"geonames-446284","name":"گردە چاڵ","kind":"village","tier":"locality","priority":300,"context":"شەقڵاوە · هەولێر","category":"گوند"},"geometry":{"type":"Point","coordinates":[44.2696,36.40858]}},{"type":"Feature","id":"osm-node-13446473138","properties":{"id":"osm-node-13446473138","name":"گوندی هەنارە","kind":"village","tier":"locality","priority":300,"context":"شەقڵاوە · هەولێر","category":"گوند"},"geometry":{"type":"Point","coordinates":[44.2532506,36.2892658]}},{"type":"Feature","id":"osm-node-2488259649","properties":{"id":"osm-node-2488259649","name":"گۆرەشێری خواروو","kind":"village","tier":"locality","priority":300,"context":"شەقڵاوە · هەولێر","category":"گوند"},"geometry":{"type":"Point","coordinates":[44.2914187,36.3585509]}},{"type":"Feature","id":"osm-node-2488259637","properties":{"id":"osm-node-2488259637","name":"گۆمەسپان","kind":"village","tier":"locality","priority":300,"context":"شەقڵاوە · هەولێر","category":"گوند"},"geometry":{"type":"Point","coordinates":[44.2995929,36.2716498]}},{"type":"Feature","id":"osm-node-2488259642","properties":{"id":"osm-node-2488259642","name":"گۆڕەشێری سەروو","kind":"village","tier":"locality","priority":300,"context":"شەقڵاوە · هەولێر","category":"گوند"},"geometry":{"type":"Point","coordinates":[44.2708663,36.3806762]}},{"type":"Feature","id":"osm-node-2488259570","properties":{"id":"osm-node-2488259570","name":"گەرۆتە","kind":"village","tier":"locality","priority":300,"context":"شەقڵاوە · هەولێر","category":"گوند"},"geometry":{"type":"Point","coordinates":[44.451639,36.313351]}},{"type":"Feature","id":"osm-node-2488259936","properties":{"id":"osm-node-2488259936","name":"گەرەوانی خواروو","kind":"village","tier":"locality","priority":300,"context":"شەقڵاوە · هەولێر","category":"گوند"},"geometry":{"type":"Point","coordinates":[44.4038779,36.4203179]}},{"type":"Feature","id":"osm-node-2488259935","properties":{"id":"osm-node-2488259935","name":"گەرەوانی سەروو","kind":"village","tier":"locality","priority":300,"context":"شەقڵاوە · هەولێر","category":"گوند"},"geometry":{"type":"Point","coordinates":[44.4117399,36.4079028]}},{"type":"Feature","id":"osm-node-2488260393","properties":{"id":"osm-node-2488260393","name":"دۆڵی چۆمە سۆر","kind":"locality","tier":"locality","priority":200,"context":"شەقڵاوە · هەولێر","category":"شوێنی ناوخۆیی"},"geometry":{"type":"Point","coordinates":[44.29317,36.271195]}},{"type":"Feature","id":"osm-natural-mountain-e6bed14303c9f8","properties":{"id":"osm-natural-mountain-e6bed14303c9f8","name":"Chiya-i Harir","kind":"natural","tier":"natural","priority":180,"context":"شاخ · راوندوز · هەولێر","category":"شاخ"},"geometry":{"type":"Point","coordinates":[44.45139,36.46778]}},{"type":"Feature","id":"osm-natural-orchard-28ec83ad3f16bd","properties":{"id":"osm-natural-orchard-28ec83ad3f16bd","name":"GASHA FARM pistachio","kind":"natural","tier":"natural","priority":180,"context":"باخ · شقلاوة · هەولێر","category":"باخ"},"geometry":{"type":"Point","coordinates":[44.3589916,36.2729911]}},{"type":"Feature","id":"osm-natural-mountain-49555f86722883","properties":{"id":"osm-natural-mountain-49555f86722883","name":"Khati Dagh","kind":"natural","tier":"natural","priority":180,"context":"شاخ · شقلاوة · هەولێر","category":"شاخ"},"geometry":{"type":"Point","coordinates":[44.26667,36.48333]}},{"type":"Feature","id":"osm-natural-peak-1c67a77c640154","properties":{"id":"osm-natural-peak-1c67a77c640154","name":"Shakh-i Khidrakhul","kind":"natural","tier":"natural","priority":180,"context":"لوتکە · شقلاوة · هەولێر","category":"لوتکە"},"geometry":{"type":"Point","coordinates":[44.49389,36.39083]}},{"type":"Feature","id":"osm-natural-mountain-8e1f4dd8c3972f","properties":{"id":"osm-natural-mountain-8e1f4dd8c3972f","name":"جبل باني","kind":"natural","tier":"natural","priority":180,"context":"شاخ · شقلاوة · هەولێر","category":"شاخ"},"geometry":{"type":"Point","coordinates":[44.45203,36.42977]}},{"type":"Feature","id":"osm-natural-mountain-39c1c397cc1796","properties":{"id":"osm-natural-mountain-39c1c397cc1796","name":"جبل باني سري","kind":"natural","tier":"natural","priority":180,"context":"شاخ · شقلاوة · هەولێر","category":"شاخ"},"geometry":{"type":"Point","coordinates":[44.38556,36.43069]}},{"type":"Feature","id":"osm-natural-mountain-dd6a38c1e748df","properties":{"id":"osm-natural-mountain-dd6a38c1e748df","name":"جبل بني حرير","kind":"natural","tier":"natural","priority":180,"context":"شاخ · شقلاوة · هەولێر","category":"شاخ"},"geometry":{"type":"Point","coordinates":[44.46759,36.4456]}},{"type":"Feature","id":"osm-natural-peak-dc76457eb280c9","properties":{"id":"osm-natural-peak-dc76457eb280c9","name":"جبل تلاني رش","kind":"natural","tier":"natural","priority":180,"context":"لوتکە · شقلاوة · هەولێر","category":"لوتکە"},"geometry":{"type":"Point","coordinates":[44.43362,36.34473]}},{"type":"Feature","id":"osm-natural-hill-fd9cca97e8beda","properties":{"id":"osm-natural-hill-fd9cca97e8beda","name":"جبل زروكان","kind":"natural","tier":"natural","priority":180,"context":"گرد · شقلاوة · هەولێر","category":"گرد"},"geometry":{"type":"Point","coordinates":[44.45313,36.40529]}},{"type":"Feature","id":"osm-natural-peak-2400ad037cc680","properties":{"id":"osm-natural-peak-2400ad037cc680","name":"جبل زيوكة","kind":"natural","tier":"natural","priority":180,"context":"لوتکە · شقلاوة · هەولێر","category":"لوتکە"},"geometry":{"type":"Point","coordinates":[44.28638,36.38014]}},{"type":"Feature","id":"osm-natural-mountain-1698a3c833caed","properties":{"id":"osm-natural-mountain-1698a3c833caed","name":"جبل سارتكة","kind":"natural","tier":"natural","priority":180,"context":"شاخ · شقلاوة · هەولێر","category":"شاخ"},"geometry":{"type":"Point","coordinates":[44.30022,36.30026]}},{"type":"Feature","id":"osm-natural-peak-52c0fc39405c24","properties":{"id":"osm-natural-peak-52c0fc39405c24","name":"جبل سبي","kind":"natural","tier":"natural","priority":180,"context":"لوتکە · شقلاوة · هەولێر","category":"لوتکە"},"geometry":{"type":"Point","coordinates":[44.25985,36.40149]}},{"type":"Feature","id":"osm-natural-mountain-17e1f25ff9f998","properties":{"id":"osm-natural-mountain-17e1f25ff9f998","name":"جبل سراورد","kind":"natural","tier":"natural","priority":180,"context":"شاخ · راوندوز · هەولێر","category":"شاخ"},"geometry":{"type":"Point","coordinates":[44.45124,36.46636]}},{"type":"Feature","id":"osm-natural-hill-6a2159ff1c57f9","properties":{"id":"osm-natural-hill-6a2159ff1c57f9","name":"جبل سربال","kind":"natural","tier":"natural","priority":180,"context":"گرد · راوندوز · هەولێر","category":"گرد"},"geometry":{"type":"Point","coordinates":[44.49039,36.49658]}},{"type":"Feature","id":"osm-natural-mountain-2a875b654780a2","properties":{"id":"osm-natural-mountain-2a875b654780a2","name":"جبل شاكروك","kind":"natural","tier":"natural","priority":180,"context":"شاخ · شقلاوة · هەولێر","category":"شاخ"},"geometry":{"type":"Point","coordinates":[44.41578,36.43226]}},{"type":"Feature","id":"osm-natural-hill-a3e725a3a281bf","properties":{"id":"osm-natural-hill-a3e725a3a281bf","name":"جبل كاردي مولكا","kind":"natural","tier":"natural","priority":180,"context":"گرد · شقلاوة · هەولێر","category":"گرد"},"geometry":{"type":"Point","coordinates":[44.4042,36.37136]}},{"type":"Feature","id":"osm-natural-mountain-5687deb0fe4a26","properties":{"id":"osm-natural-mountain-5687deb0fe4a26","name":"جبل كرد شور","kind":"natural","tier":"natural","priority":180,"context":"شاخ · شقلاوة · هەولێر","category":"شاخ"},"geometry":{"type":"Point","coordinates":[44.31243,36.42117]}},{"type":"Feature","id":"osm-natural-hill-8aaabf3f88a2f2","properties":{"id":"osm-natural-hill-8aaabf3f88a2f2","name":"جبل كروي سر","kind":"natural","tier":"natural","priority":180,"context":"گرد · شقلاوة · هەولێر","category":"گرد"},"geometry":{"type":"Point","coordinates":[44.42795,36.36176]}},{"type":"Feature","id":"osm-natural-peak-85db9f24b47e60","properties":{"id":"osm-natural-peak-85db9f24b47e60","name":"جبل كلاو قاسم","kind":"natural","tier":"natural","priority":180,"context":"لوتکە · شقلاوة · هەولێر","category":"لوتکە"},"geometry":{"type":"Point","coordinates":[44.48054,36.38512]}},{"type":"Feature","id":"osm-natural-mountain-4088271f2839f1","properties":{"id":"osm-natural-mountain-4088271f2839f1","name":"جبل ميراوة","kind":"natural","tier":"natural","priority":180,"context":"شاخ · شقلاوة · هەولێر","category":"شاخ"},"geometry":{"type":"Point","coordinates":[44.34095,36.4439]}},{"type":"Feature","id":"osm-natural-forest-83d925413a3518","properties":{"id":"osm-natural-forest-83d925413a3518","name":"دارستانی سەفین","kind":"natural","tier":"natural","priority":180,"context":"دارستان · شقلاوة · هەولێر","category":"دارستان"},"geometry":{"type":"Point","coordinates":[44.4528665,36.2926564]}},{"type":"Feature","id":"osm-natural-lake-722c4aa34d3ab9","properties":{"id":"osm-natural-lake-722c4aa34d3ab9","name":"دەریاچەی بەنداوی گۆمەسپان","kind":"natural","tier":"natural","priority":180,"context":"دەریاچە · شقلاوة · هەولێر","category":"دەریاچە"},"geometry":{"type":"Point","coordinates":[44.3398622,36.2828921]}},{"type":"Feature","id":"osm-natural-valley-4d4568aa46d099","properties":{"id":"osm-natural-valley-4d4568aa46d099","name":"سارتكه","kind":"natural","tier":"natural","priority":180,"context":"دۆڵ · شقلاوة · هەولێر","category":"دۆڵ"},"geometry":{"type":"Point","coordinates":[44.33539,36.28197]}},{"type":"Feature","id":"osm-natural-mountain-6644fc8373754d","properties":{"id":"osm-natural-mountain-6644fc8373754d","name":"سلسلة جبال سفين","kind":"natural","tier":"natural","priority":180,"context":"شاخ · شقلاوة · هەولێر","category":"شاخ"},"geometry":{"type":"Point","coordinates":[44.34083,36.35336]}},{"type":"Feature","id":"osm-natural-mountain-388c5d47eaac9c","properties":{"id":"osm-natural-mountain-388c5d47eaac9c","name":"سلسلة سورك لينج","kind":"natural","tier":"natural","priority":180,"context":"شاخ · شقلاوة · هەولێر","category":"شاخ"},"geometry":{"type":"Point","coordinates":[44.29485,36.42977]}},{"type":"Feature","id":"osm-natural-peak-1c6647fd5d0127","properties":{"id":"osm-natural-peak-1c6647fd5d0127","name":"قمة بشتي زينة","kind":"natural","tier":"natural","priority":180,"context":"لوتکە · شقلاوة · هەولێر","category":"لوتکە"},"geometry":{"type":"Point","coordinates":[44.49135,36.40414]}},{"type":"Feature","id":"osm-natural-peak-feccd43a53440f","properties":{"id":"osm-natural-peak-feccd43a53440f","name":"قمة تش حاج ملك","kind":"natural","tier":"natural","priority":180,"context":"لوتکە · شقلاوة · هەولێر","category":"لوتکە"},"geometry":{"type":"Point","coordinates":[44.44579,36.33631]}},{"type":"Feature","id":"osm-natural-peak-383be09801e3f0","properties":{"id":"osm-natural-peak-383be09801e3f0","name":"قمة تشي آقوبان","kind":"natural","tier":"natural","priority":180,"context":"لوتکە · شقلاوة · هەولێر","category":"لوتکە"},"geometry":{"type":"Point","coordinates":[44.40657,36.35784]}},{"type":"Feature","id":"osm-natural-peak-f71aa5f754afc9","properties":{"id":"osm-natural-peak-f71aa5f754afc9","name":"قمة تشي جتيران","kind":"natural","tier":"natural","priority":180,"context":"لوتکە · شقلاوة · هەولێر","category":"لوتکە"},"geometry":{"type":"Point","coordinates":[44.40059,36.36045]}},{"type":"Feature","id":"osm-natural-peak-e5d04bdd68bcb0","properties":{"id":"osm-natural-peak-e5d04bdd68bcb0","name":"قمة تلاني كونه اسبنداره","kind":"natural","tier":"natural","priority":180,"context":"لوتکە · شقلاوة · هەولێر","category":"لوتکە"},"geometry":{"type":"Point","coordinates":[44.46672,36.3224]}},{"type":"Feature","id":"osm-natural-peak-6f8728dec9a05e","properties":{"id":"osm-natural-peak-6f8728dec9a05e","name":"قمة سر شاخوار","kind":"natural","tier":"natural","priority":180,"context":"لوتکە · شقلاوة · هەولێر","category":"لوتکە"},"geometry":{"type":"Point","coordinates":[44.42408,36.33133]}},{"type":"Feature","id":"osm-natural-peak-f13c9ed43b08c8","properties":{"id":"osm-natural-peak-f13c9ed43b08c8","name":"قمة سفين","kind":"natural","tier":"natural","priority":180,"context":"لوتکە · شقلاوة · هەولێر","category":"لوتکە"},"geometry":{"type":"Point","coordinates":[44.3743,36.34343]}},{"type":"Feature","id":"osm-natural-peak-c7e42ca7cd0b9f","properties":{"id":"osm-natural-peak-c7e42ca7cd0b9f","name":"قمة كبجي سوراوه","kind":"natural","tier":"natural","priority":180,"context":"لوتکە · راوندوز · هەولێر","category":"لوتکە"},"geometry":{"type":"Point","coordinates":[44.44525,36.47335]}},{"type":"Feature","id":"osm-natural-peak-fef64c35ab63a5","properties":{"id":"osm-natural-peak-fef64c35ab63a5","name":"قمة كرد درور","kind":"natural","tier":"natural","priority":180,"context":"لوتکە · راوندوز · هەولێر","category":"لوتکە"},"geometry":{"type":"Point","coordinates":[44.47083,36.48042]}},{"type":"Feature","id":"osm-natural-peak-da13569cdf10f3","properties":{"id":"osm-natural-peak-da13569cdf10f3","name":"قمة كردي سار","kind":"natural","tier":"natural","priority":180,"context":"لوتکە · شقلاوة · هەولێر","category":"لوتکە"},"geometry":{"type":"Point","coordinates":[44.42944,36.36299]}},{"type":"Feature","id":"osm-natural-peak-42ecdd612529e6","properties":{"id":"osm-natural-peak-42ecdd612529e6","name":"قمة كردي فولكة","kind":"natural","tier":"natural","priority":180,"context":"لوتکە · شقلاوة · هەولێر","category":"لوتکە"},"geometry":{"type":"Point","coordinates":[44.39771,36.37984]}},{"type":"Feature","id":"osm-natural-peak-e7248fd840efc8","properties":{"id":"osm-natural-peak-e7248fd840efc8","name":"قمة كورك","kind":"natural","tier":"natural","priority":180,"context":"لوتکە · شقلاوة · هەولێر","category":"لوتکە"},"geometry":{"type":"Point","coordinates":[44.26964,36.31744]}},{"type":"Feature","id":"osm-natural-peak-4780ba76bc86db","properties":{"id":"osm-natural-peak-4780ba76bc86db","name":"قمة ناوداري","kind":"natural","tier":"natural","priority":180,"context":"لوتکە · شقلاوة · هەولێر","category":"لوتکە"},"geometry":{"type":"Point","coordinates":[44.25744,36.3761]}},{"type":"Feature","id":"osm-natural-valley-41b5cd9e43b889","properties":{"id":"osm-natural-valley-41b5cd9e43b889","name":"وادي جومي سور","kind":"natural","tier":"natural","priority":180,"context":"دۆڵ · شقلاوة · هەولێر","category":"دۆڵ"},"geometry":{"type":"Point","coordinates":[44.25512,36.28127]}},{"type":"Feature","id":"osm-natural-valley-b728993fe5bd85","properties":{"id":"osm-natural-valley-b728993fe5bd85","name":"وادي جيشكه","kind":"natural","tier":"natural","priority":180,"context":"دۆڵ · شقلاوة · هەولێر","category":"دۆڵ"},"geometry":{"type":"Point","coordinates":[44.3791,36.27714]}},{"type":"Feature","id":"osm-natural-valley-fe7f8950c361e7","properties":{"id":"osm-natural-valley-fe7f8950c361e7","name":"وادي دورتر","kind":"natural","tier":"natural","priority":180,"context":"دۆڵ · شقلاوة · هەولێر","category":"دۆڵ"},"geometry":{"type":"Point","coordinates":[44.40914,36.457]}},{"type":"Feature","id":"osm-natural-valley-805cb06b6d5f1f","properties":{"id":"osm-natural-valley-805cb06b6d5f1f","name":"وادي شقلاوه","kind":"natural","tier":"natural","priority":180,"context":"دۆڵ · شقلاوة · هەولێر","category":"دۆڵ"},"geometry":{"type":"Point","coordinates":[44.34682,36.42156]}},{"type":"Feature","id":"osm-natural-valley-777cf1aca382f6","properties":{"id":"osm-natural-valley-777cf1aca382f6","name":"وادي ماما جلكا","kind":"natural","tier":"natural","priority":180,"context":"دۆڵ · شقلاوة · هەولێر","category":"دۆڵ"},"geometry":{"type":"Point","coordinates":[44.39335,36.43222]}},{"type":"Feature","id":"osm-natural-valley-c4150aedd01bfd","properties":{"id":"osm-natural-valley-c4150aedd01bfd","name":"وادي مركة","kind":"natural","tier":"natural","priority":180,"context":"دۆڵ · شقلاوة · هەولێر","category":"دۆڵ"},"geometry":{"type":"Point","coordinates":[44.39604,36.39237]}},{"type":"Feature","id":"osm-natural-stream-33c8d3afe7b1a2","properties":{"id":"osm-natural-stream-33c8d3afe7b1a2","name":"چەمی سەرتکە","kind":"natural","tier":"natural","priority":180,"context":"جۆگە · شقلاوة · هەولێر","category":"جۆگە"},"geometry":{"type":"Point","coordinates":[44.3372014,36.2838649]}},{"type":"Feature","id":"road-label-osm-way-365264429","properties":{"id":"road-label-osm-way-365264429","name":"Erbil-Akre Road","kind":"road","tier":"road","priority":95,"context":"trunk · شقلاوة · هەولێر","category":"ڕێگا"},"geometry":{"type":"Point","coordinates":[44.325591,36.430238]}},{"type":"Feature","id":"road-label-osm-way-365264430","properties":{"id":"road-label-osm-way-365264430","name":"تونێلی میراوا","kind":"road","tier":"road","priority":95,"context":"trunk · شقلاوة · هەولێر","category":"ڕێگا"},"geometry":{"type":"Point","coordinates":[44.370058,36.431232]}},{"type":"Feature","id":"road-label-osm-way-595234597","properties":{"id":"road-label-osm-way-595234597","name":"ڕێگای شەقراوە","kind":"road","tier":"road","priority":95,"context":"trunk · شقلاوة · هەولێر","category":"ڕێگا"},"geometry":{"type":"Point","coordinates":[44.262542,36.417506]}},{"type":"Feature","id":"road-label-osm-way-365264431","properties":{"id":"road-label-osm-way-365264431","name":"ڕێگای هەولێر - ئاکرێ","kind":"road","tier":"road","priority":95,"context":"trunk · شقلاوة · هەولێر","category":"ڕێگا"},"geometry":{"type":"Point","coordinates":[44.376451,36.445392]}},{"type":"Feature","id":"road-label-osm-way-1457085778","properties":{"id":"road-label-osm-way-1457085778","name":"ڕێگای هەولێر - سلێمانی","kind":"road","tier":"road","priority":95,"context":"trunk · شقلاوة · هەولێر","category":"ڕێگا"},"geometry":{"type":"Point","coordinates":[44.345232,36.275748]}},{"type":"Feature","id":"road-label-osm-way-1457085779","properties":{"id":"road-label-osm-way-1457085779","name":"ڕێگای هەولێر - سلێمانی","kind":"road","tier":"road","priority":95,"context":"trunk · شقلاوة · هەولێر","category":"ڕێگا"},"geometry":{"type":"Point","coordinates":[44.317803,36.268767]}},{"type":"Feature","id":"road-label-osm-way-365287679","properties":{"id":"road-label-osm-way-365287679","name":"Shaqlawa - Harir Road","kind":"road","tier":"road","priority":93,"context":"trunk · شقلاوة · هەولێر","category":"ڕێگا"},"geometry":{"type":"Point","coordinates":[44.385358,36.457303]}},{"type":"Feature","id":"road-label-osm-way-1462437979","properties":{"id":"road-label-osm-way-1462437979","name":"ڕێگای پیرمام - شەقراوە","kind":"road","tier":"road","priority":93,"context":"trunk · شقلاوة · هەولێر","category":"ڕێگا"},"geometry":{"type":"Point","coordinates":[44.359666,36.42871]}},{"type":"Feature","id":"road-label-osm-way-1486293219","properties":{"id":"road-label-osm-way-1486293219","name":"ڕێگای پیرمام - شەقراوە","kind":"road","tier":"road","priority":93,"context":"trunk · شقلاوة · هەولێر","category":"ڕێگا"},"geometry":{"type":"Point","coordinates":[44.272301,36.427606]}},{"type":"Feature","id":"road-label-osm-way-340059191","properties":{"id":"road-label-osm-way-340059191","name":"59","kind":"road","tier":"road","priority":88,"context":"primary · شقلاوة · هەولێر","category":"ڕێگا"},"geometry":{"type":"Point","coordinates":[44.253079,36.291518]}},{"type":"Feature","id":"road-label-osm-way-223597972","properties":{"id":"road-label-osm-way-223597972","name":"Sarmaidan Street","kind":"road","tier":"road","priority":88,"context":"primary · شقلاوة · هەولێر","category":"ڕێگا"},"geometry":{"type":"Point","coordinates":[44.308672,36.408863]}},{"type":"Feature","id":"road-label-osm-way-298635062","properties":{"id":"road-label-osm-way-298635062","name":"Zinatir Road","kind":"road","tier":"road","priority":88,"context":"primary · شقلاوة · هەولێر","category":"ڕێگا"},"geometry":{"type":"Point","coordinates":[44.458881,36.438992]}},{"type":"Feature","id":"road-label-osm-way-179104526","properties":{"id":"road-label-osm-way-179104526","name":"رێگای جیای سەفین","kind":"road","tier":"road","priority":88,"context":"primary · شقلاوة · هەولێر","category":"ڕێگا"},"geometry":{"type":"Point","coordinates":[44.426194,36.306014]}},{"type":"Feature","id":"road-label-osm-way-523973798","properties":{"id":"road-label-osm-way-523973798","name":"شەقامی سەرمایدان","kind":"road","tier":"road","priority":88,"context":"primary · شقلاوة · هەولێر","category":"ڕێگا"},"geometry":{"type":"Point","coordinates":[44.332171,36.396937]}},{"type":"Feature","id":"road-label-osm-way-668550710","properties":{"id":"road-label-osm-way-668550710","name":"شەقامی سەرمایدان","kind":"road","tier":"road","priority":88,"context":"primary · شقلاوة · هەولێر","category":"ڕێگا"},"geometry":{"type":"Point","coordinates":[44.324691,36.40106]}},{"type":"Feature","id":"road-label-osm-way-223597973","properties":{"id":"road-label-osm-way-223597973","name":"شەقامی سەرمەیدان","kind":"road","tier":"road","priority":88,"context":"primary · شقلاوة · هەولێر","category":"ڕێگا"},"geometry":{"type":"Point","coordinates":[44.309622,36.408687]}},{"type":"Feature","id":"road-label-osm-way-46890962","properties":{"id":"road-label-osm-way-46890962","name":"ڕێگای هیران-شەقراوە","kind":"road","tier":"road","priority":88,"context":"primary · شقلاوة · هەولێر","category":"ڕێگا"},"geometry":{"type":"Point","coordinates":[44.420408,36.332348]}},{"type":"Feature","id":"road-label-osm-way-137132106","properties":{"id":"road-label-osm-way-137132106","name":"ڕێگای پیرمام - شەقراوە","kind":"road","tier":"road","priority":88,"context":"primary · شقلاوة · هەولێر","category":"ڕێگا"},"geometry":{"type":"Point","coordinates":[44.284013,36.420135]}},{"type":"Feature","id":"road-label-osm-way-1494325813","properties":{"id":"road-label-osm-way-1494325813","name":"ڕێگای کۆیە","kind":"road","tier":"road","priority":88,"context":"primary · شقلاوة · هەولێر","category":"ڕێگا"},"geometry":{"type":"Point","coordinates":[44.30258,36.264084]}},{"type":"Feature","id":"road-label-osm-way-293386080","properties":{"id":"road-label-osm-way-293386080","name":"Friz Road","kind":"road","tier":"road","priority":72,"context":"secondary · شقلاوة · هەولێر","category":"ڕێگا"},"geometry":{"type":"Point","coordinates":[44.496883,36.316207]}},{"type":"Feature","id":"road-label-osm-way-179104531","properties":{"id":"road-label-osm-way-179104531","name":"Sktan-Hiran-Ranya-Harir Road","kind":"road","tier":"road","priority":72,"context":"secondary · شقلاوة · هەولێر","category":"ڕێگا"},"geometry":{"type":"Point","coordinates":[44.409813,36.410277]}},{"type":"Feature","id":"road-label-osm-way-1486293217","properties":{"id":"road-label-osm-way-1486293217","name":"sarkand road","kind":"road","tier":"road","priority":72,"context":"secondary · شقلاوة · هەولێر","category":"ڕێگا"},"geometry":{"type":"Point","coordinates":[44.267339,36.423133]}},{"type":"Feature","id":"road-label-osm-way-298908110","properties":{"id":"road-label-osm-way-298908110","name":"ڕێگای تەوسکە","kind":"road","tier":"road","priority":72,"context":"secondary · شقلاوة · هەولێر","category":"ڕێگا"},"geometry":{"type":"Point","coordinates":[44.317522,36.366607]}},{"type":"Feature","id":"road-label-osm-way-486827303","properties":{"id":"road-label-osm-way-486827303","name":"ڕێگای شەقراوە - تەوسکە","kind":"road","tier":"road","priority":72,"context":"secondary · شقلاوة · هەولێر","category":"ڕێگا"},"geometry":{"type":"Point","coordinates":[44.264189,36.418097]}},{"type":"Feature","id":"road-label-osm-way-223597991","properties":{"id":"road-label-osm-way-223597991","name":"ڕێگای پیرمام - شەقراوە","kind":"road","tier":"road","priority":72,"context":"secondary · شقلاوة · هەولێر","category":"ڕێگا"},"geometry":{"type":"Point","coordinates":[44.322281,36.413688]}},{"type":"Feature","id":"road-label-osm-way-137132111","properties":{"id":"road-label-osm-way-137132111","name":"ڕێگای پیرمام - شەقراوە","kind":"road","tier":"road","priority":72,"context":"secondary · شقلاوة · هەولێر","category":"ڕێگا"},"geometry":{"type":"Point","coordinates":[44.297569,36.417569]}},{"type":"Feature","id":"road-label-osm-way-1062288803","properties":{"id":"road-label-osm-way-1062288803","name":"بازاری شەقراوە","kind":"road","tier":"road","priority":70,"context":"secondary · شقلاوة · هەولێر","category":"ڕێگا"},"geometry":{"type":"Point","coordinates":[44.345178,36.403378]}},{"type":"Feature","id":"road-label-osm-way-558441011","properties":{"id":"road-label-osm-way-558441011","name":"Harutakawn Road","kind":"road","tier":"road","priority":55,"context":"tertiary · راوندوز · هەولێر","category":"ڕێگا"},"geometry":{"type":"Point","coordinates":[44.49202,36.464565]}},{"type":"Feature","id":"road-label-osm-way-293386075","properties":{"id":"road-label-osm-way-293386075","name":"Hiran-Harir Road","kind":"road","tier":"road","priority":55,"context":"tertiary · شقلاوة · هەولێر","category":"ڕێگا"},"geometry":{"type":"Point","coordinates":[44.454491,36.332595]}},{"type":"Feature","id":"road-label-osm-way-968281698","properties":{"id":"road-label-osm-way-968281698","name":"Sartka-Harutakawn Road","kind":"road","tier":"road","priority":55,"context":"tertiary · شقلاوة · هەولێر","category":"ڕێگا"},"geometry":{"type":"Point","coordinates":[44.485573,36.457617]}},{"type":"Feature","id":"road-label-osm-way-333789311","properties":{"id":"road-label-osm-way-333789311","name":"Shaqlawa - Harir Road","kind":"road","tier":"road","priority":55,"context":"tertiary · شقلاوة · هەولێر","category":"ڕێگا"},"geometry":{"type":"Point","coordinates":[44.37764,36.430783]}},{"type":"Feature","id":"road-label-osm-way-558441015","properties":{"id":"road-label-osm-way-558441015","name":"Tutmara Road","kind":"road","tier":"road","priority":55,"context":"tertiary · راوندوز · هەولێر","category":"ڕێگا"},"geometry":{"type":"Point","coordinates":[44.485771,36.472515]}},{"type":"Feature","id":"road-label-osm-way-365247817","properties":{"id":"road-label-osm-way-365247817","name":"sork street","kind":"road","tier":"road","priority":55,"context":"tertiary · شقلاوة · هەولێر","category":"ڕێگا"},"geometry":{"type":"Point","coordinates":[44.317613,36.410053]}},{"type":"Feature","id":"road-label-osm-way-1062288804","properties":{"id":"road-label-osm-way-1062288804","name":"بازاری شەقراوە","kind":"road","tier":"road","priority":55,"context":"tertiary · شقلاوة · هەولێر","category":"ڕێگا"},"geometry":{"type":"Point","coordinates":[44.342809,36.401891]}},{"type":"Feature","id":"road-label-osm-way-1062288802","properties":{"id":"road-label-osm-way-1062288802","name":"بازاڕی شەقراوە","kind":"road","tier":"road","priority":55,"context":"tertiary · شقلاوة · هەولێر","category":"ڕێگا"},"geometry":{"type":"Point","coordinates":[44.34065,36.402747]}},{"type":"Feature","id":"road-label-osm-way-973070144","properties":{"id":"road-label-osm-way-973070144","name":"جادەی فاتاوە","kind":"road","tier":"road","priority":55,"context":"tertiary · شقلاوة · هەولێر","category":"ڕێگا"},"geometry":{"type":"Point","coordinates":[44.381826,36.491487]}},{"type":"Feature","id":"road-label-osm-way-46890460","properties":{"id":"road-label-osm-way-46890460","name":"جادەی قادیانە","kind":"road","tier":"road","priority":55,"context":"tertiary · شقلاوة · هەولێر","category":"ڕێگا"},"geometry":{"type":"Point","coordinates":[44.36669,36.471956]}},{"type":"Feature","id":"road-label-osm-way-298436174","properties":{"id":"road-label-osm-way-298436174","name":"جادەی ماوەران","kind":"road","tier":"road","priority":55,"context":"tertiary · شقلاوة · هەولێر","category":"ڕێگا"},"geometry":{"type":"Point","coordinates":[44.314684,36.438221]}},{"type":"Feature","id":"road-label-osm-way-529622226","properties":{"id":"road-label-osm-way-529622226","name":"جادەی پلنگە","kind":"road","tier":"road","priority":55,"context":"tertiary · شقلاوة · هەولێر","category":"ڕێگا"},"geometry":{"type":"Point","coordinates":[44.268739,36.463615]}},{"type":"Feature","id":"road-label-osm-way-1486293218","properties":{"id":"road-label-osm-way-1486293218","name":"ڕێگای شەقراوە - تەوسکە","kind":"road","tier":"road","priority":55,"context":"tertiary · شقلاوة · هەولێر","category":"ڕێگا"},"geometry":{"type":"Point","coordinates":[44.27478,36.423123]}},{"type":"Feature","id":"road-label-osm-way-531286509","properties":{"id":"road-label-osm-way-531286509","name":"گوندی قەسرۆک","kind":"road","tier":"road","priority":55,"context":"tertiary · شقلاوة · هەولێر","category":"ڕێگا"},"geometry":{"type":"Point","coordinates":[44.372999,36.463301]}},{"type":"Feature","id":"road-label-osm-way-531286508","properties":{"id":"road-label-osm-way-531286508","name":"گوندی میر رۆستەمە","kind":"road","tier":"road","priority":55,"context":"tertiary · شقلاوة · هەولێر","category":"ڕێگا"},"geometry":{"type":"Point","coordinates":[44.378294,36.457068]}},{"type":"Feature","id":"osm-node-9452064617-hospital","properties":{"id":"osm-node-9452064617-hospital","name":"بنکەی تەندروستی باسرمە","kind":"poi","tier":"poi_landmark","priority":95.1,"context":"نەخۆشخانە","category":"نەخۆشخانە"},"geometry":{"type":"Point","coordinates":[44.3503663,36.4960887]}},{"type":"Feature","id":"osm-node-4965533037-hospital","properties":{"id":"osm-node-4965533037-hospital","name":"بنکەی تەندروستی سیساوە","kind":"poi","tier":"poi_landmark","priority":95.1,"context":"نەخۆشخانە","category":"نەخۆشخانە"},"geometry":{"type":"Point","coordinates":[44.3950029,36.4909355]}},{"type":"Feature","id":"osm-node-5244427321-hospital","properties":{"id":"osm-node-5244427321-hospital","name":"بنکەی تەندروستی مامە جەلکە","kind":"poi","tier":"poi_landmark","priority":95.1,"context":"نەخۆشخانە","category":"نەخۆشخانە"},"geometry":{"type":"Point","coordinates":[44.3816402,36.4495008]}},{"type":"Feature","id":"osm-node-9091340918-hospital","properties":{"id":"osm-node-9091340918-hospital","name":"بنکەی تەندروستی هیران","kind":"poi","tier":"poi_landmark","priority":95.1,"context":"نەخۆشخانە","category":"نەخۆشخانە"},"geometry":{"type":"Point","coordinates":[44.4947151,36.2778307]}},{"type":"Feature","id":"osm-node-12148351613-hospital","properties":{"id":"osm-node-12148351613-hospital","name":"بنکەی تەندروستی پونگینە","kind":"poi","tier":"poi_landmark","priority":95.1,"context":"نەخۆشخانە","category":"نەخۆشخانە"},"geometry":{"type":"Point","coordinates":[44.4271242,36.3270042]}},{"type":"Feature","id":"osm-node-4563051993-hospital","properties":{"id":"osm-node-4563051993-hospital","name":"نەخۆشخانەی شەقڵاوە","kind":"poi","tier":"poi_landmark","priority":95.1,"context":"نەخۆشخانە","category":"نەخۆشخانە"},"geometry":{"type":"Point","coordinates":[44.3139648,36.4062097]}},{"type":"Feature","id":"osm-way-786606661-building","properties":{"id":"osm-way-786606661-building","name":"shaqlawa hospital","kind":"poi","tier":"poi_landmark","priority":95.055,"context":"نەخۆشخانە","category":"نەخۆشخانە"},"geometry":{"type":"Point","coordinates":[44.314301,36.4059261]}},{"type":"Feature","id":"osm-way-800455177-university","properties":{"id":"osm-way-800455177-university","name":"nergiz primary school","kind":"poi","tier":"poi_landmark","priority":94.092,"context":"زانکۆ","category":"زانکۆ"},"geometry":{"type":"Point","coordinates":[44.3122711,36.4098436]}},{"type":"Feature","id":"osm-way-800455181-university","properties":{"id":"osm-way-800455181-university","name":"بەیمانکای وەرزشی شەقلاوە","kind":"poi","tier":"poi_landmark","priority":94.092,"context":"زانکۆ","category":"زانکۆ"},"geometry":{"type":"Point","coordinates":[44.311163,36.4102455]}},{"type":"Feature","id":"osm-way-792224261-university","properties":{"id":"osm-way-792224261-university","name":"خوێندنگەی سافی","kind":"poi","tier":"poi_landmark","priority":94.092,"context":"زانکۆ","category":"زانکۆ"},"geometry":{"type":"Point","coordinates":[44.3098158,36.4107326]}},{"type":"Feature","id":"osm-way-831447430-university","properties":{"id":"osm-way-831447430-university","name":"کۆلێژی تەکنیکیی شەقڵاوە","kind":"poi","tier":"poi_landmark","priority":94.092,"context":"زانکۆ","category":"زانکۆ"},"geometry":{"type":"Point","coordinates":[44.3107434,36.4067052]}},{"type":"Feature","id":"osm-way-889036512-building","properties":{"id":"osm-way-889036512-building","name":"بەشی سیستەمی زانیاری کارگێری","kind":"poi","tier":"poi_landmark","priority":94.055,"context":"زانکۆ","category":"زانکۆ"},"geometry":{"type":"Point","coordinates":[44.3109641,36.406466]}},{"type":"Feature","id":"osm-node-5751822621-bank","properties":{"id":"osm-node-5751822621-bank","name":"بانکی سۆرک","kind":"poi","tier":"poi_landmark","priority":92.1,"context":"بانک","category":"بانک"},"geometry":{"type":"Point","coordinates":[44.3290142,36.3977804]}},{"type":"Feature","id":"osm-way-457303194-military","properties":{"id":"osm-way-457303194-military","name":"Safeen Minefield","kind":"poi","tier":"poi_regional","priority":80.045,"context":"بنکەی سەربازی","category":"بنکەی سەربازی"},"geometry":{"type":"Point","coordinates":[44.394807,36.3316322]}},{"type":"Feature","id":"osm-way-1105039419-mall","properties":{"id":"osm-way-1105039419-mall","name":"Nergalay Nali","kind":"poi","tier":"poi_regional","priority":78.092,"context":"مەوڵ","category":"مەوڵ"},"geometry":{"type":"Point","coordinates":[44.3401571,36.4026792]}},{"type":"Feature","id":"osm-way-298444896-stadium","properties":{"id":"osm-way-298444896-stadium","name":"یاریگای شەقڵاوە","kind":"poi","tier":"poi_regional","priority":76.092,"context":"یاریگا","category":"یاریگا"},"geometry":{"type":"Point","coordinates":[44.3182625,36.404296]}},{"type":"Feature","id":"osm-way-532676831-stadium","properties":{"id":"osm-way-532676831-stadium","name":"یاریگای کۆلێژی تەکنیکی شەقڵاوە","kind":"poi","tier":"poi_regional","priority":76.092,"context":"یاریگا","category":"یاریگا"},"geometry":{"type":"Point","coordinates":[44.3096479,36.4070468]}},{"type":"Feature","id":"osm-node-8993068074-college","properties":{"id":"osm-node-8993068074-college","name":"Shaqlawa Private Institute","kind":"poi","tier":"poi_detail","priority":50.1,"context":"کۆلێژ","category":"کۆلێژ"},"geometry":{"type":"Point","coordinates":[44.3222988,36.4135624]}},{"type":"Feature","id":"osm-node-3492933751-attraction","properties":{"id":"osm-node-3492933751-attraction","name":"Shrine of Raban Boya","kind":"poi","tier":"poi_detail","priority":50.1,"context":"شوێنی گەشتیاری","category":"شوێنی گەشتیاری"},"geometry":{"type":"Point","coordinates":[44.3287029,36.3909924]}},{"type":"Feature","id":"osm-node-5426869021-attraction","properties":{"id":"osm-node-5426869021-attraction","name":"ئاقوبان","kind":"poi","tier":"poi_detail","priority":50.1,"context":"شوێنی گەشتیاری","category":"شوێنی گەشتیاری"},"geometry":{"type":"Point","coordinates":[44.4076763,36.3452589]}},{"type":"Feature","id":"osm-node-4704040389-attraction","properties":{"id":"osm-node-4704040389-attraction","name":"بیرێژ","kind":"poi","tier":"poi_detail","priority":50.1,"context":"شوێنی گەشتیاری","category":"شوێنی گەشتیاری"},"geometry":{"type":"Point","coordinates":[44.2658284,36.3585426]}},{"type":"Feature","id":"osm-node-5032664226-attraction","properties":{"id":"osm-node-5032664226-attraction","name":"حلاقە","kind":"poi","tier":"poi_detail","priority":50.1,"context":"شوێنی گەشتیاری","category":"شوێنی گەشتیاری"},"geometry":{"type":"Point","coordinates":[44.3432017,36.3917231]}},{"type":"Feature","id":"osm-node-7992410085-attraction","properties":{"id":"osm-node-7992410085-attraction","name":"سەرچیای سەفین","kind":"poi","tier":"poi_detail","priority":50.1,"context":"شوێنی گەشتیاری","category":"شوێنی گەشتیاری"},"geometry":{"type":"Point","coordinates":[44.4346887,36.3147062]}},{"type":"Feature","id":"osm-node-7206417785-attraction","properties":{"id":"osm-node-7206417785-attraction","name":"غابات حاج کیلان","kind":"poi","tier":"poi_detail","priority":50.1,"context":"شوێنی گەشتیاری","category":"شوێنی گەشتیاری"},"geometry":{"type":"Point","coordinates":[44.3230526,36.3262776]}},{"type":"Feature","id":"osm-node-11881387969-attraction","properties":{"id":"osm-node-11881387969-attraction","name":"غابە ومی شقلاوە","kind":"poi","tier":"poi_detail","priority":50.1,"context":"شوێنی گەشتیاری","category":"شوێنی گەشتیاری"},"geometry":{"type":"Point","coordinates":[44.2613173,36.4060312]}},{"type":"Feature","id":"osm-node-11343151869-attraction","properties":{"id":"osm-node-11343151869-attraction","name":"فحص وهزە شقلاوه (محمد عبدالباری)","kind":"poi","tier":"poi_detail","priority":50.1,"context":"شوێنی گەشتیاری","category":"شوێنی گەشتیاری"},"geometry":{"type":"Point","coordinates":[44.3569059,36.4251972]}},{"type":"Feature","id":"osm-node-5003915924-attraction","properties":{"id":"osm-node-5003915924-attraction","name":"محل مشروبات","kind":"poi","tier":"poi_detail","priority":50.1,"context":"شوێنی گەشتیاری","category":"شوێنی گەشتیاری"},"geometry":{"type":"Point","coordinates":[44.3431,36.3971199]}},{"type":"Feature","id":"osm-node-12894682401-attraction","properties":{"id":"osm-node-12894682401-attraction","name":"محمد شهاب","kind":"poi","tier":"poi_detail","priority":50.1,"context":"شوێنی گەشتیاری","category":"شوێنی گەشتیاری"},"geometry":{"type":"Point","coordinates":[44.2572567,36.4345404]}},{"type":"Feature","id":"osm-node-5751935036-attraction","properties":{"id":"osm-node-5751935036-attraction","name":"مزگەوتی حاجی رشید","kind":"poi","tier":"poi_detail","priority":50.1,"context":"شوێنی گەشتیاری","category":"شوێنی گەشتیاری"},"geometry":{"type":"Point","coordinates":[44.3068338,36.4091812]}},{"type":"Feature","id":"osm-node-8887405817-attraction","properties":{"id":"osm-node-8887405817-attraction","name":"منتجع العراق روز اربیل","kind":"poi","tier":"poi_detail","priority":50.1,"context":"شوێنی گەشتیاری","category":"شوێنی گەشتیاری"},"geometry":{"type":"Point","coordinates":[44.2727104,36.4311349]}},{"type":"Feature","id":"osm-node-11035359705-attraction","properties":{"id":"osm-node-11035359705-attraction","name":"منتجع روز السیاحی ( شقق )","kind":"poi","tier":"poi_detail","priority":50.1,"context":"شوێنی گەشتیاری","category":"شوێنی گەشتیاری"},"geometry":{"type":"Point","coordinates":[44.2728527,36.4312768]}},{"type":"Feature","id":"osm-node-5032646637-attraction","properties":{"id":"osm-node-5032646637-attraction","name":"هیران","kind":"poi","tier":"poi_detail","priority":50.1,"context":"شوێنی گەشتیاری","category":"شوێنی گەشتیاری"},"geometry":{"type":"Point","coordinates":[44.351223,36.3890853]}},{"type":"Feature","id":"osm-node-11491246469-attraction","properties":{"id":"osm-node-11491246469-attraction","name":"کراج السیارە","kind":"poi","tier":"poi_detail","priority":50.1,"context":"شوێنی گەشتیاری","category":"شوێنی گەشتیاری"},"geometry":{"type":"Point","coordinates":[44.3435698,36.4015098]}},{"type":"Feature","id":"osm-node-6897959687-college","properties":{"id":"osm-node-6897959687-college","name":"کۆلیژی پەروەردەی شەقڵاوە","kind":"poi","tier":"poi_detail","priority":50.1,"context":"کۆلێژ","category":"کۆلێژ"},"geometry":{"type":"Point","coordinates":[44.3087025,36.4146957]}},{"type":"Feature","id":"osm-node-6897983185-college","properties":{"id":"osm-node-6897983185-college","name":"کۆلیژی پەروەردەی شەقڵاوە","kind":"poi","tier":"poi_detail","priority":50.1,"context":"کۆلێژ","category":"کۆلێژ"},"geometry":{"type":"Point","coordinates":[44.309226,36.4145606]}},{"type":"Feature","id":"osm-node-11656222479-convenience","properties":{"id":"osm-node-11656222479-convenience","name":"فاستپەی","kind":"poi","tier":"poi_landmark","priority":90.1,"context":"فاست‌پەی","category":"فاست‌پەی"},"geometry":{"type":"Point","coordinates":[44.340667,36.4028509]}},{"type":"Feature","id":"osm-node-12046094773-fuel","properties":{"id":"osm-node-12046094773-fuel","name":"Biner Oil","kind":"poi","tier":"poi_regional","priority":82.094,"context":"وێستگەی سووتەمەنی","category":"وێستگەی سووتەمەنی"},"geometry":{"type":"Point","coordinates":[44.2635824,36.4184662]}},{"type":"Feature","id":"osm-node-3761361944-fuel","properties":{"id":"osm-node-3761361944-fuel","name":"oil","kind":"poi","tier":"poi_regional","priority":82.094,"context":"وێستگەی سووتەمەنی","category":"وێستگەی سووتەمەنی"},"geometry":{"type":"Point","coordinates":[44.4413513,36.3172847]}},{"type":"Feature","id":"osm-node-5352490123-fuel","properties":{"id":"osm-node-5352490123-fuel","name":"بەنزین خانەی گڵ","kind":"poi","tier":"poi_regional","priority":82.094,"context":"وێستگەی سووتەمەنی","category":"وێستگەی سووتەمەنی"},"geometry":{"type":"Point","coordinates":[44.295483,36.4172347]}},{"type":"Feature","id":"osm-node-5063488828-fuel","properties":{"id":"osm-node-5063488828-fuel","name":"بەنزینخانەی ئاسوودە","kind":"poi","tier":"poi_regional","priority":82.094,"context":"وێستگەی سووتەمەنی","category":"وێستگەی سووتەمەنی"},"geometry":{"type":"Point","coordinates":[44.2632136,36.4121467]}},{"type":"Feature","id":"osm-node-5490704822-fuel","properties":{"id":"osm-node-5490704822-fuel","name":"بەنزینخانەی حسن اغا","kind":"poi","tier":"poi_regional","priority":82.094,"context":"وێستگەی سووتەمەنی","category":"وێستگەی سووتەمەنی"},"geometry":{"type":"Point","coordinates":[44.3060417,36.4096261]}},{"type":"Feature","id":"osm-node-4984382121-fuel","properties":{"id":"osm-node-4984382121-fuel","name":"بەنزینخانەی رەزگە","kind":"poi","tier":"poi_regional","priority":82.094,"context":"وێستگەی سووتەمەنی","category":"وێستگەی سووتەمەنی"},"geometry":{"type":"Point","coordinates":[44.3645227,36.4957141]}},{"type":"Feature","id":"osm-node-5063488829-fuel","properties":{"id":"osm-node-5063488829-fuel","name":"بەنزینخانەی شیناوە","kind":"poi","tier":"poi_regional","priority":82.094,"context":"وێستگەی سووتەمەنی","category":"وێستگەی سووتەمەنی"},"geometry":{"type":"Point","coordinates":[44.3972352,36.4733375]}},{"type":"Feature","id":"osm-node-5029818521-fuel","properties":{"id":"osm-node-5029818521-fuel","name":"بەنزینخانەی شەقلاوەی نوێ","kind":"poi","tier":"poi_regional","priority":82.094,"context":"وێستگەی سووتەمەنی","category":"وێستگەی سووتەمەنی"},"geometry":{"type":"Point","coordinates":[44.35194,36.41004]}},{"type":"Feature","id":"osm-node-6360692187-fuel","properties":{"id":"osm-node-6360692187-fuel","name":"بەنزینخانەی مام نادر","kind":"poi","tier":"poi_regional","priority":82.094,"context":"وێستگەی سووتەمەنی","category":"وێستگەی سووتەمەنی"},"geometry":{"type":"Point","coordinates":[44.3516561,36.409293]}},{"type":"Feature","id":"osm-node-5064096422-fuel","properties":{"id":"osm-node-5064096422-fuel","name":"بەنزینخانەی مەریوان","kind":"poi","tier":"poi_regional","priority":82.094,"context":"وێستگەی سووتەمەنی","category":"وێستگەی سووتەمەنی"},"geometry":{"type":"Point","coordinates":[44.3517042,36.409384]}},{"type":"Feature","id":"osm-node-7206418188-fuel","properties":{"id":"osm-node-7206418188-fuel","name":"محطە وقود","kind":"poi","tier":"poi_regional","priority":82.094,"context":"وێستگەی سووتەمەنی","category":"وێستگەی سووتەمەنی"},"geometry":{"type":"Point","coordinates":[44.3000107,36.2633741]}},{"type":"Feature","id":"osm-node-5018536924-fuel","properties":{"id":"osm-node-5018536924-fuel","name":"وێستگەی سوتەمەنی ئەیوب","kind":"poi","tier":"poi_regional","priority":82.094,"context":"وێستگەی سووتەمەنی","category":"وێستگەی سووتەمەنی"},"geometry":{"type":"Point","coordinates":[44.3148419,36.4165439]}},{"type":"Feature","id":"osm-node-5132333923-fuel","properties":{"id":"osm-node-5132333923-fuel","name":"وێستگەی سوتەمەنی بالیسان","kind":"poi","tier":"poi_regional","priority":82.094,"context":"وێستگەی سووتەمەنی","category":"وێستگەی سووتەمەنی"},"geometry":{"type":"Point","coordinates":[44.3823233,36.4704776]}},{"type":"Feature","id":"osm-node-4979519423-fuel","properties":{"id":"osm-node-4979519423-fuel","name":"وێستگەی سوتەمەنی دلشاد","kind":"poi","tier":"poi_regional","priority":82.094,"context":"وێستگەی سووتەمەنی","category":"وێستگەی سووتەمەنی"},"geometry":{"type":"Point","coordinates":[44.3530466,36.4183448]}},{"type":"Feature","id":"osm-node-4984381321-fuel","properties":{"id":"osm-node-4984381321-fuel","name":"وێستگەی سوتەمەنی مام حەکیم","kind":"poi","tier":"poi_regional","priority":82.094,"context":"وێستگەی سووتەمەنی","category":"وێستگەی سووتەمەنی"},"geometry":{"type":"Point","coordinates":[44.3814833,36.4532642]}},{"type":"Feature","id":"osm-node-4984381322-fuel","properties":{"id":"osm-node-4984381322-fuel","name":"وێستگەی سوتەمەنی ڕاستی","kind":"poi","tier":"poi_regional","priority":82.094,"context":"وێستگەی سووتەمەنی","category":"وێستگەی سووتەمەنی"},"geometry":{"type":"Point","coordinates":[44.3859008,36.4573818]}},{"type":"Feature","id":"osm-node-4428685790-fuel","properties":{"id":"osm-node-4428685790-fuel","name":"وێستگەی سوتەمەنی ڕەهەند","kind":"poi","tier":"poi_regional","priority":82.094,"context":"وێستگەی سووتەمەنی","category":"وێستگەی سووتەمەنی"},"geometry":{"type":"Point","coordinates":[44.3100329,36.4082804]}},{"type":"Feature","id":"osm-node-5869126385-fuel","properties":{"id":"osm-node-5869126385-fuel","name":"وێستگەی سوتەمەنی کۆرێ","kind":"poi","tier":"poi_regional","priority":82.094,"context":"وێستگەی سووتەمەنی","category":"وێستگەی سووتەمەنی"},"geometry":{"type":"Point","coordinates":[44.2537828,36.402428]}},{"type":"Feature","id":"osm-way-1047619900-fuel","properties":{"id":"osm-way-1047619900-fuel","name":"Al Qasab Oil","kind":"poi","tier":"poi_regional","priority":82.086,"context":"وێستگەی سووتەمەنی","category":"وێستگەی سووتەمەنی"},"geometry":{"type":"Point","coordinates":[44.2782395,36.4231794]}},{"type":"Feature","id":"osm-way-847333305-fuel","properties":{"id":"osm-way-847333305-fuel","name":"ayub","kind":"poi","tier":"poi_regional","priority":82.086,"context":"وێستگەی سووتەمەنی","category":"وێستگەی سووتەمەنی"},"geometry":{"type":"Point","coordinates":[44.3147896,36.4165031]}},{"type":"Feature","id":"osm-node-11203272550-police","properties":{"id":"osm-node-11203272550-police","name":"Bazzar Police Station","kind":"poi","tier":"poi_regional","priority":77.1,"context":"بنکەی پۆلیس","category":"بنکەی پۆلیس"},"geometry":{"type":"Point","coordinates":[44.3393064,36.4028973]}},{"type":"Feature","id":"osm-node-6180795686-police","properties":{"id":"osm-node-6180795686-police","name":"Shaqlawa Police Station","kind":"poi","tier":"poi_regional","priority":77.1,"context":"بنکەی پۆلیس","category":"بنکەی پۆلیس"},"geometry":{"type":"Point","coordinates":[44.3160022,36.4069649]}},{"type":"Feature","id":"osm-node-7991504186-police","properties":{"id":"osm-node-7991504186-police","name":"بنکەی بولیس","kind":"poi","tier":"poi_regional","priority":77.1,"context":"بنکەی پۆلیس","category":"بنکەی پۆلیس"},"geometry":{"type":"Point","coordinates":[44.3307609,36.3988363]}},{"type":"Feature","id":"osm-node-9452156136-police","properties":{"id":"osm-node-9452156136-police","name":"بنکەی پۆلیسی باسرمە","kind":"poi","tier":"poi_regional","priority":77.1,"context":"بنکەی پۆلیس","category":"بنکەی پۆلیس"},"geometry":{"type":"Point","coordinates":[44.3609909,36.4971815]}},{"type":"Feature","id":"osm-node-7206418187-police","properties":{"id":"osm-node-7206418187-police","name":"شرطە طوارئ","kind":"poi","tier":"poi_regional","priority":77.1,"context":"بنکەی پۆلیس","category":"بنکەی پۆلیس"},"geometry":{"type":"Point","coordinates":[44.3012249,36.2632926]}},{"type":"Feature","id":"osm-node-7771082386-police","properties":{"id":"osm-node-7771082386-police","name":"فەرمان مرور","kind":"poi","tier":"poi_regional","priority":77.1,"context":"بنکەی پۆلیس","category":"بنکەی پۆلیس"},"geometry":{"type":"Point","coordinates":[44.3019004,36.4130926]}},{"type":"Feature","id":"osm-node-6755010137-car_dealership","properties":{"id":"osm-node-6755010137-car_dealership","name":"Daro Car Show","kind":"poi","tier":"poi_regional","priority":76.1,"context":"پێشانگای ئۆتۆمبیل","category":"پێشانگای ئۆتۆمبیل"},"geometry":{"type":"Point","coordinates":[44.3972431,36.4671574]}},{"type":"Feature","id":"osm-node-5678567721-car_dealership","properties":{"id":"osm-node-5678567721-car_dealership","name":"فەرهەنگ فیتەر","kind":"poi","tier":"poi_regional","priority":76.1,"context":"پێشانگای ئۆتۆمبیل","category":"پێشانگای ئۆتۆمبیل"},"geometry":{"type":"Point","coordinates":[44.2654451,36.4256381]}},{"type":"Feature","id":"osm-node-5194537932-car_dealership","properties":{"id":"osm-node-5194537932-car_dealership","name":"پێشانگای برایەتی","kind":"poi","tier":"poi_regional","priority":76.1,"context":"پێشانگای ئۆتۆمبیل","category":"پێشانگای ئۆتۆمبیل"},"geometry":{"type":"Point","coordinates":[44.3978941,36.4769592]}},{"type":"Feature","id":"osm-way-1301016561-residential","properties":{"id":"osm-way-1301016561-residential","name":"بایزبەگ","kind":"poi","tier":"poi_local","priority":68.045,"context":"کۆمپاوندی نیشتەجێبوون","category":"کۆمپاوندی نیشتەجێبوون"},"geometry":{"type":"Point","coordinates":[44.4651698,36.2669765]}},{"type":"Feature","id":"osm-way-18328399-residential","properties":{"id":"osm-way-18328399-residential","name":"بیرێژی","kind":"poi","tier":"poi_local","priority":68.045,"context":"کۆمپاوندی نیشتەجێبوون","category":"کۆمپاوندی نیشتەجێبوون"},"geometry":{"type":"Point","coordinates":[44.2673314,36.3580793]}},{"type":"Feature","id":"osm-way-18328342-residential","properties":{"id":"osm-way-18328342-residential","name":"تەوسکە","kind":"poi","tier":"poi_local","priority":68.045,"context":"کۆمپاوندی نیشتەجێبوون","category":"کۆمپاوندی نیشتەجێبوون"},"geometry":{"type":"Point","coordinates":[44.2952156,36.3848512]}},{"type":"Feature","id":"osm-way-518331250-residential","properties":{"id":"osm-way-518331250-residential","name":"زیارەت","kind":"poi","tier":"poi_local","priority":68.045,"context":"کۆمپاوندی نیشتەجێبوون","category":"کۆمپاوندی نیشتەجێبوون"},"geometry":{"type":"Point","coordinates":[44.3932645,36.2988399]}},{"type":"Feature","id":"osm-way-793328090-residential","properties":{"id":"osm-way-793328090-residential","name":"لاسە","kind":"poi","tier":"poi_local","priority":68.045,"context":"کۆمپاوندی نیشتەجێبوون","category":"کۆمپاوندی نیشتەجێبوون"},"geometry":{"type":"Point","coordinates":[44.3828531,36.4001843]}},{"type":"Feature","id":"osm-way-737291339-residential","properties":{"id":"osm-way-737291339-residential","name":"مخیم مجمع بصرما","kind":"poi","tier":"poi_local","priority":68.045,"context":"کۆمپاوندی نیشتەجێبوون","category":"کۆمپاوندی نیشتەجێبوون"},"geometry":{"type":"Point","coordinates":[44.3408007,36.4970752]}},{"type":"Feature","id":"osm-way-18330278-residential","properties":{"id":"osm-way-18330278-residential","name":"کێشکە","kind":"poi","tier":"poi_local","priority":68.045,"context":"کۆمپاوندی نیشتەجێبوون","category":"کۆمپاوندی نیشتەجێبوون"},"geometry":{"type":"Point","coordinates":[44.3638361,36.2588685]}},{"type":"Feature","id":"osm-way-1389033640-industrial","properties":{"id":"osm-way-1389033640-industrial","name":"Dabin Cement Factory","kind":"poi","tier":"poi_local","priority":66.045,"context":"ناوچەی پیشەسازی","category":"ناوچەی پیشەسازی"},"geometry":{"type":"Point","coordinates":[44.3864492,36.2573346]}},{"type":"Feature","id":"osm-way-723107717-industrial","properties":{"id":"osm-way-723107717-industrial","name":"Shaqlawa Substation","kind":"poi","tier":"poi_local","priority":66.045,"context":"ناوچەی پیشەسازی","category":"ناوچەی پیشەسازی"},"geometry":{"type":"Point","coordinates":[44.3416025,36.4203123]}},{"type":"Feature","id":"osm-way-299023183-industrial","properties":{"id":"osm-way-299023183-industrial","name":"ناوچەی پیشەسازی شەقڵاوە","kind":"poi","tier":"poi_local","priority":66.045,"context":"ناوچەی پیشەسازی","category":"ناوچەی پیشەسازی"},"geometry":{"type":"Point","coordinates":[44.2658595,36.425794]}},{"type":"Feature","id":"osm-node-5235094921-supermarket","properties":{"id":"osm-node-5235094921-supermarket","name":"Bana supermarket","kind":"poi","tier":"poi_detail","priority":50.1,"context":"سۆپەرمارکێت","category":"سۆپەرمارکێت"},"geometry":{"type":"Point","coordinates":[44.3073134,36.4091917]}},{"type":"Feature","id":"osm-node-8913014110-supermarket","properties":{"id":"osm-node-8913014110-supermarket","name":"Barzayakani Shaqlawa Harzan Market","kind":"poi","tier":"poi_detail","priority":50.1,"context":"سۆپەرمارکێت","category":"سۆپەرمارکێت"},"geometry":{"type":"Point","coordinates":[44.3212983,36.4138302]}},{"type":"Feature","id":"osm-node-6855481085-supermarket","properties":{"id":"osm-node-6855481085-supermarket","name":"DRD","kind":"poi","tier":"poi_detail","priority":50.1,"context":"سۆپەرمارکێت","category":"سۆپەرمارکێت"},"geometry":{"type":"Point","coordinates":[44.3301716,36.3985955]}},{"type":"Feature","id":"osm-node-8993511945-school","properties":{"id":"osm-node-8993511945-school","name":"Kaysa Elementary School","kind":"poi","tier":"poi_detail","priority":50.1,"context":"قوتابخانە","category":"قوتابخانە"},"geometry":{"type":"Point","coordinates":[44.3478342,36.4052437]}},{"type":"Feature","id":"osm-node-8993441035-pharmacy","properties":{"id":"osm-node-8993441035-pharmacy","name":"Saday Shaqlawa Pharmacy","kind":"poi","tier":"poi_detail","priority":50.1,"context":"دەرمانخانە","category":"دەرمانخانە"},"geometry":{"type":"Point","coordinates":[44.3388561,36.3935912]}},{"type":"Feature","id":"osm-node-6852688085-school","properties":{"id":"osm-node-6852688085-school","name":"Safeen Private School","kind":"poi","tier":"poi_detail","priority":50.1,"context":"قوتابخانە","category":"قوتابخانە"},"geometry":{"type":"Point","coordinates":[44.3316192,36.4008008]}},{"type":"Feature","id":"osm-node-4563075692-fire_station","properties":{"id":"osm-node-4563075692-fire_station","name":"ئاگر کوژێنەوە","kind":"poi","tier":"poi_detail","priority":50.1,"context":"بنکەی ئاگرکوژێنەوە","category":"بنکەی ئاگرکوژێنەوە"},"geometry":{"type":"Point","coordinates":[44.3316414,36.3969524]}},{"type":"Feature","id":"osm-node-7206418186-clinic","properties":{"id":"osm-node-7206418186-clinic","name":"اسعاف فوری 122","kind":"poi","tier":"poi_detail","priority":50.1,"context":"کلینیک","category":"کلینیک"},"geometry":{"type":"Point","coordinates":[44.3017628,36.2629154]}},{"type":"Feature","id":"osm-node-10180238917-school","properties":{"id":"osm-node-10180238917-school","name":"المدرسه الوفاء المختلطە","kind":"poi","tier":"poi_detail","priority":50.1,"context":"قوتابخانە","category":"قوتابخانە"},"geometry":{"type":"Point","coordinates":[44.3179729,36.4112579]}},{"type":"Feature","id":"osm-node-5697300724-kindergarten","properties":{"id":"osm-node-5697300724-kindergarten","name":"باخچەی ساوایانی سەرمەیدان","kind":"poi","tier":"poi_detail","priority":50.1,"context":"باخچەی ساوایان","category":"باخچەی ساوایان"},"geometry":{"type":"Point","coordinates":[44.309365,36.4101567]}},{"type":"Feature","id":"osm-node-5697300725-kindergarten","properties":{"id":"osm-node-5697300725-kindergarten","name":"باخچەی ساوایانی شەقلاوە","kind":"poi","tier":"poi_detail","priority":50.1,"context":"باخچەی ساوایان","category":"باخچەی ساوایان"},"geometry":{"type":"Point","coordinates":[44.2786655,36.4251419]}},{"type":"Feature","id":"osm-node-8325730517-hotel","properties":{"id":"osm-node-8325730517-hotel","name":"بانەنۆک","kind":"poi","tier":"poi_detail","priority":50.1,"context":"هۆتێل","category":"هۆتێل"},"geometry":{"type":"Point","coordinates":[44.3594721,36.3827416]}},{"type":"Feature","id":"osm-node-8400841217-hotel","properties":{"id":"osm-node-8400841217-hotel","name":"بانەنۆک","kind":"poi","tier":"poi_detail","priority":50.1,"context":"هۆتێل","category":"هۆتێل"},"geometry":{"type":"Point","coordinates":[44.3592293,36.383055]}},{"type":"Feature","id":"osm-node-5603587226-fire_station","properties":{"id":"osm-node-5603587226-fire_station","name":"بنکەی بەرگری شارستانی باسرمە","kind":"poi","tier":"poi_detail","priority":50.1,"context":"بنکەی ئاگرکوژێنەوە","category":"بنکەی ئاگرکوژێنەوە"},"geometry":{"type":"Point","coordinates":[44.3495475,36.498431]}},{"type":"Feature","id":"osm-node-5509059328-clinic","properties":{"id":"osm-node-5509059328-clinic","name":"بنکەی تەندروستیی سەفین","kind":"poi","tier":"poi_detail","priority":50.1,"context":"کلینیک","category":"کلینیک"},"geometry":{"type":"Point","coordinates":[44.3447695,36.4005801]}},{"type":"Feature","id":"osm-node-4563082390-school","properties":{"id":"osm-node-4563082390-school","name":"بنکەی فێرکردنی قوڕئانی پیرۆز","kind":"poi","tier":"poi_detail","priority":50.1,"context":"قوتابخانە","category":"قوتابخانە"},"geometry":{"type":"Point","coordinates":[44.3102927,36.4096572]}},{"type":"Feature","id":"osm-node-5020443022-restaurant","properties":{"id":"osm-node-5020443022-restaurant","name":"بيتزا و همبركر ريزدار","kind":"poi","tier":"poi_detail","priority":50.1,"context":"چێشتخانە","category":"چێشتخانە"},"geometry":{"type":"Point","coordinates":[44.3136929,36.4068614]}},{"type":"Feature","id":"osm-node-4398491390-hotel","properties":{"id":"osm-node-4398491390-hotel","name":"بەسمە سەفیز","kind":"poi","tier":"poi_detail","priority":50.1,"context":"هۆتێل","category":"هۆتێل"},"geometry":{"type":"Point","coordinates":[44.34447,36.4017793]}},{"type":"Feature","id":"osm-node-5032664225-supermarket","properties":{"id":"osm-node-5032664225-supermarket","name":"تیم مارت - سۆرک","kind":"poi","tier":"poi_detail","priority":50.1,"context":"سۆپەرمارکێت","category":"سۆپەرمارکێت"},"geometry":{"type":"Point","coordinates":[44.331499,36.3972306]}},{"type":"Feature","id":"osm-node-4979529921-supermarket","properties":{"id":"osm-node-4979529921-supermarket","name":"تیم مارت - شەقلاوە","kind":"poi","tier":"poi_detail","priority":50.1,"context":"سۆپەرمارکێت","category":"سۆپەرمارکێت"},"geometry":{"type":"Point","coordinates":[44.3202061,36.4143569]}},{"type":"Feature","id":"osm-node-10633910208-restaurant","properties":{"id":"osm-node-10633910208-restaurant","name":"حدائق سفین","kind":"poi","tier":"poi_detail","priority":50.1,"context":"چێشتخانە","category":"چێشتخانە"},"geometry":{"type":"Point","coordinates":[44.2773254,36.4221862]}},{"type":"Feature","id":"osm-node-9741951870-restaurant","properties":{"id":"osm-node-9741951870-restaurant","name":"خواردنگەی ئیسماعیل کاوێس","kind":"poi","tier":"poi_detail","priority":50.1,"context":"چێشتخانە","category":"چێشتخانە"},"geometry":{"type":"Point","coordinates":[44.339388,36.4029704]}},{"type":"Feature","id":"osm-node-9634460346-restaurant","properties":{"id":"osm-node-9634460346-restaurant","name":"خواردنگەی سەفین","kind":"poi","tier":"poi_detail","priority":50.1,"context":"چێشتخانە","category":"چێشتخانە"},"geometry":{"type":"Point","coordinates":[44.3398139,36.4027228]}},{"type":"Feature","id":"osm-node-5770745154-restaurant","properties":{"id":"osm-node-5770745154-restaurant","name":"خواردنگەی لوقمان","kind":"poi","tier":"poi_detail","priority":50.1,"context":"چێشتخانە","category":"چێشتخانە"},"geometry":{"type":"Point","coordinates":[44.3532082,36.4146023]}},{"type":"Feature","id":"osm-node-4563095395-school","properties":{"id":"osm-node-4563095395-school","name":"خوێندنگەی کۆمەڵگەی شەقڵاوە","kind":"poi","tier":"poi_detail","priority":50.1,"context":"قوتابخانە","category":"قوتابخانە"},"geometry":{"type":"Point","coordinates":[44.279311,36.4246983]}},{"type":"Feature","id":"osm-node-5490673723-supermarket","properties":{"id":"osm-node-5490673723-supermarket","name":"دوکانی دابین","kind":"poi","tier":"poi_detail","priority":50.1,"context":"سۆپەرمارکێت","category":"سۆپەرمارکێت"},"geometry":{"type":"Point","coordinates":[44.3141351,36.4110666]}},{"type":"Feature","id":"osm-node-5650584722-pharmacy","properties":{"id":"osm-node-5650584722-pharmacy","name":"دەرمانخانەی بەخشین","kind":"poi","tier":"poi_detail","priority":50.1,"context":"دەرمانخانە","category":"دەرمانخانە"},"geometry":{"type":"Point","coordinates":[44.3148594,36.4065729]}},{"type":"Feature","id":"osm-node-5751822721-supermarket","properties":{"id":"osm-node-5751822721-supermarket","name":"سوپەر مارکێتی ئایە","kind":"poi","tier":"poi_detail","priority":50.1,"context":"سۆپەرمارکێت","category":"سۆپەرمارکێت"},"geometry":{"type":"Point","coordinates":[44.3293976,36.3982211]}},{"type":"Feature","id":"osm-node-6852711386-supermarket","properties":{"id":"osm-node-6852711386-supermarket","name":"سوپەرمارکێتی نۆڤا ستی","kind":"poi","tier":"poi_detail","priority":50.1,"context":"سۆپەرمارکێت","category":"سۆپەرمارکێت"},"geometry":{"type":"Point","coordinates":[44.342834,36.4017412]}},{"type":"Feature","id":"osm-node-5081885021-hotel","properties":{"id":"osm-node-5081885021-hotel","name":"شقق رازاو السياحي","kind":"poi","tier":"poi_detail","priority":50.1,"context":"هۆتێل","category":"هۆتێل"},"geometry":{"type":"Point","coordinates":[44.3388047,36.4018997]}},{"type":"Feature","id":"osm-node-6267823986-hotel","properties":{"id":"osm-node-6267823986-hotel","name":"شقق کیوان","kind":"poi","tier":"poi_detail","priority":50.1,"context":"هۆتێل","category":"هۆتێل"},"geometry":{"type":"Point","coordinates":[44.340953,36.4020057]}},{"type":"Feature","id":"osm-node-5056545121-supermarket","properties":{"id":"osm-node-5056545121-supermarket","name":"فرۆشگای برایەتی","kind":"poi","tier":"poi_detail","priority":50.1,"context":"سۆپەرمارکێت","category":"سۆپەرمارکێت"},"geometry":{"type":"Point","coordinates":[44.3746274,36.4344208]}},{"type":"Feature","id":"osm-node-5194512248-supermarket","properties":{"id":"osm-node-5194512248-supermarket","name":"فرۆشگای شاڵاو","kind":"poi","tier":"poi_detail","priority":50.1,"context":"سۆپەرمارکێت","category":"سۆپەرمارکێت"},"geometry":{"type":"Point","coordinates":[44.3976576,36.4732492]}},{"type":"Feature","id":"osm-node-5064095221-supermarket","properties":{"id":"osm-node-5064095221-supermarket","name":"فرۆشگای هەرێم","kind":"poi","tier":"poi_detail","priority":50.1,"context":"سۆپەرمارکێت","category":"سۆپەرمارکێت"},"geometry":{"type":"Point","coordinates":[44.381373,36.4541189]}},{"type":"Feature","id":"osm-node-5899740485-hotel","properties":{"id":"osm-node-5899740485-hotel","name":"فندق البلد الامین","kind":"poi","tier":"poi_detail","priority":50.1,"context":"هۆتێل","category":"هۆتێل"},"geometry":{"type":"Point","coordinates":[44.3348965,36.3954575]}},{"type":"Feature","id":"osm-node-6873721685-hotel","properties":{"id":"osm-node-6873721685-hotel","name":"فندق شقلاوە اول مبنئ فندق فی شقلاوە","kind":"poi","tier":"poi_detail","priority":50.1,"context":"هۆتێل","category":"هۆتێل"},"geometry":{"type":"Point","coordinates":[44.3448601,36.401433]}},{"type":"Feature","id":"osm-node-7991523686-school","properties":{"id":"osm-node-7991523686-school","name":"قوتابخانەی ئەدای شیر","kind":"poi","tier":"poi_detail","priority":50.1,"context":"قوتابخانە","category":"قوتابخانە"},"geometry":{"type":"Point","coordinates":[44.3438002,36.3909718]}},{"type":"Feature","id":"osm-node-9091301817-school","properties":{"id":"osm-node-9091301817-school","name":"قوتابخانەی بنەڕەتی ئیبراهیم ناسر","kind":"poi","tier":"poi_detail","priority":50.1,"context":"قوتابخانە","category":"قوتابخانە"},"geometry":{"type":"Point","coordinates":[44.3442753,36.3984512]}},{"type":"Feature","id":"osm-node-6567003085-school","properties":{"id":"osm-node-6567003085-school","name":"قوتابخانەی بنەڕەتی دەربەندی شەقڵاوە","kind":"poi","tier":"poi_detail","priority":50.1,"context":"قوتابخانە","category":"قوتابخانە"},"geometry":{"type":"Point","coordinates":[44.3519247,36.4114202]}},{"type":"Feature","id":"osm-node-5150193041-school","properties":{"id":"osm-node-5150193041-school","name":"قوتابخانەی بنەڕەتی سیساوە","kind":"poi","tier":"poi_detail","priority":50.1,"context":"قوتابخانە","category":"قوتابخانە"},"geometry":{"type":"Point","coordinates":[44.3941562,36.490488]}},{"type":"Feature","id":"osm-node-5603587223-school","properties":{"id":"osm-node-5603587223-school","name":"قوتابخانەی بنەڕەتی قەسرۆک","kind":"poi","tier":"poi_detail","priority":50.1,"context":"قوتابخانە","category":"قوتابخانە"},"geometry":{"type":"Point","coordinates":[44.3708638,36.4653592]}},{"type":"Feature","id":"osm-node-5603587222-school","properties":{"id":"osm-node-5603587222-school","name":"قوتابخانەی بنەڕەتی میرزا ڕۆستەم","kind":"poi","tier":"poi_detail","priority":50.1,"context":"قوتابخانە","category":"قوتابخانە"},"geometry":{"type":"Point","coordinates":[44.3781739,36.4574903]}},{"type":"Feature","id":"osm-node-5244431221-school","properties":{"id":"osm-node-5244431221-school","name":"قوتابخانەی بنەڕەتیی مامە جەلکە","kind":"poi","tier":"poi_detail","priority":50.1,"context":"قوتابخانە","category":"قوتابخانە"},"geometry":{"type":"Point","coordinates":[44.3826367,36.4490722]}},{"type":"Feature","id":"osm-node-6149495920-school","properties":{"id":"osm-node-6149495920-school","name":"قوتابخانەی بەردەقارەمانی کچان","kind":"poi","tier":"poi_detail","priority":50.1,"context":"قوتابخانە","category":"قوتابخانە"},"geometry":{"type":"Point","coordinates":[44.3067093,36.4077678]}},{"type":"Feature","id":"osm-node-5563417821-school","properties":{"id":"osm-node-5563417821-school","name":"قوتابخانەی تاراوەی بنەڕەتی","kind":"poi","tier":"poi_detail","priority":50.1,"context":"قوتابخانە","category":"قوتابخانە"},"geometry":{"type":"Point","coordinates":[44.4773245,36.4791504]}},{"type":"Feature","id":"osm-node-9452056619-school","properties":{"id":"osm-node-9452056619-school","name":"قوتابخانەی دواناوەندی زینەتیری کچان","kind":"poi","tier":"poi_detail","priority":50.1,"context":"قوتابخانە","category":"قوتابخانە"},"geometry":{"type":"Point","coordinates":[44.3499763,36.4949722]}},{"type":"Feature","id":"osm-node-9663522817-school","properties":{"id":"osm-node-9663522817-school","name":"قوتابخانەی دەربەندی شەقلاوەی بنەڕەتی تێکەڵاو","kind":"poi","tier":"poi_detail","priority":50.1,"context":"قوتابخانە","category":"قوتابخانە"},"geometry":{"type":"Point","coordinates":[44.3523265,36.4130004]}},{"type":"Feature","id":"osm-node-7991571285-school","properties":{"id":"osm-node-7991571285-school","name":"قوتابخانەی زێوەر","kind":"poi","tier":"poi_detail","priority":50.1,"context":"قوتابخانە","category":"قوتابخانە"},"geometry":{"type":"Point","coordinates":[44.3468279,36.3960336]}},{"type":"Feature","id":"osm-node-12139302849-school","properties":{"id":"osm-node-12139302849-school","name":"قوتابخانەی میراوەی بنەڕەتی","kind":"poi","tier":"poi_detail","priority":50.1,"context":"قوتابخانە","category":"قوتابخانە"},"geometry":{"type":"Point","coordinates":[44.3603613,36.4356889]}},{"type":"Feature","id":"osm-node-13688601701-school","properties":{"id":"osm-node-13688601701-school","name":"قوتابخانەی ڕەوەندی بنەڕەتی تێکەڵاو","kind":"poi","tier":"poi_detail","priority":50.1,"context":"قوتابخانە","category":"قوتابخانە"},"geometry":{"type":"Point","coordinates":[44.4191771,36.4748144]}},{"type":"Feature","id":"osm-node-6751693185-school","properties":{"id":"osm-node-6751693185-school","name":"قوتابخانەی کانی هەنجیری کوڕان","kind":"poi","tier":"poi_detail","priority":50.1,"context":"قوتابخانە","category":"قوتابخانە"},"geometry":{"type":"Point","coordinates":[44.352645,36.4965005]}},{"type":"Feature","id":"osm-node-9452080817-school","properties":{"id":"osm-node-9452080817-school","name":"قوتابخانەی گرد خەزێنی بنەڕەتی تێکەڵاو","kind":"poi","tier":"poi_detail","priority":50.1,"context":"قوتابخانە","category":"قوتابخانە"},"geometry":{"type":"Point","coordinates":[44.3499188,36.4952077]}},{"type":"Feature","id":"osm-node-9169188377-school","properties":{"id":"osm-node-9169188377-school","name":"قوتابخانەی گەرەوانی بنەڕەتی","kind":"poi","tier":"poi_detail","priority":50.1,"context":"قوتابخانە","category":"قوتابخانە"},"geometry":{"type":"Point","coordinates":[44.4026013,36.4217531]}},{"type":"Feature","id":"osm-node-5182051121-supermarket","properties":{"id":"osm-node-5182051121-supermarket","name":"مارکێتی دانیاڵ","kind":"poi","tier":"poi_detail","priority":50.1,"context":"سۆپەرمارکێت","category":"سۆپەرمارکێت"},"geometry":{"type":"Point","coordinates":[44.3977733,36.4779161]}},{"type":"Feature","id":"osm-node-4486660093-supermarket","properties":{"id":"osm-node-4486660093-supermarket","name":"مارکێتی دایک","kind":"poi","tier":"poi_detail","priority":50.1,"context":"سۆپەرمارکێت","category":"سۆپەرمارکێت"},"geometry":{"type":"Point","coordinates":[44.3096235,36.40842]}},{"type":"Feature","id":"osm-node-5064094222-supermarket","properties":{"id":"osm-node-5064094222-supermarket","name":"مارکێتی دەربەند","kind":"poi","tier":"poi_detail","priority":50.1,"context":"سۆپەرمارکێت","category":"سۆپەرمارکێت"},"geometry":{"type":"Point","coordinates":[44.3520483,36.411975]}},{"type":"Feature","id":"osm-node-4984382122-supermarket","properties":{"id":"osm-node-4984382122-supermarket","name":"مارکێتی دەربەندی کۆرێ","kind":"poi","tier":"poi_detail","priority":50.1,"context":"سۆپەرمارکێت","category":"سۆپەرمارکێت"},"geometry":{"type":"Point","coordinates":[44.2536035,36.4023373]}},{"type":"Feature","id":"osm-node-5064094922-supermarket","properties":{"id":"osm-node-5064094922-supermarket","name":"مارکێتی سۆرک","kind":"poi","tier":"poi_detail","priority":50.1,"context":"سۆپەرمارکێت","category":"سۆپەرمارکێت"},"geometry":{"type":"Point","coordinates":[44.2842011,36.4196562]}},{"type":"Feature","id":"osm-node-5064095222-supermarket","properties":{"id":"osm-node-5064095222-supermarket","name":"مارکێتی سیساوە","kind":"poi","tier":"poi_detail","priority":50.1,"context":"سۆپەرمارکێت","category":"سۆپەرمارکێت"},"geometry":{"type":"Point","coordinates":[44.3971978,36.4864848]}},{"type":"Feature","id":"osm-node-5044570322-supermarket","properties":{"id":"osm-node-5044570322-supermarket","name":"مارکێتی شیاو","kind":"poi","tier":"poi_detail","priority":50.1,"context":"سۆپەرمارکێت","category":"سۆپەرمارکێت"},"geometry":{"type":"Point","coordinates":[44.31978,36.40599]}},{"type":"Feature","id":"osm-node-7880784386-supermarket","properties":{"id":"osm-node-7880784386-supermarket","name":"مارکێتی شەقڵاوە","kind":"poi","tier":"poi_detail","priority":50.1,"context":"سۆپەرمارکێت","category":"سۆپەرمارکێت"},"geometry":{"type":"Point","coordinates":[44.2703687,36.4234568]}},{"type":"Feature","id":"osm-node-7578476185-supermarket","properties":{"id":"osm-node-7578476185-supermarket","name":"مارکێتی عبدالخالق","kind":"poi","tier":"poi_detail","priority":50.1,"context":"سۆپەرمارکێت","category":"سۆپەرمارکێت"},"geometry":{"type":"Point","coordinates":[44.304974,36.4122615]}},{"type":"Feature","id":"osm-node-4979512622-supermarket","properties":{"id":"osm-node-4979512622-supermarket","name":"مارکێتی محمد","kind":"poi","tier":"poi_detail","priority":50.1,"context":"سۆپەرمارکێت","category":"سۆپەرمارکێت"},"geometry":{"type":"Point","coordinates":[44.375549,36.4408832]}},{"type":"Feature","id":"osm-node-5182037722-supermarket","properties":{"id":"osm-node-5182037722-supermarket","name":"مارکێتی نەورۆز","kind":"poi","tier":"poi_detail","priority":50.1,"context":"سۆپەرمارکێت","category":"سۆپەرمارکێت"},"geometry":{"type":"Point","coordinates":[44.3958129,36.4904671]}},{"type":"Feature","id":"osm-node-5603587221-supermarket","properties":{"id":"osm-node-5603587221-supermarket","name":"مارکێتی هێدی","kind":"poi","tier":"poi_detail","priority":50.1,"context":"سۆپەرمارکێت","category":"سۆپەرمارکێت"},"geometry":{"type":"Point","coordinates":[44.3810364,36.4537482]}},{"type":"Feature","id":"osm-node-5662259121-supermarket","properties":{"id":"osm-node-5662259121-supermarket","name":"مارکێتی هەنارە","kind":"poi","tier":"poi_detail","priority":50.1,"context":"سۆپەرمارکێت","category":"سۆپەرمارکێت"},"geometry":{"type":"Point","coordinates":[44.2554308,36.2897961]}},{"type":"Feature","id":"osm-node-5194537238-supermarket","properties":{"id":"osm-node-5194537238-supermarket","name":"مارکێتی پێشەنگ","kind":"poi","tier":"poi_detail","priority":50.1,"context":"سۆپەرمارکێت","category":"سۆپەرمارکێت"},"geometry":{"type":"Point","coordinates":[44.3479632,36.4051334]}},{"type":"Feature","id":"osm-node-7878481785-hotel","properties":{"id":"osm-node-7878481785-hotel","name":"مجمع شقق نهر قندیل","kind":"poi","tier":"poi_detail","priority":50.1,"context":"هۆتێل","category":"هۆتێل"},"geometry":{"type":"Point","coordinates":[44.2965051,36.4178151]}},{"type":"Feature","id":"osm-node-5235094721-school","properties":{"id":"osm-node-5235094721-school","name":"مدرسة نرجيز الابتدائية","kind":"poi","tier":"poi_detail","priority":50.1,"context":"قوتابخانە","category":"قوتابخانە"},"geometry":{"type":"Point","coordinates":[44.312191,36.4098035]}},{"type":"Feature","id":"osm-node-7206417887-restaurant","properties":{"id":"osm-node-7206417887-restaurant","name":"مطعم","kind":"poi","tier":"poi_detail","priority":50.1,"context":"چێشتخانە","category":"چێشتخانە"},"geometry":{"type":"Point","coordinates":[44.3008265,36.2637016]}},{"type":"Feature","id":"osm-node-10633910209-restaurant","properties":{"id":"osm-node-10633910209-restaurant","name":"مطعم سفین","kind":"poi","tier":"poi_detail","priority":50.1,"context":"چێشتخانە","category":"چێشتخانە"},"geometry":{"type":"Point","coordinates":[44.3178894,36.411409]}},{"type":"Feature","id":"osm-node-10831708005-restaurant","properties":{"id":"osm-node-10831708005-restaurant","name":"مطعم سفین","kind":"poi","tier":"poi_detail","priority":50.1,"context":"چێشتخانە","category":"چێشتخانە"},"geometry":{"type":"Point","coordinates":[44.3424022,36.4044399]}},{"type":"Feature","id":"osm-node-5167489222-restaurant","properties":{"id":"osm-node-5167489222-restaurant","name":"مطعم علی خوشناو شقلاوە","kind":"poi","tier":"poi_detail","priority":50.1,"context":"چێشتخانە","category":"چێشتخانە"},"geometry":{"type":"Point","coordinates":[44.3337523,36.4075745]}},{"type":"Feature","id":"osm-node-5094286629-supermarket","properties":{"id":"osm-node-5094286629-supermarket","name":"مه به ست","kind":"poi","tier":"poi_detail","priority":50.1,"context":"سۆپەرمارکێت","category":"سۆپەرمارکێت"},"geometry":{"type":"Point","coordinates":[44.3435814,36.3974912]}},{"type":"Feature","id":"osm-node-6837171087-hotel","properties":{"id":"osm-node-6837171087-hotel","name":"موتیل هوتیل نازی شقلاو","kind":"poi","tier":"poi_detail","priority":50.1,"context":"هۆتێل","category":"هۆتێل"},"geometry":{"type":"Point","coordinates":[44.3243658,36.4070983]}},{"type":"Feature","id":"osm-node-5474622722-hotel","properties":{"id":"osm-node-5474622722-hotel","name":"میوانخانەی ئارێزە پلازا","kind":"poi","tier":"poi_detail","priority":50.1,"context":"هۆتێل","category":"هۆتێل"},"geometry":{"type":"Point","coordinates":[44.3397637,36.4051523]}},{"type":"Feature","id":"osm-node-5805120855-hotel","properties":{"id":"osm-node-5805120855-hotel","name":"میوانخانەی سیمۆن","kind":"poi","tier":"poi_detail","priority":50.1,"context":"هۆتێل","category":"هۆتێل"},"geometry":{"type":"Point","coordinates":[44.3368725,36.4034347]}},{"type":"Feature","id":"osm-node-5140729924-hotel","properties":{"id":"osm-node-5140729924-hotel","name":"میوانخانەی شیرین","kind":"poi","tier":"poi_detail","priority":50.1,"context":"هۆتێل","category":"هۆتێل"},"geometry":{"type":"Point","coordinates":[44.3439784,36.4031131]}},{"type":"Feature","id":"osm-node-6760388385-hotel","properties":{"id":"osm-node-6760388385-hotel","name":"میوانخانەی نۆڤا ستی","kind":"poi","tier":"poi_detail","priority":50.1,"context":"هۆتێل","category":"هۆتێل"},"geometry":{"type":"Point","coordinates":[44.3428005,36.4017832]}},{"type":"Feature","id":"osm-node-5814075355-hotel","properties":{"id":"osm-node-5814075355-hotel","name":"هو تیل بلو مارین","kind":"poi","tier":"poi_detail","priority":50.1,"context":"هۆتێل","category":"هۆتێل"},"geometry":{"type":"Point","coordinates":[44.3327004,36.404232]}},{"type":"Feature","id":"osm-node-9207187597-hotel","properties":{"id":"osm-node-9207187597-hotel","name":"هۆتیل میران پاڵاس","kind":"poi","tier":"poi_detail","priority":50.1,"context":"هۆتێل","category":"هۆتێل"},"geometry":{"type":"Point","coordinates":[44.3457535,36.4031045]}},{"type":"Feature","id":"osm-node-5724305221-hotel","properties":{"id":"osm-node-5724305221-hotel","name":"هۆتێلی ئایڤی فلاوەر","kind":"poi","tier":"poi_detail","priority":50.1,"context":"هۆتێل","category":"هۆتێل"},"geometry":{"type":"Point","coordinates":[44.3441441,36.4018042]}},{"type":"Feature","id":"osm-node-4995441522-hotel","properties":{"id":"osm-node-4995441522-hotel","name":"هۆتێلی بەلەد ئەمین","kind":"poi","tier":"poi_detail","priority":50.1,"context":"هۆتێل","category":"هۆتێل"},"geometry":{"type":"Point","coordinates":[44.3415727,36.3928217]}},{"type":"Feature","id":"osm-node-4995445721-hotel","properties":{"id":"osm-node-4995445721-hotel","name":"هۆتێلی بەلەد الامین","kind":"poi","tier":"poi_detail","priority":50.1,"context":"هۆتێل","category":"هۆتێل"},"geometry":{"type":"Point","coordinates":[44.33921,36.3935622]}},{"type":"Feature","id":"osm-node-4979519424-hotel","properties":{"id":"osm-node-4979519424-hotel","name":"هۆتێلی سوێدی","kind":"poi","tier":"poi_detail","priority":50.1,"context":"هۆتێل","category":"هۆتێل"},"geometry":{"type":"Point","coordinates":[44.3440239,36.4036655]}},{"type":"Feature","id":"osm-node-5921384000-hotel","properties":{"id":"osm-node-5921384000-hotel","name":"هۆتێلی شەقلاوە پالاس","kind":"poi","tier":"poi_detail","priority":50.1,"context":"هۆتێل","category":"هۆتێل"},"geometry":{"type":"Point","coordinates":[44.3423511,36.4026257]}},{"type":"Feature","id":"osm-node-5069281925-hotel","properties":{"id":"osm-node-5069281925-hotel","name":"هۆتێلی مۆدێرن سیتی","kind":"poi","tier":"poi_detail","priority":50.1,"context":"هۆتێل","category":"هۆتێل"},"geometry":{"type":"Point","coordinates":[44.3390364,36.4027923]}},{"type":"Feature","id":"osm-node-8743047817-hotel","properties":{"id":"osm-node-8743047817-hotel","name":"هیلینه هوتل","kind":"poi","tier":"poi_detail","priority":50.1,"context":"هۆتێل","category":"هۆتێل"},"geometry":{"type":"Point","coordinates":[44.3323643,36.402268]}},{"type":"Feature","id":"osm-node-5893291287-supermarket","properties":{"id":"osm-node-5893291287-supermarket","name":"هەرزان بازاڕی ئازادی","kind":"poi","tier":"poi_detail","priority":50.1,"context":"سۆپەرمارکێت","category":"سۆپەرمارکێت"},"geometry":{"type":"Point","coordinates":[44.3163378,36.4080925]}},{"type":"Feature","id":"osm-node-5798810453-restaurant","properties":{"id":"osm-node-5798810453-restaurant","name":"چێشتخانەی اسماعیل کاوێس","kind":"poi","tier":"poi_detail","priority":50.1,"context":"چێشتخانە","category":"چێشتخانە"},"geometry":{"type":"Point","coordinates":[44.3270085,36.403039]}},{"type":"Feature","id":"osm-node-5018532925-restaurant","properties":{"id":"osm-node-5018532925-restaurant","name":"چێشتخانەی جیهان","kind":"poi","tier":"poi_detail","priority":50.1,"context":"چێشتخانە","category":"چێشتخانە"},"geometry":{"type":"Point","coordinates":[44.3391208,36.4047213]}},{"type":"Feature","id":"osm-node-5032646631-restaurant","properties":{"id":"osm-node-5032646631-restaurant","name":"چێشتخانەی زەیتوون","kind":"poi","tier":"poi_detail","priority":50.1,"context":"چێشتخانە","category":"چێشتخانە"},"geometry":{"type":"Point","coordinates":[44.3246286,36.4009729]}},{"type":"Feature","id":"osm-node-4979519425-restaurant","properties":{"id":"osm-node-4979519425-restaurant","name":"چێشتخانەی شێرەسوار","kind":"poi","tier":"poi_detail","priority":50.1,"context":"چێشتخانە","category":"چێشتخانە"},"geometry":{"type":"Point","coordinates":[44.2601221,36.4055307]}},{"type":"Feature","id":"osm-node-5069269826-restaurant","properties":{"id":"osm-node-5069269826-restaurant","name":"چێشتخانەی شەقلاوە","kind":"poi","tier":"poi_detail","priority":50.1,"context":"چێشتخانە","category":"چێشتخانە"},"geometry":{"type":"Point","coordinates":[44.3577463,36.3864917]}},{"type":"Feature","id":"osm-node-5126313828-restaurant","properties":{"id":"osm-node-5126313828-restaurant","name":"چێشتخانەی فاتاوە","kind":"poi","tier":"poi_detail","priority":50.1,"context":"چێشتخانە","category":"چێشتخانە"},"geometry":{"type":"Point","coordinates":[44.380642,36.4826593]}},{"type":"Feature","id":"osm-node-5084613523-restaurant","properties":{"id":"osm-node-5084613523-restaurant","name":"چێشتخانەی کوردستان","kind":"poi","tier":"poi_detail","priority":50.1,"context":"چێشتخانە","category":"چێشتخانە"},"geometry":{"type":"Point","coordinates":[44.34861,36.38891]}},{"type":"Feature","id":"osm-node-5724300722-hotel","properties":{"id":"osm-node-5724300722-hotel","name":"کۆمەلگەی گەشتیاری روساک","kind":"poi","tier":"poi_detail","priority":50.1,"context":"هۆتێل","category":"هۆتێل"},"geometry":{"type":"Point","coordinates":[44.3393108,36.4036955]}},{"type":"Feature","id":"osm-node-5603586921-pharmacy","properties":{"id":"osm-node-5603586921-pharmacy","name":"کۆگای دەرمانی نیسا","kind":"poi","tier":"poi_detail","priority":50.1,"context":"دەرمانخانە","category":"دەرمانخانە"},"geometry":{"type":"Point","coordinates":[44.3522195,36.412768]}},{"type":"Feature","id":"osm-way-1126015044-supermarket","properties":{"id":"osm-way-1126015044-supermarket","name":"Ragr Market","kind":"poi","tier":"poi_detail","priority":50.092,"context":"سۆپەرمارکێت","category":"سۆپەرمارکێت"},"geometry":{"type":"Point","coordinates":[44.3098264,36.4099962]}},{"type":"Feature","id":"osm-way-1047622349-hotel","properties":{"id":"osm-way-1047622349-hotel","name":"Safeen Garden","kind":"poi","tier":"poi_detail","priority":50.092,"context":"هۆتێل","category":"هۆتێل"},"geometry":{"type":"Point","coordinates":[44.2711168,36.4224512]}},{"type":"Feature","id":"osm-way-790211536-supermarket","properties":{"id":"osm-way-790211536-supermarket","name":"hafta Bazar","kind":"poi","tier":"poi_detail","priority":50.092,"context":"سۆپەرمارکێت","category":"سۆپەرمارکێت"},"geometry":{"type":"Point","coordinates":[44.3332994,36.4046309]}},{"type":"Feature","id":"osm-way-1376765423-school","properties":{"id":"osm-way-1376765423-school","name":"خوێندنگەی قەلای دمدم","kind":"poi","tier":"poi_detail","priority":50.092,"context":"قوتابخانە","category":"قوتابخانە"},"geometry":{"type":"Point","coordinates":[44.3170995,36.4051247]}},{"type":"Feature","id":"osm-way-788026896-school","properties":{"id":"osm-way-788026896-school","name":"خوێندنگەی کۆمەڵگەی شەقڵاوە","kind":"poi","tier":"poi_detail","priority":50.092,"context":"قوتابخانە","category":"قوتابخانە"},"geometry":{"type":"Point","coordinates":[44.279869,36.4250791]}},{"type":"Feature","id":"osm-way-506923810-school","properties":{"id":"osm-way-506923810-school","name":"قوتابخانەی سیساوە","kind":"poi","tier":"poi_detail","priority":50.092,"context":"قوتابخانە","category":"قوتابخانە"},"geometry":{"type":"Point","coordinates":[44.3963119,36.492568]}},{"type":"Feature","id":"osm-way-800843052-school","properties":{"id":"osm-way-800843052-school","name":"قوتابخانەی پێزانی بنەڕەتی","kind":"poi","tier":"poi_detail","priority":50.092,"context":"قوتابخانە","category":"قوتابخانە"},"geometry":{"type":"Point","coordinates":[44.3181682,36.4114208]}},{"type":"Feature","id":"osm-way-796654172-school","properties":{"id":"osm-way-796654172-school","name":"قوتابخانەی کاوێس","kind":"poi","tier":"poi_detail","priority":50.092,"context":"قوتابخانە","category":"قوتابخانە"},"geometry":{"type":"Point","coordinates":[44.3328435,36.397643]}},