{"type":"FeatureCollection","features":[{"type":"Feature","id":"osm-node-2489321306","properties":{"id":"osm-node-2489321306","name":"زنگیلی","kind":"village","tier":"locality","priority":300,"context":"دووزخورماتوو · سەڵاحەدین","category":"گوند"},"geometry":{"type":"Point","coordinates":[44.440342,34.738893]}},{"type":"Feature","id":"osm-natural-river-9ceda098000f26","properties":{"id":"osm-natural-river-9ceda098000f26","name":"Al Uzaym River","kind":"natural","tier":"natural","priority":180,"context":"ڕووبار · دووزخورماتوو · سەڵاحەدین","category":"ڕووبار"},"geometry":{"type":"Point","coordinates":[44.3926971,34.6856908]}},{"type":"Feature","id":"osm-natural-hill-a4759a0b656ba5","properties":{"id":"osm-natural-hill-a4759a0b656ba5","name":"Darb al Mahmudi","kind":"natural","tier":"natural","priority":180,"context":"گرد · داقووق · کەرکووک","category":"گرد"},"geometry":{"type":"Point","coordinates":[44.31667,34.7]}},{"type":"Feature","id":"osm-natural-hill-4ef4f26ae39d12","properties":{"id":"osm-natural-hill-4ef4f26ae39d12","name":"Tall Bayyat","kind":"natural","tier":"natural","priority":180,"context":"گرد · دووزخورماتوو · سەڵاحەدین","category":"گرد"},"geometry":{"type":"Point","coordinates":[44.48333,34.73333]}},{"type":"Feature","id":"osm-natural-lake-0598085b685c9e","properties":{"id":"osm-natural-lake-0598085b685c9e","name":"بحيرة العظيم","kind":"natural","tier":"natural","priority":180,"context":"دەریاچە · دووزخورماتوو · سەڵاحەدین","category":"دەریاچە"},"geometry":{"type":"Point","coordinates":[44.4504365,34.6892342]}},{"type":"Feature","id":"osm-node-11274785070-bank","properties":{"id":"osm-node-11274785070-bank","name":"برج الزرکە","kind":"poi","tier":"poi_landmark","priority":92.1,"context":"بانک","category":"بانک"},"geometry":{"type":"Point","coordinates":[44.2696843,34.7316928]}}]}