{"type":"FeatureCollection","features":[{"type":"Feature","id":"osm-node-9388135192","properties":{"id":"osm-node-9388135192","name":"ئیمام محەمەد","kind":"village","tier":"locality","priority":300,"context":"دووزخورماتوو · سەڵاحەدین","category":"گوند"},"geometry":{"type":"Point","coordinates":[44.7391958,34.929197]}},{"type":"Feature","id":"osm-node-2489303116","properties":{"id":"osm-node-2489303116","name":"خاسەدارلی","kind":"village","tier":"locality","priority":300,"context":"دووزخورماتوو · سەڵاحەدین","category":"گوند"},"geometry":{"type":"Point","coordinates":[44.643925,34.820106]}},{"type":"Feature","id":"osm-node-9369634185","properties":{"id":"osm-node-9369634185","name":"خدر وەلی","kind":"village","tier":"locality","priority":300,"context":"دووزخورماتوو · سەڵاحەدین","category":"گوند"},"geometry":{"type":"Point","coordinates":[44.5635062,34.9803833]}},{"type":"Feature","id":"osm-node-9362493703","properties":{"id":"osm-node-9362493703","name":"سەرچنار","kind":"village","tier":"locality","priority":300,"context":"دووزخورماتوو · سەڵاحەدین","category":"گوند"},"geometry":{"type":"Point","coordinates":[44.7284792,34.8211934]}},{"type":"Feature","id":"osm-node-2488467380","properties":{"id":"osm-node-2488467380","name":"شا سەیوان","kind":"village","tier":"locality","priority":300,"context":"دووزخورماتوو · سەڵاحەدین","category":"گوند"},"geometry":{"type":"Point","coordinates":[44.5596678,34.9136024]}},{"type":"Feature","id":"osm-node-9388156751","properties":{"id":"osm-node-9388156751","name":"شۆراو","kind":"village","tier":"locality","priority":300,"context":"دووزخورماتوو · سەڵاحەدین","category":"گوند"},"geometry":{"type":"Point","coordinates":[44.7005818,34.8799666]}},{"type":"Feature","id":"osm-node-9369918568","properties":{"id":"osm-node-9369918568","name":"شێخ حەوێزی","kind":"village","tier":"locality","priority":300,"context":"دووزخورماتوو · سەڵاحەدین","category":"گوند"},"geometry":{"type":"Point","coordinates":[44.7153835,34.949367]}},{"type":"Feature","id":"osm-node-13590773733","properties":{"id":"osm-node-13590773733","name":"قوشەلان","kind":"village","tier":"locality","priority":300,"context":"دووزخورماتوو · سەڵاحەدین","category":"گوند"},"geometry":{"type":"Point","coordinates":[44.6775647,34.9908689]}},{"type":"Feature","id":"osm-node-13590812555","properties":{"id":"osm-node-13590812555","name":"قوم پەڵک","kind":"village","tier":"locality","priority":300,"context":"دووزخورماتوو · سەڵاحەدین","category":"گوند"},"geometry":{"type":"Point","coordinates":[44.7165311,34.9662217]}},{"type":"Feature","id":"osm-node-9362501985","properties":{"id":"osm-node-9362501985","name":"قەڵا","kind":"village","tier":"locality","priority":300,"context":"دووزخورماتوو · سەڵاحەدین","category":"گوند"},"geometry":{"type":"Point","coordinates":[44.7409125,34.9117381]}},{"type":"Feature","id":"osm-node-2489307972","properties":{"id":"osm-node-2489307972","name":"پیر ئەحمەد","kind":"village","tier":"locality","priority":300,"context":"دووزخورماتوو · سەڵاحەدین","category":"گوند"},"geometry":{"type":"Point","coordinates":[44.502858,34.80909]}},{"type":"Feature","id":"osm-node-9362569908","properties":{"id":"osm-node-9362569908","name":"پەڵکانەی سادە","kind":"village","tier":"locality","priority":300,"context":"دووزخورماتوو · سەڵاحەدین","category":"گوند"},"geometry":{"type":"Point","coordinates":[44.7401318,34.8389949]}},{"type":"Feature","id":"osm-node-2489302707","properties":{"id":"osm-node-2489302707","name":"پەڵکانەی سەید","kind":"village","tier":"locality","priority":300,"context":"دووزخورماتوو · سەڵاحەدین","category":"گوند"},"geometry":{"type":"Point","coordinates":[44.7291073,34.8258093]}},{"type":"Feature","id":"osm-node-2489308018","properties":{"id":"osm-node-2489308018","name":"چارداغلی","kind":"village","tier":"locality","priority":300,"context":"دووزخورماتوو · سەڵاحەدین","category":"گوند"},"geometry":{"type":"Point","coordinates":[44.5575001,34.8189832]}},{"type":"Feature","id":"osm-node-2489303185","properties":{"id":"osm-node-2489303185","name":"کۆکز","kind":"village","tier":"locality","priority":300,"context":"دووزخورماتوو · سەڵاحەدین","category":"گوند"},"geometry":{"type":"Point","coordinates":[44.633178,34.839401]}},{"type":"Feature","id":"osm-node-13858987881","properties":{"id":"osm-node-13858987881","name":"بازاڕی حەسەن قەوان","kind":"locality","tier":"locality","priority":200,"context":"دووزخورماتوو · سەڵاحەدین","category":"شوێنی ناوخۆیی"},"geometry":{"type":"Point","coordinates":[44.6238944,34.8980877]}},{"type":"Feature","id":"osm-node-2489302641","properties":{"id":"osm-node-2489302641","name":"چەم سلێمان شەل","kind":"locality","tier":"locality","priority":200,"context":"دووزخورماتوو · سەڵاحەدین","category":"شوێنی ناوخۆیی"},"geometry":{"type":"Point","coordinates":[44.7198535,34.9500879]}},{"type":"Feature","id":"osm-node-2489302922","properties":{"id":"osm-node-2489302922","name":"چەم شۆراو","kind":"locality","tier":"locality","priority":200,"context":"دووزخورماتوو · سەڵاحەدین","category":"شوێنی ناوخۆیی"},"geometry":{"type":"Point","coordinates":[44.668919,34.889754]}},{"type":"Feature","id":"osm-node-2489304294","properties":{"id":"osm-node-2489304294","name":"چەم شۆراو","kind":"locality","tier":"locality","priority":200,"context":"دووزخورماتوو · سەڵاحەدین","category":"شوێنی ناوخۆیی"},"geometry":{"type":"Point","coordinates":[44.737545,34.896338]}},{"type":"Feature","id":"osm-node-2489304112","properties":{"id":"osm-node-2489304112","name":"چەم کانی پۆزە","kind":"locality","tier":"locality","priority":200,"context":"دووزخورماتوو · سەڵاحەدین","category":"شوێنی ناوخۆیی"},"geometry":{"type":"Point","coordinates":[44.73876,34.992815]}},{"type":"Feature","id":"osm-natural-stream-fa1ff2482d7adf","properties":{"id":"osm-natural-stream-fa1ff2482d7adf","name":"Cham Aspi Tupl","kind":"natural","tier":"natural","priority":180,"context":"جۆگە · دووزخورماتوو · سەڵاحەدین","category":"جۆگە"},"geometry":{"type":"Point","coordinates":[44.71667,34.95]}},{"type":"Feature","id":"osm-natural-stream-9804b2480b38d4","properties":{"id":"osm-natural-stream-9804b2480b38d4","name":"Cham Khur Khur","kind":"natural","tier":"natural","priority":180,"context":"جۆگە · دووزخورماتوو · سەڵاحەدین","category":"جۆگە"},"geometry":{"type":"Point","coordinates":[44.73333,34.95]}},{"type":"Feature","id":"osm-natural-stream-a5f331a4cd4372","properties":{"id":"osm-natural-stream-a5f331a4cd4372","name":"Cham Sulayman Shal","kind":"natural","tier":"natural","priority":180,"context":"جۆگە · دووزخورماتوو · سەڵاحەدین","category":"جۆگە"},"geometry":{"type":"Point","coordinates":[44.71667,34.95]}},{"type":"Feature","id":"osm-natural-stream-2ed54e4b992b22","properties":{"id":"osm-natural-stream-2ed54e4b992b22","name":"Cham-i Nawjil","kind":"natural","tier":"natural","priority":180,"context":"جۆگە · دووزخورماتوو · سەڵاحەدین","category":"جۆگە"},"geometry":{"type":"Point","coordinates":[44.7,34.93333]}},{"type":"Feature","id":"osm-natural-river-0617672f7b7109","properties":{"id":"osm-natural-river-0617672f7b7109","name":"ئاوەسپێ","kind":"natural","tier":"natural","priority":180,"context":"ڕووبار · دووزخورماتوو · سەڵاحەدین","category":"ڕووبار"},"geometry":{"type":"Point","coordinates":[44.5049588,34.8000564]}},{"type":"Feature","id":"osm-natural-valley-c49a0ad43168d5","properties":{"id":"osm-natural-valley-c49a0ad43168d5","name":"اق صو","kind":"natural","tier":"natural","priority":180,"context":"دۆڵ · دووزخورماتوو · سەڵاحەدین","category":"دۆڵ"},"geometry":{"type":"Point","coordinates":[44.508,34.80107]}},{"type":"Feature","id":"osm-natural-water_well-4669ed8feeaf37","properties":{"id":"osm-natural-water_well-4669ed8feeaf37","name":"بئر احمد","kind":"natural","tier":"natural","priority":180,"context":"بیری ئاو · دووزخورماتوو · سەڵاحەدین","category":"بیری ئاو"},"geometry":{"type":"Point","coordinates":[44.50723,34.80568]}},{"type":"Feature","id":"osm-natural-hill-8cb2d8c147ba68","properties":{"id":"osm-natural-hill-8cb2d8c147ba68","name":"جبل نفط داغ","kind":"natural","tier":"natural","priority":180,"context":"گرد · دووزخورماتوو · سەڵاحەدین","category":"گرد"},"geometry":{"type":"Point","coordinates":[44.67132,34.84279]}},{"type":"Feature","id":"osm-natural-valley-7d63a2680e5b8a","properties":{"id":"osm-natural-valley-7d63a2680e5b8a","name":"شم خور خر","kind":"natural","tier":"natural","priority":180,"context":"دۆڵ · دووزخورماتوو · سەڵاحەدین","category":"دۆڵ"},"geometry":{"type":"Point","coordinates":[44.7332084,34.9501387]}},{"type":"Feature","id":"osm-natural-stream-bb104ac46450b3","properties":{"id":"osm-natural-stream-bb104ac46450b3","name":"مشروع ري صدام","kind":"natural","tier":"natural","priority":180,"context":"جۆگە · دووزخورماتوو · سەڵاحەدین","category":"جۆگە"},"geometry":{"type":"Point","coordinates":[44.57199,34.96258]}},{"type":"Feature","id":"osm-natural-stream-570c75a17ac27d","properties":{"id":"osm-natural-stream-570c75a17ac27d","name":"نهر بالان","kind":"natural","tier":"natural","priority":180,"context":"جۆگە · دووزخورماتوو · سەڵاحەدین","category":"جۆگە"},"geometry":{"type":"Point","coordinates":[44.50691,34.84158]}},{"type":"Feature","id":"osm-natural-stream-03049fa0ff7775","properties":{"id":"osm-natural-stream-03049fa0ff7775","name":"نهر خطاي","kind":"natural","tier":"natural","priority":180,"context":"جۆگە · دووزخورماتوو · سەڵاحەدین","category":"جۆگە"},"geometry":{"type":"Point","coordinates":[44.59535,34.90995]}},{"type":"Feature","id":"osm-natural-stream-680ce02cf2da16","properties":{"id":"osm-natural-stream-680ce02cf2da16","name":"نهر دره","kind":"natural","tier":"natural","priority":180,"context":"جۆگە · دووزخورماتوو · سەڵاحەدین","category":"جۆگە"},"geometry":{"type":"Point","coordinates":[44.56978,34.9038]}},{"type":"Feature","id":"osm-natural-stream-8b78808e47d2a0","properties":{"id":"osm-natural-stream-8b78808e47d2a0","name":"نهر ذبان","kind":"natural","tier":"natural","priority":180,"context":"جۆگە · دووزخورماتوو · سەڵاحەدین","category":"جۆگە"},"geometry":{"type":"Point","coordinates":[44.53638,34.92043]}},{"type":"Feature","id":"osm-natural-stream-85e75a414ad25b","properties":{"id":"osm-natural-stream-85e75a414ad25b","name":"نهر قرة غنيلي","kind":"natural","tier":"natural","priority":180,"context":"جۆگە · دووزخورماتوو · سەڵاحەدین","category":"جۆگە"},"geometry":{"type":"Point","coordinates":[44.537789,34.9004398]}},{"type":"Feature","id":"osm-natural-stream-341ce3f0e8f286","properties":{"id":"osm-natural-stream-341ce3f0e8f286","name":"نهر قرغانلي","kind":"natural","tier":"natural","priority":180,"context":"جۆگە · دووزخورماتوو · سەڵاحەدین","category":"جۆگە"},"geometry":{"type":"Point","coordinates":[44.5774312,34.9283417]}},{"type":"Feature","id":"osm-natural-stream-37ee0801efd2d4","properties":{"id":"osm-natural-stream-37ee0801efd2d4","name":"نهر لك","kind":"natural","tier":"natural","priority":180,"context":"جۆگە · دووزخورماتوو · سەڵاحەدین","category":"جۆگە"},"geometry":{"type":"Point","coordinates":[44.56502,34.9339]}},{"type":"Feature","id":"osm-natural-stream-7368698081092d","properties":{"id":"osm-natural-stream-7368698081092d","name":"نهر ينجة","kind":"natural","tier":"natural","priority":180,"context":"جۆگە · دووزخورماتوو · سەڵاحەدین","category":"جۆگە"},"geometry":{"type":"Point","coordinates":[44.57296,34.86708]}},{"type":"Feature","id":"osm-natural-valley-7273be0aaf6df7","properties":{"id":"osm-natural-valley-7273be0aaf6df7","name":"وادي آلبو حسن","kind":"natural","tier":"natural","priority":180,"context":"دۆڵ · دووزخورماتوو · سەڵاحەدین","category":"دۆڵ"},"geometry":{"type":"Point","coordinates":[44.60198,34.7899]}},{"type":"Feature","id":"osm-natural-valley-261adb2d634c9a","properties":{"id":"osm-natural-valley-261adb2d634c9a","name":"وادي اولكة درسي","kind":"natural","tier":"natural","priority":180,"context":"دۆڵ · دووزخورماتوو · سەڵاحەدین","category":"دۆڵ"},"geometry":{"type":"Point","coordinates":[44.52548,34.89166]}},{"type":"Feature","id":"osm-natural-valley-b2ed5e11e57d8d","properties":{"id":"osm-natural-valley-b2ed5e11e57d8d","name":"وادي دنبلان","kind":"natural","tier":"natural","priority":180,"context":"دۆڵ · دووزخورماتوو · سەڵاحەدین","category":"دۆڵ"},"geometry":{"type":"Point","coordinates":[44.5915,34.79834]}},{"type":"Feature","id":"osm-natural-valley-eb5f5e8504437b","properties":{"id":"osm-natural-valley-eb5f5e8504437b","name":"وادي شواره","kind":"natural","tier":"natural","priority":180,"context":"دۆڵ · دووزخورماتوو · سەڵاحەدین","category":"دۆڵ"},"geometry":{"type":"Point","coordinates":[44.7423,34.8957]}},{"type":"Feature","id":"osm-natural-valley-5862c9bd4ea458","properties":{"id":"osm-natural-valley-5862c9bd4ea458","name":"وادي شوارو","kind":"natural","tier":"natural","priority":180,"context":"دۆڵ · دووزخورماتوو · سەڵاحەدین","category":"دۆڵ"},"geometry":{"type":"Point","coordinates":[44.66886,34.88864]}},{"type":"Feature","id":"osm-natural-valley-d127854d18e26c","properties":{"id":"osm-natural-valley-d127854d18e26c","name":"وادي طلاو","kind":"natural","tier":"natural","priority":180,"context":"دۆڵ · دووزخورماتوو · سەڵاحەدین","category":"دۆڵ"},"geometry":{"type":"Point","coordinates":[44.7087,34.94664]}},{"type":"Feature","id":"osm-natural-valley-364ce3d0ffad65","properties":{"id":"osm-natural-valley-364ce3d0ffad65","name":"وادي عبدي","kind":"natural","tier":"natural","priority":180,"context":"دۆڵ · دووزخورماتوو · سەڵاحەدین","category":"دۆڵ"},"geometry":{"type":"Point","coordinates":[44.64134,34.77453]}},{"type":"Feature","id":"osm-natural-valley-f3f569d4c0d7f9","properties":{"id":"osm-natural-valley-f3f569d4c0d7f9","name":"وادي عناح سبلاوي","kind":"natural","tier":"natural","priority":180,"context":"دۆڵ · دووزخورماتوو · سەڵاحەدین","category":"دۆڵ"},"geometry":{"type":"Point","coordinates":[44.5838,34.75598]}},{"type":"Feature","id":"osm-natural-valley-efe6ef47d0310d","properties":{"id":"osm-natural-valley-efe6ef47d0310d","name":"وادي كاني بوزة","kind":"natural","tier":"natural","priority":180,"context":"دۆڵ · دووزخورماتوو · سەڵاحەدین","category":"دۆڵ"},"geometry":{"type":"Point","coordinates":[44.73584,34.97622]}},{"type":"Feature","id":"osm-natural-valley-8eb773d8902772","properties":{"id":"osm-natural-valley-8eb773d8902772","name":"وادي مكورك","kind":"natural","tier":"natural","priority":180,"context":"دۆڵ · دووزخورماتوو · سەڵاحەدین","category":"دۆڵ"},"geometry":{"type":"Point","coordinates":[44.74137,34.81366]}},{"type":"Feature","id":"osm-natural-valley-1c1edbdb7d8ec1","properties":{"id":"osm-natural-valley-1c1edbdb7d8ec1","name":"وادي نارشول","kind":"natural","tier":"natural","priority":180,"context":"دۆڵ · دووزخورماتوو · سەڵاحەدین","category":"دۆڵ"},"geometry":{"type":"Point","coordinates":[44.73016,34.95234]}},{"type":"Feature","id":"osm-natural-valley-06220511e7b9d2","properties":{"id":"osm-natural-valley-06220511e7b9d2","name":"وادي نفط","kind":"natural","tier":"natural","priority":180,"context":"دۆڵ · دووزخورماتوو · سەڵاحەدین","category":"دۆڵ"},"geometry":{"type":"Point","coordinates":[44.67687,34.7906]}},{"type":"Feature","id":"osm-natural-valley-33fe6e1c041f42","properties":{"id":"osm-natural-valley-33fe6e1c041f42","name":"وادي نوجل","kind":"natural","tier":"natural","priority":180,"context":"دۆڵ · دووزخورماتوو · سەڵاحەدین","category":"دۆڵ"},"geometry":{"type":"Point","coordinates":[44.7,34.933333]}},{"type":"Feature","id":"osm-natural-stream-6d8760a0977fcc","properties":{"id":"osm-natural-stream-6d8760a0977fcc","name":"چەمی تاڵاو","kind":"natural","tier":"natural","priority":180,"context":"جۆگە · دووزخورماتوو · سەڵاحەدین","category":"جۆگە"},"geometry":{"type":"Point","coordinates":[44.7201694,34.9604572]}},{"type":"Feature","id":"osm-natural-stream-bfe51a7660f78e","properties":{"id":"osm-natural-stream-bfe51a7660f78e","name":"کەناڵی ئاوی کەرکووک","kind":"natural","tier":"natural","priority":180,"context":"جۆگە · دووزخورماتوو · سەڵاحەدین","category":"جۆگە"},"geometry":{"type":"Point","coordinates":[44.641192,34.8289569]}},{"type":"Feature","id":"osm-natural-stream-84e86283ec888e","properties":{"id":"osm-natural-stream-84e86283ec888e","name":"کەناڵی ئاوی کەرکووک","kind":"natural","tier":"natural","priority":180,"context":"جۆگە · دووزخورماتوو · سەڵاحەدین","category":"جۆگە"},"geometry":{"type":"Point","coordinates":[44.5943429,34.9417673]}},{"type":"Feature","id":"road-label-osm-way-302089640","properties":{"id":"road-label-osm-way-302089640","name":"جسر خدر ولي","kind":"road","tier":"road","priority":88,"context":"primary · دووزخورماتوو · سەڵاحەدین","category":"ڕێگا"},"geometry":{"type":"Point","coordinates":[44.562736,34.969982]}},{"type":"Feature","id":"road-label-osm-way-542216178","properties":{"id":"road-label-osm-way-542216178","name":"Hlewa","kind":"road","tier":"road","priority":55,"context":"tertiary · دووزخورماتوو · سەڵاحەدین","category":"ڕێگا"},"geometry":{"type":"Point","coordinates":[44.510187,34.874674]}},{"type":"Feature","id":"road-label-osm-way-697209537","properties":{"id":"road-label-osm-way-697209537","name":"Qaymqam St.","kind":"road","tier":"road","priority":55,"context":"tertiary · دووزخورماتوو · سەڵاحەدین","category":"ڕێگا"},"geometry":{"type":"Point","coordinates":[44.624998,34.893902]}},{"type":"Feature","id":"road-label-osm-way-217515573","properties":{"id":"road-label-osm-way-217515573","name":"Qaymqam roundabout","kind":"road","tier":"road","priority":55,"context":"tertiary · دووزخورماتوو · سەڵاحەدین","category":"ڕێگا"},"geometry":{"type":"Point","coordinates":[44.62145,34.895497]}},{"type":"Feature","id":"road-label-osm-way-217515576","properties":{"id":"road-label-osm-way-217515576","name":"شارع الاطباء","kind":"road","tier":"road","priority":55,"context":"tertiary · دووزخورماتوو · سەڵاحەدین","category":"ڕێگا"},"geometry":{"type":"Point","coordinates":[44.629274,34.886499]}},{"type":"Feature","id":"road-label-osm-way-881584614","properties":{"id":"road-label-osm-way-881584614","name":"شارع سوق کوماری","kind":"road","tier":"road","priority":55,"context":"tertiary · دووزخورماتوو · سەڵاحەدین","category":"ڕێگا"},"geometry":{"type":"Point","coordinates":[44.624108,34.897895]}},{"type":"Feature","id":"osm-way-1371289631-building","properties":{"id":"osm-way-1371289631-building","name":"بنکەی تەندروستی کۆماری","kind":"poi","tier":"poi_landmark","priority":95.055,"context":"نەخۆشخانە","category":"نەخۆشخانە"},"geometry":{"type":"Point","coordinates":[44.6276657,34.9011081]}},{"type":"Feature","id":"osm-way-1372214712-building","properties":{"id":"osm-way-1372214712-building","name":"قسم الطب العدلی","kind":"poi","tier":"poi_landmark","priority":95.055,"context":"نەخۆشخانە","category":"نەخۆشخانە"},"geometry":{"type":"Point","coordinates":[44.6355032,34.8838973]}},{"type":"Feature","id":"osm-way-1372485814-building","properties":{"id":"osm-way-1372485814-building","name":"مرکز الاسعاف الفوری طوز","kind":"poi","tier":"poi_landmark","priority":95.055,"context":"نەخۆشخانە","category":"نەخۆشخانە"},"geometry":{"type":"Point","coordinates":[44.638317,34.8831483]}},{"type":"Feature","id":"osm-way-1372112674-building","properties":{"id":"osm-way-1372112674-building","name":"مرکز صحی حی العسکری","kind":"poi","tier":"poi_landmark","priority":95.055,"context":"نەخۆشخانە","category":"نەخۆشخانە"},"geometry":{"type":"Point","coordinates":[44.6097431,34.8836376]}},{"type":"Feature","id":"osm-way-882131030-building","properties":{"id":"osm-way-882131030-building","name":"مرکز صحی رزگاری","kind":"poi","tier":"poi_landmark","priority":95.055,"context":"نەخۆشخانە","category":"نەخۆشخانە"},"geometry":{"type":"Point","coordinates":[44.6395163,34.8891604]}},{"type":"Feature","id":"osm-way-1372215349-building","properties":{"id":"osm-way-1372215349-building","name":"مرکز صحی طوز الکبیر","kind":"poi","tier":"poi_landmark","priority":95.055,"context":"نەخۆشخانە","category":"نەخۆشخانە"},"geometry":{"type":"Point","coordinates":[44.6308222,34.883467]}},{"type":"Feature","id":"osm-way-1371365210-building","properties":{"id":"osm-way-1371365210-building","name":"مستشفی الترکی","kind":"poi","tier":"poi_landmark","priority":95.055,"context":"نەخۆشخانە","category":"نەخۆشخانە"},"geometry":{"type":"Point","coordinates":[44.6088794,34.9142746]}},{"type":"Feature","id":"osm-way-1371934670-building","properties":{"id":"osm-way-1371934670-building","name":"مستشفی طوز العام","kind":"poi","tier":"poi_landmark","priority":95.055,"context":"نەخۆشخانە","category":"نەخۆشخانە"},"geometry":{"type":"Point","coordinates":[44.6357308,34.8842332]}},{"type":"Feature","id":"osm-node-9771225417-bank","properties":{"id":"osm-node-9771225417-bank","name":"منفذ هاوار","kind":"poi","tier":"poi_landmark","priority":92.1,"context":"بانک","category":"بانک"},"geometry":{"type":"Point","coordinates":[44.6197227,34.8959632]}},{"type":"Feature","id":"osm-way-1372505869-bank","properties":{"id":"osm-way-1372505869-bank","name":"بنک الرشید","kind":"poi","tier":"poi_landmark","priority":92.092,"context":"بانک","category":"بانک"},"geometry":{"type":"Point","coordinates":[44.6213267,34.8930134]}},{"type":"Feature","id":"osm-node-6700504886-comms_tower","properties":{"id":"osm-node-6700504886-comms_tower","name":"بورجی شامیل","kind":"poi","tier":"poi_regional","priority":84.1,"context":"بورجی پەیوەندی","category":"بورجی پەیوەندی"},"geometry":{"type":"Point","coordinates":[44.6307893,34.9032319]}},{"type":"Feature","id":"osm-way-1371927122-mall","properties":{"id":"osm-way-1371927122-mall","name":"دوز مول","kind":"poi","tier":"poi_regional","priority":78.092,"context":"مەوڵ","category":"مەوڵ"},"geometry":{"type":"Point","coordinates":[44.6242574,34.8866043]}},{"type":"Feature","id":"osm-way-1373340828-stadium","properties":{"id":"osm-way-1373340828-stadium","name":"یاریگای دووز","kind":"poi","tier":"poi_regional","priority":76.092,"context":"یاریگا","category":"یاریگا"},"geometry":{"type":"Point","coordinates":[44.5983689,34.871746]}},{"type":"Feature","id":"osm-node-8991338917-attraction","properties":{"id":"osm-node-8991338917-attraction","name":"احمد الریس","kind":"poi","tier":"poi_detail","priority":50.1,"context":"شوێنی گەشتیاری","category":"شوێنی گەشتیاری"},"geometry":{"type":"Point","coordinates":[44.6584056,34.7952853]}},{"type":"Feature","id":"osm-node-5921190786-attraction","properties":{"id":"osm-node-5921190786-attraction","name":"براوچلی اوباسی الترکمانیە","kind":"poi","tier":"poi_detail","priority":50.1,"context":"شوێنی گەشتیاری","category":"شوێنی گەشتیاری"},"geometry":{"type":"Point","coordinates":[44.5848962,34.7963585]}},{"type":"Feature","id":"osm-node-5921151787-attraction","properties":{"id":"osm-node-5921151787-attraction","name":"غماس اوباسی","kind":"poi","tier":"poi_detail","priority":50.1,"context":"شوێنی گەشتیاری","category":"شوێنی گەشتیاری"},"geometry":{"type":"Point","coordinates":[44.6617583,34.7839673]}},{"type":"Feature","id":"osm-node-9289468917-attraction","properties":{"id":"osm-node-9289468917-attraction","name":"قوم بلک","kind":"poi","tier":"poi_detail","priority":50.1,"context":"شوێنی گەشتیاری","category":"شوێنی گەشتیاری"},"geometry":{"type":"Point","coordinates":[44.7410285,34.9180255]}},{"type":"Feature","id":"osm-way-881586516-college","properties":{"id":"osm-way-881586516-college","name":"کۆلێژی پەروەردە","kind":"poi","tier":"poi_detail","priority":50.092,"context":"کۆلێژ","category":"کۆلێژ"},"geometry":{"type":"Point","coordinates":[44.6194122,34.8993863]}},{"type":"Feature","id":"osm-node-10127606198-fuel","properties":{"id":"osm-node-10127606198-fuel","name":"محطە طوز الاهلیە","kind":"poi","tier":"poi_regional","priority":82.094,"context":"وێستگەی سووتەمەنی","category":"وێستگەی سووتەمەنی"},"geometry":{"type":"Point","coordinates":[44.5891929,34.9400841]}},{"type":"Feature","id":"osm-node-13520040802-fuel","properties":{"id":"osm-node-13520040802-fuel","name":"محطە وقود الضواری","kind":"poi","tier":"poi_regional","priority":82.094,"context":"وێستگەی سووتەمەنی","category":"وێستگەی سووتەمەنی"},"geometry":{"type":"Point","coordinates":[44.6606255,34.8320236]}},{"type":"Feature","id":"osm-node-4964961227-fuel","properties":{"id":"osm-node-4964961227-fuel","name":"ویستکه ی قه لا","kind":"poi","tier":"poi_regional","priority":82.094,"context":"وێستگەی سووتەمەنی","category":"وێستگەی سووتەمەنی"},"geometry":{"type":"Point","coordinates":[44.5613798,34.9662534]}},{"type":"Feature","id":"osm-way-1371836659-fuel","properties":{"id":"osm-way-1371836659-fuel","name":"بەنزینخانەی جەلال","kind":"poi","tier":"poi_regional","priority":82.086,"context":"وێستگەی سووتەمەنی","category":"وێستگەی سووتەمەنی"},"geometry":{"type":"Point","coordinates":[44.6225995,34.903351]}},{"type":"Feature","id":"osm-way-1371853260-fuel","properties":{"id":"osm-way-1371853260-fuel","name":"محطە وقود الدرە","kind":"poi","tier":"poi_regional","priority":82.086,"context":"وێستگەی سووتەمەنی","category":"وێستگەی سووتەمەنی"},"geometry":{"type":"Point","coordinates":[44.6142169,34.8763392]}},{"type":"Feature","id":"osm-way-546563373-fuel","properties":{"id":"osm-way-546563373-fuel","name":"محطە وقود طوز القدیمە","kind":"poi","tier":"poi_regional","priority":82.086,"context":"وێستگەی سووتەمەنی","category":"وێستگەی سووتەمەنی"},"geometry":{"type":"Point","coordinates":[44.6253072,34.8834794]}},{"type":"Feature","id":"osm-way-1371369504-fuel","properties":{"id":"osm-way-1371369504-fuel","name":"محطە وقود طوز الکبیر","kind":"poi","tier":"poi_regional","priority":82.086,"context":"وێستگەی سووتەمەنی","category":"وێستگەی سووتەمەنی"},"geometry":{"type":"Point","coordinates":[44.6174525,34.8977]}},{"type":"Feature","id":"osm-way-1372197424-fuel","properties":{"id":"osm-way-1372197424-fuel","name":"معمل غاز فاروق الاهلی","kind":"poi","tier":"poi_regional","priority":82.086,"context":"وێستگەی سووتەمەنی","category":"وێستگەی سووتەمەنی"},"geometry":{"type":"Point","coordinates":[44.6001972,34.9289509]}},{"type":"Feature","id":"osm-way-881612859-bus_station","properties":{"id":"osm-way-881612859-bus_station","name":"کراج طوز","kind":"poi","tier":"poi_regional","priority":80.088,"context":"وێستگەی پاس","category":"وێستگەی پاس"},"geometry":{"type":"Point","coordinates":[44.6235186,34.8849424]}},{"type":"Feature","id":"osm-node-12748582341-police","properties":{"id":"osm-node-12748582341-police","name":"بازگەی خر وەلی","kind":"poi","tier":"poi_regional","priority":77.1,"context":"بنکەی پۆلیس","category":"بنکەی پۆلیس"},"geometry":{"type":"Point","coordinates":[44.5630339,34.9706624]}},{"type":"Feature","id":"osm-node-9653364018-police","properties":{"id":"osm-node-9653364018-police","name":"بازگەی گەڕەکی برایەتی","kind":"poi","tier":"poi_regional","priority":77.1,"context":"بنکەی پۆلیس","category":"بنکەی پۆلیس"},"geometry":{"type":"Point","coordinates":[44.6125492,34.9049959]}},{"type":"Feature","id":"osm-node-5282064921-police","properties":{"id":"osm-node-5282064921-police","name":"بەڕێوەبەرایەتی پۆلیسی سلێمان بەگ","kind":"poi","tier":"poi_regional","priority":77.1,"context":"بنکەی پۆلیس","category":"بنکەی پۆلیس"},"geometry":{"type":"Point","coordinates":[44.6689253,34.7918623]}},{"type":"Feature","id":"osm-node-9682279618-police","properties":{"id":"osm-node-9682279618-police","name":"سیطرە سلیمان بیک","kind":"poi","tier":"poi_regional","priority":77.1,"context":"بنکەی پۆلیس","category":"بنکەی پۆلیس"},"geometry":{"type":"Point","coordinates":[44.6752251,34.8088349]}},{"type":"Feature","id":"osm-node-4834175721-police","properties":{"id":"osm-node-4834175721-police","name":"معسکر قوات الترکمان","kind":"poi","tier":"poi_regional","priority":77.1,"context":"بنکەی پۆلیس","category":"بنکەی پۆلیس"},"geometry":{"type":"Point","coordinates":[44.6167242,34.7982029]}},{"type":"Feature","id":"osm-way-1372672936-police","properties":{"id":"osm-way-1372672936-police","name":"بنکەی پۆلیسی کۆماری","kind":"poi","tier":"poi_regional","priority":77.092,"context":"بنکەی پۆلیس","category":"بنکەی پۆلیس"},"geometry":{"type":"Point","coordinates":[44.6262269,34.8934172]}},{"type":"Feature","id":"osm-way-1372157179-police","properties":{"id":"osm-way-1372157179-police","name":"قسم الاستخبارات","kind":"poi","tier":"poi_regional","priority":77.092,"context":"بنکەی پۆلیس","category":"بنکەی پۆلیس"},"geometry":{"type":"Point","coordinates":[44.6340483,34.8798007]}},{"type":"Feature","id":"osm-way-1372115010-police","properties":{"id":"osm-way-1372115010-police","name":"مرکز شرطە حمورابی","kind":"poi","tier":"poi_regional","priority":77.092,"context":"بنکەی پۆلیس","category":"بنکەی پۆلیس"},"geometry":{"type":"Point","coordinates":[44.610392,34.8850365]}},{"type":"Feature","id":"osm-way-1371936204-police","properties":{"id":"osm-way-1371936204-police","name":"مرکز شرطە طوز","kind":"poi","tier":"poi_regional","priority":77.092,"context":"بنکەی پۆلیس","category":"بنکەی پۆلیس"},"geometry":{"type":"Point","coordinates":[44.6335608,34.8799976]}},{"type":"Feature","id":"osm-way-1372683133-car_dealership","properties":{"id":"osm-way-1372683133-car_dealership","name":"پێشانگای ئۆتۆمبێل دووز","kind":"poi","tier":"poi_regional","priority":76.092,"context":"پێشانگای ئۆتۆمبیل","category":"پێشانگای ئۆتۆمبیل"},"geometry":{"type":"Point","coordinates":[44.6162582,34.9024852]}},{"type":"Feature","id":"osm-way-1371367056-residential","properties":{"id":"osm-way-1371367056-residential","name":"التون ستی","kind":"poi","tier":"poi_local","priority":68.045,"context":"کۆمپاوندی نیشتەجێبوون","category":"کۆمپاوندی نیشتەجێبوون"},"geometry":{"type":"Point","coordinates":[44.6064641,34.9184111]}},{"type":"Feature","id":"osm-way-1372195944-residential","properties":{"id":"osm-way-1372195944-residential","name":"حمرین ستی","kind":"poi","tier":"poi_local","priority":68.045,"context":"کۆمپاوندی نیشتەجێبوون","category":"کۆمپاوندی نیشتەجێبوون"},"geometry":{"type":"Point","coordinates":[44.6175717,34.9139816]}},{"type":"Feature","id":"osm-way-1378764552-residential","properties":{"id":"osm-way-1378764552-residential","name":"حی اق صو","kind":"poi","tier":"poi_local","priority":68.045,"context":"کۆمپاوندی نیشتەجێبوون","category":"کۆمپاوندی نیشتەجێبوون"},"geometry":{"type":"Point","coordinates":[44.632612,34.886918]}},{"type":"Feature","id":"osm-way-1011642871-residential","properties":{"id":"osm-way-1011642871-residential","name":"حی الطین","kind":"poi","tier":"poi_local","priority":68.045,"context":"کۆمپاوندی نیشتەجێبوون","category":"کۆمپاوندی نیشتەجێبوون"},"geometry":{"type":"Point","coordinates":[44.6161844,34.8752555]}},{"type":"Feature","id":"osm-way-818650999-residential","properties":{"id":"osm-way-818650999-residential","name":"حی العسکری","kind":"poi","tier":"poi_local","priority":68.045,"context":"کۆمپاوندی نیشتەجێبوون","category":"کۆمپاوندی نیشتەجێبوون"},"geometry":{"type":"Point","coordinates":[44.6155991,34.8832805]}},{"type":"Feature","id":"osm-way-1011643923-residential","properties":{"id":"osm-way-1011643923-residential","name":"حی امام احمد","kind":"poi","tier":"poi_local","priority":68.045,"context":"کۆمپاوندی نیشتەجێبوون","category":"کۆمپاوندی نیشتەجێبوون"},"geometry":{"type":"Point","coordinates":[44.6253186,34.8769029]}},{"type":"Feature","id":"osm-way-1378766957-residential","properties":{"id":"osm-way-1378766957-residential","name":"حی باغلار","kind":"poi","tier":"poi_local","priority":68.045,"context":"کۆمپاوندی نیشتەجێبوون","category":"کۆمپاوندی نیشتەجێبوون"},"geometry":{"type":"Point","coordinates":[44.625423,34.8895085]}},{"type":"Feature","id":"osm-way-1373352902-residential","properties":{"id":"osm-way-1373352902-residential","name":"حی ملا صفر","kind":"poi","tier":"poi_local","priority":68.045,"context":"کۆمپاوندی نیشتەجێبوون","category":"کۆمپاوندی نیشتەجێبوون"},"geometry":{"type":"Point","coordinates":[44.6287381,34.8833691]}},{"type":"Feature","id":"osm-way-1373354731-residential","properties":{"id":"osm-way-1373354731-residential","name":"حی ینکی داملار","kind":"poi","tier":"poi_local","priority":68.045,"context":"کۆمپاوندی نیشتەجێبوون","category":"کۆمپاوندی نیشتەجێبوون"},"geometry":{"type":"Point","coordinates":[44.6356475,34.8787672]}},{"type":"Feature","id":"osm-way-529767141-residential","properties":{"id":"osm-way-529767141-residential","name":"سلیمان بیک","kind":"poi","tier":"poi_local","priority":68.045,"context":"کۆمپاوندی نیشتەجێبوون","category":"کۆمپاوندی نیشتەجێبوون"},"geometry":{"type":"Point","coordinates":[44.6625192,34.7905631]}},{"type":"Feature","id":"osm-way-786369854-residential","properties":{"id":"osm-way-786369854-residential","name":"سەرچنار","kind":"poi","tier":"poi_local","priority":68.045,"context":"کۆمپاوندی نیشتەجێبوون","category":"کۆمپاوندی نیشتەجێبوون"},"geometry":{"type":"Point","coordinates":[44.728639,34.8212679]}},{"type":"Feature","id":"osm-way-786370935-residential","properties":{"id":"osm-way-786370935-residential","name":"شۆراو","kind":"poi","tier":"poi_local","priority":68.045,"context":"کۆمپاوندی نیشتەجێبوون","category":"کۆمپاوندی نیشتەجێبوون"},"geometry":{"type":"Point","coordinates":[44.7020408,34.8784459]}},{"type":"Feature","id":"osm-way-786371393-residential","properties":{"id":"osm-way-786371393-residential","name":"شێخ حەوێزی","kind":"poi","tier":"poi_local","priority":68.045,"context":"کۆمپاوندی نیشتەجێبوون","category":"کۆمپاوندی نیشتەجێبوون"},"geometry":{"type":"Point","coordinates":[44.7157187,34.9496876]}},{"type":"Feature","id":"osm-way-1380950823-residential","properties":{"id":"osm-way-1380950823-residential","name":"نور سەباح","kind":"poi","tier":"poi_local","priority":68.045,"context":"کۆمپاوندی نیشتەجێبوون","category":"کۆمپاوندی نیشتەجێبوون"},"geometry":{"type":"Point","coordinates":[44.5934556,34.93804]}},{"type":"Feature","id":"osm-way-217515580-residential","properties":{"id":"osm-way-217515580-residential","name":"گهڕهکی خورماتووی نوێ","kind":"poi","tier":"poi_local","priority":68.045,"context":"کۆمپاوندی نیشتەجێبوون","category":"کۆمپاوندی نیشتەجێبوون"},"geometry":{"type":"Point","coordinates":[44.6113476,34.9105461]}},{"type":"Feature","id":"osm-way-1374202591-residential","properties":{"id":"osm-way-1374202591-residential","name":"گوندی قوشەلان","kind":"poi","tier":"poi_local","priority":68.045,"context":"کۆمپاوندی نیشتەجێبوون","category":"کۆمپاوندی نیشتەجێبوون"},"geometry":{"type":"Point","coordinates":[44.6783495,34.9891172]}},{"type":"Feature","id":"osm-way-217515582-residential","properties":{"id":"osm-way-217515582-residential","name":"گەڕەکی برایەتی","kind":"poi","tier":"poi_local","priority":68.045,"context":"کۆمپاوندی نیشتەجێبوون","category":"کۆمپاوندی نیشتەجێبوون"},"geometry":{"type":"Point","coordinates":[44.6082693,34.9054226]}},{"type":"Feature","id":"osm-way-1373122105-residential","properties":{"id":"osm-way-1373122105-residential","name":"گەڕەکی ڕزگاری","kind":"poi","tier":"poi_local","priority":68.045,"context":"کۆمپاوندی نیشتەجێبوون","category":"کۆمپاوندی نیشتەجێبوون"},"geometry":{"type":"Point","coordinates":[44.642356,34.8874083]}},{"type":"Feature","id":"osm-way-46946088-residential","properties":{"id":"osm-way-46946088-residential","name":"گەڕەکی کۆماری","kind":"poi","tier":"poi_local","priority":68.045,"context":"کۆمپاوندی نیشتەجێبوون","category":"کۆمپاوندی نیشتەجێبوون"},"geometry":{"type":"Point","coordinates":[44.6287014,34.8996297]}},{"type":"Feature","id":"osm-way-993079638-industrial","properties":{"id":"osm-way-993079638-industrial","name":"حی الصناعی طوز","kind":"poi","tier":"poi_local","priority":66.045,"context":"ناوچەی پیشەسازی","category":"ناوچەی پیشەسازی"},"geometry":{"type":"Point","coordinates":[44.6188351,34.9015773]}},{"type":"Feature","id":"osm-way-1373129484-industrial","properties":{"id":"osm-way-1373129484-industrial","name":"سایلو طوز","kind":"poi","tier":"poi_local","priority":66.045,"context":"ناوچەی پیشەسازی","category":"ناوچەی پیشەسازی"},"geometry":{"type":"Point","coordinates":[44.6166841,34.8906194]}},{"type":"Feature","id":"osm-way-1372504410-industrial","properties":{"id":"osm-way-1372504410-industrial","name":"محطە کهرباء طوز","kind":"poi","tier":"poi_local","priority":66.045,"context":"ناوچەی پیشەسازی","category":"ناوچەی پیشەسازی"},"geometry":{"type":"Point","coordinates":[44.6192691,34.8937267]}},{"type":"Feature","id":"osm-way-1112234798-industrial","properties":{"id":"osm-way-1112234798-industrial","name":"مصفی الضواری","kind":"poi","tier":"poi_local","priority":66.045,"context":"ناوچەی پیشەسازی","category":"ناوچەی پیشەسازی"},"geometry":{"type":"Point","coordinates":[44.679089,34.822088]}},{"type":"Feature","id":"osm-way-1377082926-industrial","properties":{"id":"osm-way-1377082926-industrial","name":"کۆمپانیای ئاسنی عیماد","kind":"poi","tier":"poi_local","priority":66.045,"context":"ناوچەی پیشەسازی","category":"ناوچەی پیشەسازی"},"geometry":{"type":"Point","coordinates":[44.5718829,34.9826829]}},{"type":"Feature","id":"osm-node-8961357220-supermarket","properties":{"id":"osm-node-8961357220-supermarket","name":"اسواق طارق للمواد الغذائیە","kind":"poi","tier":"poi_detail","priority":50.1,"context":"سۆپەرمارکێت","category":"سۆپەرمارکێت"},"geometry":{"type":"Point","coordinates":[44.6394646,34.8866221]}},{"type":"Feature","id":"osm-node-5282053724-supermarket","properties":{"id":"osm-node-5282053724-supermarket","name":"الجنبر","kind":"poi","tier":"poi_detail","priority":50.1,"context":"سۆپەرمارکێت","category":"سۆپەرمارکێت"},"geometry":{"type":"Point","coordinates":[44.6705665,34.7923614]}},{"type":"Feature","id":"osm-node-12786423208-marketplace","properties":{"id":"osm-node-12786423208-marketplace","name":"بازاری گەورەی دووز","kind":"poi","tier":"poi_detail","priority":50.1,"context":"بازاڕ","category":"بازاڕ"},"geometry":{"type":"Point","coordinates":[44.6306889,34.8864632]}},{"type":"Feature","id":"osm-node-4592217191-marketplace","properties":{"id":"osm-node-4592217191-marketplace","name":"بازاڕی حەسەن قەوان","kind":"poi","tier":"poi_detail","priority":50.1,"context":"بازاڕ","category":"بازاڕ"},"geometry":{"type":"Point","coordinates":[44.6236234,34.898444]}},{"type":"Feature","id":"osm-node-12786413300-marketplace","properties":{"id":"osm-node-12786413300-marketplace","name":"بازاڕی سەوزە","kind":"poi","tier":"poi_detail","priority":50.1,"context":"بازاڕ","category":"بازاڕ"},"geometry":{"type":"Point","coordinates":[44.6270416,34.8869023]}},{"type":"Feature","id":"osm-node-9874923717-school","properties":{"id":"osm-node-9874923717-school","name":"جنید","kind":"poi","tier":"poi_detail","priority":50.1,"context":"قوتابخانە","category":"قوتابخانە"},"geometry":{"type":"Point","coordinates":[44.6179473,34.8791027]}},{"type":"Feature","id":"osm-node-5282076921-restaurant","properties":{"id":"osm-node-5282076921-restaurant","name":"دار الاستراحە","kind":"poi","tier":"poi_detail","priority":50.1,"context":"چێشتخانە","category":"چێشتخانە"},"geometry":{"type":"Point","coordinates":[44.6683809,34.787074]}},{"type":"Feature","id":"osm-node-5226071322-restaurant","properties":{"id":"osm-node-5226071322-restaurant","name":"دشتی بهشتی","kind":"poi","tier":"poi_detail","priority":50.1,"context":"چێشتخانە","category":"چێشتخانە"},"geometry":{"type":"Point","coordinates":[44.6006735,34.9243193]}},{"type":"Feature","id":"osm-node-6703299487-pharmacy","properties":{"id":"osm-node-6703299487-pharmacy","name":"دەرمانخانەی مختار","kind":"poi","tier":"poi_detail","priority":50.1,"context":"دەرمانخانە","category":"دەرمانخانە"},"geometry":{"type":"Point","coordinates":[44.6266287,34.8926642]}},{"type":"Feature","id":"osm-node-7271676185-clinic","properties":{"id":"osm-node-7271676185-clinic","name":"شارع الاطباء سوق اکراد /شەقامی پزیشکان کورد","kind":"poi","tier":"poi_detail","priority":50.1,"context":"کلینیک","category":"کلینیک"},"geometry":{"type":"Point","coordinates":[44.6234431,34.8985425]}},{"type":"Feature","id":"osm-node-12368401941-pharmacy","properties":{"id":"osm-node-12368401941-pharmacy","name":"صیدلیە الاء نجدت النجار","kind":"poi","tier":"poi_detail","priority":50.1,"context":"دەرمانخانە","category":"دەرمانخانە"},"geometry":{"type":"Point","coordinates":[44.6306657,34.8821766]}},{"type":"Feature","id":"osm-node-5110854523-school","properties":{"id":"osm-node-5110854523-school","name":"عروه بن الورد","kind":"poi","tier":"poi_detail","priority":50.1,"context":"قوتابخانە","category":"قوتابخانە"},"geometry":{"type":"Point","coordinates":[44.662889,34.7936554]}},{"type":"Feature","id":"osm-node-12369112502-clinic","properties":{"id":"osm-node-12369112502-clinic","name":"عیادە الحافظ الاهلیە","kind":"poi","tier":"poi_detail","priority":50.1,"context":"کلینیک","category":"کلینیک"},"geometry":{"type":"Point","coordinates":[44.6236563,34.8827337]}},{"type":"Feature","id":"osm-node-9874930017-restaurant","properties":{"id":"osm-node-9874930017-restaurant","name":"قصابە حکمت","kind":"poi","tier":"poi_detail","priority":50.1,"context":"چێشتخانە","category":"چێشتخانە"},"geometry":{"type":"Point","coordinates":[44.6205012,34.8798376]}},{"type":"Feature","id":"osm-node-5282077222-school","properties":{"id":"osm-node-5282077222-school","name":"قوتابخانەی دواناوەندی فورات","kind":"poi","tier":"poi_detail","priority":50.1,"context":"قوتابخانە","category":"قوتابخانە"},"geometry":{"type":"Point","coordinates":[44.6686157,34.7912102]}},{"type":"Feature","id":"osm-node-5282053822-school","properties":{"id":"osm-node-5282053822-school","name":"قوتابخانەی دواناوەندی فورات - کوڕان","kind":"poi","tier":"poi_detail","priority":50.1,"context":"قوتابخانە","category":"قوتابخانە"},"geometry":{"type":"Point","coordinates":[44.6634153,34.7905076]}},{"type":"Feature","id":"osm-node-5282020726-school","properties":{"id":"osm-node-5282020726-school","name":"قوتابخانەی سەرەتایی خەندەق","kind":"poi","tier":"poi_detail","priority":50.1,"context":"قوتابخانە","category":"قوتابخانە"},"geometry":{"type":"Point","coordinates":[44.6695506,34.794023]}},{"type":"Feature","id":"osm-node-12369105302-supermarket","properties":{"id":"osm-node-12369105302-supermarket","name":"مارکت الحاج الهت","kind":"poi","tier":"poi_detail","priority":50.1,"context":"سۆپەرمارکێت","category":"سۆپەرمارکێت"},"geometry":{"type":"Point","coordinates":[44.6260411,34.8868026]}},{"type":"Feature","id":"osm-node-12368447579-supermarket","properties":{"id":"osm-node-12368447579-supermarket","name":"مارکت کرستال","kind":"poi","tier":"poi_detail","priority":50.1,"context":"سۆپەرمارکێت","category":"سۆپەرمارکێت"},"geometry":{"type":"Point","coordinates":[44.6264574,34.8796899]}},{"type":"Feature","id":"osm-node-7089600187-supermarket","properties":{"id":"osm-node-7089600187-supermarket","name":"مارکیت دیار","kind":"poi","tier":"poi_detail","priority":50.1,"context":"سۆپەرمارکێت","category":"سۆپەرمارکێت"},"geometry":{"type":"Point","coordinates":[44.6223796,34.8953673]}},{"type":"Feature","id":"osm-node-7068798385-supermarket","properties":{"id":"osm-node-7068798385-supermarket","name":"مارکیتی دیار","kind":"poi","tier":"poi_detail","priority":50.1,"context":"سۆپەرمارکێت","category":"سۆپەرمارکێت"},"geometry":{"type":"Point","coordinates":[44.6224645,34.8953412]}},{"type":"Feature","id":"osm-node-6609380185-supermarket","properties":{"id":"osm-node-6609380185-supermarket","name":"مارکێتی رەیان (عەباس حەمەلاو)","kind":"poi","tier":"poi_detail","priority":50.1,"context":"سۆپەرمارکێت","category":"سۆپەرمارکێت"},"geometry":{"type":"Point","coordinates":[44.624844,34.8940483]}},{"type":"Feature","id":"osm-node-9609642917-supermarket","properties":{"id":"osm-node-9609642917-supermarket","name":"مارکێتی زانیار","kind":"poi","tier":"poi_detail","priority":50.1,"context":"سۆپەرمارکێت","category":"سۆپەرمارکێت"},"geometry":{"type":"Point","coordinates":[44.6349764,34.8950004]}},{"type":"Feature","id":"osm-node-8089038517-school","properties":{"id":"osm-node-8089038517-school","name":"متوسطە الیقظە للبنین","kind":"poi","tier":"poi_detail","priority":50.1,"context":"قوتابخانە","category":"قوتابخانە"},"geometry":{"type":"Point","coordinates":[44.625735,34.8843409]}},{"type":"Feature","id":"osm-node-12834714501-clinic","properties":{"id":"osm-node-12834714501-clinic","name":"مجمع الامین الطبی","kind":"poi","tier":"poi_detail","priority":50.1,"context":"کلینیک","category":"کلینیک"},"geometry":{"type":"Point","coordinates":[44.6127215,34.8832648]}},{"type":"Feature","id":"osm-node-12386853102-clinic","properties":{"id":"osm-node-12386853102-clinic","name":"مجمع الثقە الطبی","kind":"poi","tier":"poi_detail","priority":50.1,"context":"کلینیک","category":"کلینیک"},"geometry":{"type":"Point","coordinates":[44.6267562,34.8847088]}},{"type":"Feature","id":"osm-node-9653364117-clinic","properties":{"id":"osm-node-9653364117-clinic","name":"مجمع طبی","kind":"poi","tier":"poi_detail","priority":50.1,"context":"کلینیک","category":"کلینیک"},"geometry":{"type":"Point","coordinates":[44.6303741,34.8834155]}},{"type":"Feature","id":"osm-node-9235981418-clinic","properties":{"id":"osm-node-9235981418-clinic","name":"مجمع محمد کمال الطبی","kind":"poi","tier":"poi_detail","priority":50.1,"context":"کلینیک","category":"کلینیک"},"geometry":{"type":"Point","coordinates":[44.6301929,34.8838867]}},{"type":"Feature","id":"osm-node-12379060883-marketplace","properties":{"id":"osm-node-12379060883-marketplace","name":"محل سید نجف","kind":"poi","tier":"poi_detail","priority":50.1,"context":"بازاڕ","category":"بازاڕ"},"geometry":{"type":"Point","coordinates":[44.627846,34.8850688]}},{"type":"Feature","id":"osm-node-9874925417-school","properties":{"id":"osm-node-9874925417-school","name":"مدرسە جنید الابتدائیە المختلطە","kind":"poi","tier":"poi_detail","priority":50.1,"context":"قوتابخانە","category":"قوتابخانە"},"geometry":{"type":"Point","coordinates":[44.6181074,34.8789544]}},{"type":"Feature","id":"osm-node-13404365001-school","properties":{"id":"osm-node-13404365001-school","name":"مدرسە ذی قار الابتدائیە المختلطە","kind":"poi","tier":"poi_detail","priority":50.1,"context":"قوتابخانە","category":"قوتابخانە"},"geometry":{"type":"Point","coordinates":[44.5580122,34.9131507]}},{"type":"Feature","id":"osm-node-5282053722-school","properties":{"id":"osm-node-5282053722-school","name":"مدرسە سلیمان بیک الابتدائیە","kind":"poi","tier":"poi_detail","priority":50.1,"context":"قوتابخانە","category":"قوتابخانە"},"geometry":{"type":"Point","coordinates":[44.6653434,34.7965044]}},{"type":"Feature","id":"osm-node-8144460517-school","properties":{"id":"osm-node-8144460517-school","name":"مدرسە صدی العراق للبنین","kind":"poi","tier":"poi_detail","priority":50.1,"context":"قوتابخانە","category":"قوتابخانە"},"geometry":{"type":"Point","coordinates":[44.6180194,34.8790548]}},{"type":"Feature","id":"osm-node-5282020623-clinic","properties":{"id":"osm-node-5282020623-clinic","name":"مستشفی سلیمان بیک","kind":"poi","tier":"poi_detail","priority":50.1,"context":"کلینیک","category":"کلینیک"},"geometry":{"type":"Point","coordinates":[44.6687897,34.7916131]}},{"type":"Feature","id":"osm-node-12431124567-restaurant","properties":{"id":"osm-node-12431124567-restaurant","name":"مشویات ملک الاجنحه","kind":"poi","tier":"poi_detail","priority":50.1,"context":"چێشتخانە","category":"چێشتخانە"},"geometry":{"type":"Point","coordinates":[44.6231422,34.8882714]}},{"type":"Feature","id":"osm-node-7869996885-restaurant","properties":{"id":"osm-node-7869996885-restaurant","name":"مطعم الاصدقاء","kind":"poi","tier":"poi_detail","priority":50.1,"context":"چێشتخانە","category":"چێشتخانە"},"geometry":{"type":"Point","coordinates":[44.6220059,34.8814934]}},{"type":"Feature","id":"osm-node-13243152901-restaurant","properties":{"id":"osm-node-13243152901-restaurant","name":"مطعم وکباب عشتار","kind":"poi","tier":"poi_detail","priority":50.1,"context":"چێشتخانە","category":"چێشتخانە"},"geometry":{"type":"Point","coordinates":[44.6733927,34.813249]}},{"type":"Feature","id":"osm-node-7119235386-restaurant","properties":{"id":"osm-node-7119235386-restaurant","name":"مطعم وکص الحجی","kind":"poi","tier":"poi_detail","priority":50.1,"context":"چێشتخانە","category":"چێشتخانە"},"geometry":{"type":"Point","coordinates":[44.5845151,34.9236301]}},{"type":"Feature","id":"osm-node-12427036275-restaurant","properties":{"id":"osm-node-12427036275-restaurant","name":"مطعم کباب محمد","kind":"poi","tier":"poi_detail","priority":50.1,"context":"چێشتخانە","category":"چێشتخانە"},"geometry":{"type":"Point","coordinates":[44.6277308,34.8806474]}},{"type":"Feature","id":"osm-node-12450887701-restaurant","properties":{"id":"osm-node-12450887701-restaurant","name":"مطعم کباب محمد","kind":"poi","tier":"poi_detail","priority":50.1,"context":"چێشتخانە","category":"چێشتخانە"},"geometry":{"type":"Point","coordinates":[44.6281075,34.8807978]}},{"type":"Feature","id":"osm-node-12368492974-restaurant","properties":{"id":"osm-node-12368492974-restaurant","name":"مطعم کص الکرادە الشعبی","kind":"poi","tier":"poi_detail","priority":50.1,"context":"چێشتخانە","category":"چێشتخانە"},"geometry":{"type":"Point","coordinates":[44.6382065,34.8674256]}},{"type":"Feature","id":"osm-node-8961357221-restaurant","properties":{"id":"osm-node-8961357221-restaurant","name":"موکولات طربوش","kind":"poi","tier":"poi_detail","priority":50.1,"context":"چێشتخانە","category":"چێشتخانە"},"geometry":{"type":"Point","coordinates":[44.6310916,34.8821058]}},{"type":"Feature","id":"osm-node-12369112503-school","properties":{"id":"osm-node-12369112503-school","name":"مۆسسە الایثار الشباب للثقافەوالتنمیە","kind":"poi","tier":"poi_detail","priority":50.1,"context":"قوتابخانە","category":"قوتابخانە"},"geometry":{"type":"Point","coordinates":[44.6243911,34.8807179]}},{"type":"Feature","id":"osm-node-6258316885-restaurant","properties":{"id":"osm-node-6258316885-restaurant","name":"کباب عزیز","kind":"poi","tier":"poi_detail","priority":50.1,"context":"چێشتخانە","category":"چێشتخانە"},"geometry":{"type":"Point","coordinates":[44.6190156,34.8970312]}},{"type":"Feature","id":"osm-way-1372515476-kindergarten","properties":{"id":"osm-way-1372515476-kindergarten","name":"باخچەی ساوایانی بەهار","kind":"poi","tier":"poi_detail","priority":50.092,"context":"باخچەی ساوایان","category":"باخچەی ساوایان"},"geometry":{"type":"Point","coordinates":[44.6273555,34.9020668]}},{"type":"Feature","id":"osm-way-1371931409-kindergarten","properties":{"id":"osm-way-1371931409-kindergarten","name":"باخچەی ساوایانی دڵشاد","kind":"poi","tier":"poi_detail","priority":50.092,"context":"باخچەی ساوایان","category":"باخچەی ساوایان"},"geometry":{"type":"Point","coordinates":[44.6390765,34.8845902]}},{"type":"Feature","id":"osm-way-1371330197-kindergarten","properties":{"id":"osm-way-1371330197-kindergarten","name":"باخچەی ساوایانی زهور","kind":"poi","tier":"poi_detail","priority":50.092,"context":"باخچەی ساوایان","category":"باخچەی ساوایان"},"geometry":{"type":"Point","coordinates":[44.6274813,34.8957183]}},{"type":"Feature","id":"osm-way-1373113684-marketplace","properties":{"id":"osm-way-1373113684-marketplace","name":"بازاری کۆماری","kind":"poi","tier":"poi_detail","priority":50.092,"context":"بازاڕ","category":"بازاڕ"},"geometry":{"type":"Point","coordinates":[44.6242579,34.8977562]}},{"type":"Feature","id":"osm-way-1372692746-marketplace","properties":{"id":"osm-way-1372692746-marketplace","name":"بازاڕی سەوزە","kind":"poi","tier":"poi_detail","priority":50.092,"context":"بازاڕ","category":"بازاڕ"},"geometry":{"type":"Point","coordinates":[44.6155777,34.9023475]}},{"type":"Feature","id":"osm-way-1372715060-marketplace","properties":{"id":"osm-way-1372715060-marketplace","name":"دوکانەکانی شارەوانی","kind":"poi","tier":"poi_detail","priority":50.092,"context":"بازاڕ","category":"بازاڕ"},"geometry":{"type":"Point","coordinates":[44.6331262,34.8972895]}},{"type":"Feature","id":"osm-way-1372115009-kindergarten","properties":{"id":"osm-way-1372115009-kindergarten","name":"روضە الشمائل","kind":"poi","tier":"poi_detail","priority":50.092,"context":"باخچەی ساوایان","category":"باخچەی ساوایان"},"geometry":{"type":"Point","coordinates":[44.6098471,34.8847071]}},{"type":"Feature","id":"osm-way-1376564983-supermarket","properties":{"id":"osm-way-1376564983-supermarket","name":"سوپەرمارکێتی کاوه","kind":"poi","tier":"poi_detail","priority":50.092,"context":"سۆپەرمارکێت","category":"سۆپەرمارکێت"},"geometry":{"type":"Point","coordinates":[44.6136019,34.905077]}},{"type":"Feature","id":"osm-way-1371850611-fire_station","properties":{"id":"osm-way-1371850611-fire_station","name":"محطە اطفاء الحریق طوز","kind":"poi","tier":"poi_detail","priority":50.092,"context":"بنکەی ئاگرکوژێنەوە","category":"بنکەی ئاگرکوژێنەوە"},"geometry":{"type":"Point","coordinates":[44.6229977,34.8844728]}},{"type":"Feature","id":"osm-way-1371852135-school","properties":{"id":"osm-way-1371852135-school","name":"مدرسە امام الشافعی","kind":"poi","tier":"poi_detail","priority":50.092,"context":"قوتابخانە","category":"قوتابخانە"},"geometry":{"type":"Point","coordinates":[44.6245922,34.8843742]}},{"type":"Feature","id":"osm-way-1372574212-school","properties":{"id":"osm-way-1372574212-school","name":"مدرسە یافا الابتدائیە للبنین","kind":"poi","tier":"poi_detail","priority":50.092,"context":"قوتابخانە","category":"قوتابخانە"},"geometry":{"type":"Point","coordinates":[44.6261191,34.884079]}},{"type":"Feature","id":"osm-way-1371358946-restaurant","properties":{"id":"osm-way-1371358946-restaurant","name":"مطعم ابو شوان","kind":"poi","tier":"poi_detail","priority":50.092,"context":"چێشتخانە","category":"چێشتخانە"},"geometry":{"type":"Point","coordinates":[44.560981,34.9681653]}},{"type":"Feature","id":"osm-way-1372203178-restaurant","properties":{"id":"osm-way-1372203178-restaurant","name":"مطعم ازادی","kind":"poi","tier":"poi_detail","priority":50.092,"context":"چێشتخانە","category":"چێشتخانە"},"geometry":{"type":"Point","coordinates":[44.5626967,34.9636042]}},{"type":"Feature","id":"osm-way-785957799-restaurant","properties":{"id":"osm-way-785957799-restaurant","name":"مطعم الدار السلام","kind":"poi","tier":"poi_detail","priority":50.092,"context":"چێشتخانە","category":"چێشتخانە"},"geometry":{"type":"Point","coordinates":[44.6238065,34.8946649]}},{"type":"Feature","id":"osm-way-1372204046-restaurant","properties":{"id":"osm-way-1372204046-restaurant","name":"مطعم الدوحە","kind":"poi","tier":"poi_detail","priority":50.092,"context":"چێشتخانە","category":"چێشتخانە"},"geometry":{"type":"Point","coordinates":[44.5750661,34.9549423]}},{"type":"Feature","id":"osm-way-1372202862-restaurant","properties":{"id":"osm-way-1372202862-restaurant","name":"مطعم القمە","kind":"poi","tier":"poi_detail","priority":50.092,"context":"چێشتخانە","category":"چێشتخانە"},"geometry":{"type":"Point","coordinates":[44.5680817,34.9622993]}},{"type":"Feature","id":"osm-way-1372583200-restaurant","properties":{"id":"osm-way-1372583200-restaurant","name":"مطعم برج الحیاە","kind":"poi","tier":"poi_detail","priority":50.092,"context":"چێشتخانە","category":"چێشتخانە"},"geometry":{"type":"Point","coordinates":[44.5438964,34.9801834]}},{"type":"Feature","id":"osm-way-1372172016-restaurant","properties":{"id":"osm-way-1372172016-restaurant","name":"مطعم تاج الضیافە","kind":"poi","tier":"poi_detail","priority":50.092,"context":"چێشتخانە","category":"چێشتخانە"},"geometry":{"type":"Point","coordinates":[44.6171259,34.8983197]}},{"type":"Feature","id":"osm-way-1372203682-restaurant","properties":{"id":"osm-way-1372203682-restaurant","name":"مطعم دبی","kind":"poi","tier":"poi_detail","priority":50.092,"context":"چێشتخانە","category":"چێشتخانە"},"geometry":{"type":"Point","coordinates":[44.5584792,34.9676304]}},{"type":"Feature","id":"osm-way-1372202217-restaurant","properties":{"id":"osm-way-1372202217-restaurant","name":"مطعم وفندق جنە العراق","kind":"poi","tier":"poi_detail","priority":50.092,"context":"چێشتخانە","category":"چێشتخانە"},"geometry":{"type":"Point","coordinates":[44.5907693,34.9395432]}},{"type":"Feature","id":"osm-way-1372198387-restaurant","properties":{"id":"osm-way-1372198387-restaurant","name":"چیشتخانەو ئوتیلی کۆشکی میوانداری","kind":"poi","tier":"poi_detail","priority":50.092,"context":"چێشتخانە","category":"چێشتخانە"},"geometry":{"type":"Point","coordinates":[44.5953204,34.932805]}},{"type":"Feature","id":"osm-way-1372674192-restaurant","properties":{"id":"osm-way-1372674192-restaurant","name":"چێشتخانە و ئوتێلی ئیستەنبوڵ","kind":"poi","tier":"poi_detail","priority":50.092,"context":"چێشتخانە","category":"چێشتخانە"},"geometry":{"type":"Point","coordinates":[44.6673626,34.8235782]}},{"type":"Feature","id":"osm-way-1372674559-restaurant","properties":{"id":"osm-way-1372674559-restaurant","name":"چێشتخانەی عەباس","kind":"poi","tier":"poi_detail","priority":50.092,"context":"چێشتخانە","category":"چێشتخانە"},"geometry":{"type":"Point","coordinates":[44.6700314,34.8199523]}},{"type":"Feature","id":"osm-way-1372118654-building","properties":{"id":"osm-way-1372118654-building","name":"اعدادیە التمریض","kind":"poi","tier":"poi_detail","priority":50.055,"context":"قوتابخانە","category":"قوتابخانە"},"geometry":{"type":"Point","coordinates":[44.609694,34.8865058]}},{"type":"Feature","id":"osm-way-1372215927-building","properties":{"id":"osm-way-1372215927-building","name":"اعدادیە صناعە طوز","kind":"poi","tier":"poi_detail","priority":50.055,"context":"قوتابخانە","category":"قوتابخانە"},"geometry":{"type":"Point","coordinates":[44.6315953,34.8834151]}},{"type":"Feature","id":"osm-way-1372482219-building","properties":{"id":"osm-way-1372482219-building","name":"اعدادیە طوز للبنات","kind":"poi","tier":"poi_detail","priority":50.055,"context":"قوتابخانە","category":"قوتابخانە"},"geometry":{"type":"Point","coordinates":[44.6350855,34.8829446]}},{"type":"Feature","id":"osm-way-1372154646-building","properties":{"id":"osm-way-1372154646-building","name":"اعدادیە طوز للبنین","kind":"poi","tier":"poi_detail","priority":50.055,"context":"قوتابخانە","category":"قوتابخانە"},"geometry":{"type":"Point","coordinates":[44.6345929,34.8802265]}},{"type":"Feature","id":"osm-way-1371344595-building","properties":{"id":"osm-way-1371344595-building","name":"ثانویە ابن خلدون للبنین","kind":"poi","tier":"poi_detail","priority":50.055,"context":"قوتابخانە","category":"قوتابخانە"},"geometry":{"type":"Point","coordinates":[44.6240728,34.8936158]}},{"type":"Feature","id":"osm-way-1372224794-building","properties":{"id":"osm-way-1372224794-building","name":"ثانویە بتول للبنات","kind":"poi","tier":"poi_detail","priority":50.055,"context":"قوتابخانە","category":"قوتابخانە"},"geometry":{"type":"Point","coordinates":[44.6328119,34.8899086]}},{"type":"Feature","id":"osm-way-1372112675-building","properties":{"id":"osm-way-1372112675-building","name":"ثانویە دمشق للبنات","kind":"poi","tier":"poi_detail","priority":50.055,"context":"قوتابخانە","category":"قوتابخانە"},"geometry":{"type":"Point","coordinates":[44.6091105,34.883453]}},{"type":"Feature","id":"osm-way-1371346320-building","properties":{"id":"osm-way-1371346320-building","name":"ثانویە عائشە للبنات","kind":"poi","tier":"poi_detail","priority":50.055,"context":"قوتابخانە","category":"قوتابخانە"},"geometry":{"type":"Point","coordinates":[44.6232536,34.8941629]}},{"type":"Feature","id":"osm-way-1372486430-building","properties":{"id":"osm-way-1372486430-building","name":"دواناوەندی خانزادی کچان","kind":"poi","tier":"poi_detail","priority":50.055,"context":"قوتابخانە","category":"قوتابخانە"},"geometry":{"type":"Point","coordinates":[44.6385888,34.8852322]}},{"type":"Feature","id":"osm-way-1375056289-building","properties":{"id":"osm-way-1375056289-building","name":"قوتابخانەی ئەروا","kind":"poi","tier":"poi_detail","priority":50.055,"context":"قوتابخانە","category":"قوتابخانە"},"geometry":{"type":"Point","coordinates":[44.6274709,34.9016417]}},{"type":"Feature","id":"osm-way-1372480298-building","properties":{"id":"osm-way-1372480298-building","name":"قوتابخانەی ئەمینی سەرەتایی","kind":"poi","tier":"poi_detail","priority":50.055,"context":"قوتابخانە","category":"قوتابخانە"},"geometry":{"type":"Point","coordinates":[44.6326567,34.8922982]}},{"type":"Feature","id":"osm-way-1372517306-building","properties":{"id":"osm-way-1372517306-building","name":"قوتابخانەی شەفەق سەرەتایی","kind":"poi","tier":"poi_detail","priority":50.055,"context":"قوتابخانە","category":"قوتابخانە"},"geometry":{"type":"Point","coordinates":[44.6267157,34.9019449]}},{"type":"Feature","id":"osm-way-1371308619-building","properties":{"id":"osm-way-1371308619-building","name":"قوتابخانەی فوتوە","kind":"poi","tier":"poi_detail","priority":50.055,"context":"قوتابخانە","category":"قوتابخانە"},"geometry":{"type":"Point","coordinates":[44.629668,34.8964242]}},{"type":"Feature","id":"osm-way-785963112-building","properties":{"id":"osm-way-785963112-building","name":"قوتابخانەی فەراهیدی بۆ کوڕان","kind":"poi","tier":"poi_detail","priority":50.055,"context":"قوتابخانە","category":"قوتابخانە"},"geometry":{"type":"Point","coordinates":[44.6265313,34.8932571]}},{"type":"Feature","id":"osm-way-1372516532-building","properties":{"id":"osm-way-1372516532-building","name":"قوتابخانەی مەولەوی بنەڕەتی","kind":"poi","tier":"poi_detail","priority":50.055,"context":"قوتابخانە","category":"قوتابخانە"},"geometry":{"type":"Point","coordinates":[44.6278854,34.9018026]}},{"type":"Feature","id":"osm-way-1372200899-building","properties":{"id":"osm-way-1372200899-building","name":"قوتابخانەی نور سەباحی سەرەتایی","kind":"poi","tier":"poi_detail","priority":50.055,"context":"قوتابخانە","category":"قوتابخانە"},"geometry":{"type":"Point","coordinates":[44.5953652,34.934952]}},{"type":"Feature","id":"osm-way-1371854806-building","properties":{"id":"osm-way-1371854806-building","name":"قوتابخانەی نەورۆزی سەرەتایی","kind":"poi","tier":"poi_detail","priority":50.055,"context":"قوتابخانە","category":"قوتابخانە"},"geometry":{"type":"Point","coordinates":[44.6395019,34.8937853]}},{"type":"Feature","id":"osm-way-1371322215-building","properties":{"id":"osm-way-1371322215-building","name":"قوتابخانەی هەڵکۆت","kind":"poi","tier":"poi_detail","priority":50.055,"context":"قوتابخانە","category":"قوتابخانە"},"geometry":{"type":"Point","coordinates":[44.6303778,34.8967567]}},{"type":"Feature","id":"osm-way-1375055171-building","properties":{"id":"osm-way-1375055171-building","name":"قوتابخانەی چینی","kind":"poi","tier":"poi_detail","priority":50.055,"context":"قوتابخانە","category":"قوتابخانە"},"geometry":{"type":"Point","coordinates":[44.6271474,34.9024241]}},{"type":"Feature","id":"osm-way-1371351800-building","properties":{"id":"osm-way-1371351800-building","name":"قوتابخانەی کوردستان بۆ کچان","kind":"poi","tier":"poi_detail","priority":50.055,"context":"قوتابخانە","category":"قوتابخانە"},"geometry":{"type":"Point","coordinates":[44.6336228,34.8982499]}},{"type":"Feature","id":"osm-way-1372489747-building","properties":{"id":"osm-way-1372489747-building","name":"قوتابخانەی گەرمیانی سەرەتایی کوڕان","kind":"poi","tier":"poi_detail","priority":50.055,"context":"قوتابخانە","category":"قوتابخانە"},"geometry":{"type":"Point","coordinates":[44.6379384,34.8849448]}},{"type":"Feature","id":"osm-way-1372219480-building","properties":{"id":"osm-way-1372219480-building","name":"مدرسە الادریسی للبنبن","kind":"poi","tier":"poi_detail","priority":50.055,"context":"قوتابخانە","category":"قوتابخانە"},"geometry":{"type":"Point","coordinates":[44.6298827,34.8911267]}},{"type":"Feature","id":"osm-way-1372497598-building","properties":{"id":"osm-way-1372497598-building","name":"مدرسە الانتصار الابتدائیە للبنات","kind":"poi","tier":"poi_detail","priority":50.055,"context":"قوتابخانە","category":"قوتابخانە"},"geometry":{"type":"Point","coordinates":[44.627534,34.8793502]}},{"type":"Feature","id":"osm-way-1372498047-building","properties":{"id":"osm-way-1372498047-building","name":"مدرسە الانتصار الابتدائیە للبنین","kind":"poi","tier":"poi_detail","priority":50.055,"context":"قوتابخانە","category":"قوتابخانە"},"geometry":{"type":"Point","coordinates":[44.6271773,34.8798131]}},{"type":"Feature","id":"osm-way-1371904748-building","properties":{"id":"osm-way-1371904748-building","name":"مدرسە الجمهوریە الابتدائیە","kind":"poi","tier":"poi_detail","priority":50.055,"context":"قوتابخانە","category":"قوتابخانە"},"geometry":{"type":"Point","coordinates":[44.6227841,34.8979975]}},{"type":"Feature","id":"osm-way-1372512247-building","properties":{"id":"osm-way-1372512247-building","name":"مدرسە الخوارزمی للبنین","kind":"poi","tier":"poi_detail","priority":50.055,"context":"قوتابخانە","category":"قوتابخانە"},"geometry":{"type":"Point","coordinates":[44.627813,34.890653]}},{"type":"Feature","id":"osm-way-1372148846-building","properties":{"id":"osm-way-1372148846-building","name":"مدرسە الرشید","kind":"poi","tier":"poi_detail","priority":50.055,"context":"قوتابخانە","category":"قوتابخانە"},"geometry":{"type":"Point","coordinates":[44.6331924,34.8780717]}},{"type":"Feature","id":"osm-way-1371931200-building","properties":{"id":"osm-way-1371931200-building","name":"مدرسە العموریە الابتدائیە للبنات","kind":"poi","tier":"poi_detail","priority":50.055,"context":"قوتابخانە","category":"قوتابخانە"},"geometry":{"type":"Point","coordinates":[44.6382613,34.8843825]}},{"type":"Feature","id":"osm-way-1372481172-building","properties":{"id":"osm-way-1372481172-building","name":"مدرسە الغزالی الابتدائیە","kind":"poi","tier":"poi_detail","priority":50.055,"context":"قوتابخانە","category":"قوتابخانە"},"geometry":{"type":"Point","coordinates":[44.6282295,34.893235]}},{"type":"Feature","id":"osm-way-1372144665-building","properties":{"id":"osm-way-1372144665-building","name":"مدرسە امانی","kind":"poi","tier":"poi_detail","priority":50.055,"context":"قوتابخانە","category":"قوتابخانە"},"geometry":{"type":"Point","coordinates":[44.6268725,34.8754359]}},{"type":"Feature","id":"osm-way-1372728670-building","properties":{"id":"osm-way-1372728670-building","name":"مدرسە اولو تبە","kind":"poi","tier":"poi_detail","priority":50.055,"context":"قوتابخانە","category":"قوتابخانە"},"geometry":{"type":"Point","coordinates":[44.6110332,34.8714344]}},{"type":"Feature","id":"osm-way-1372574213-building","properties":{"id":"osm-way-1372574213-building","name":"مدرسە حسان بن ثابت الابتدائیە","kind":"poi","tier":"poi_detail","priority":50.055,"context":"قوتابخانە","category":"قوتابخانە"},"geometry":{"type":"Point","coordinates":[44.6285827,34.8838445]}},{"type":"Feature","id":"osm-way-1371367510-building","properties":{"id":"osm-way-1371367510-building","name":"مدرسە دیر یاسین","kind":"poi","tier":"poi_detail","priority":50.055,"context":"قوتابخانە","category":"قوتابخانە"},"geometry":{"type":"Point","coordinates":[44.6353597,34.8866378]}},{"type":"Feature","id":"osm-way-1372135234-building","properties":{"id":"osm-way-1372135234-building","name":"مدرسە شمس العراق الابتدائیە","kind":"poi","tier":"poi_detail","priority":50.055,"context":"قوتابخانە","category":"قوتابخانە"},"geometry":{"type":"Point","coordinates":[44.6183478,34.8728743]}},{"type":"Feature","id":"osm-way-1372115537-building","properties":{"id":"osm-way-1372115537-building","name":"مدرسە مهج الرافدین الابتدائیە","kind":"poi","tier":"poi_detail","priority":50.055,"context":"قوتابخانە","category":"قوتابخانە"},"geometry":{"type":"Point","coordinates":[44.6113085,34.8853221]}},{"type":"Feature","id":"osm-way-1372130907-building","properties":{"id":"osm-way-1372130907-building","name":"مدرسە نور والقلم الابتدائیە","kind":"poi","tier":"poi_detail","priority":50.055,"context":"قوتابخانە","category":"قوتابخانە"},"geometry":{"type":"Point","coordinates":[44.6074925,34.8742846]}},{"type":"Feature","id":"osm-node-9932730217-atm","properties":{"id":"osm-node-9932730217-atm","name":"مولده : ناصح فاتح","kind":"poi","tier":"poi_landmark","priority":90.1,"context":"خۆپارێز","category":"خۆپارێز"},"geometry":{"type":"Point","coordinates":[44.6257003,34.9053715]}},{"type":"Feature","id":"osm-way-1370924717-commercial","properties":{"id":"osm-way-1370924717-commercial","name":"المخازن الزراعیە","kind":"poi","tier":"poi_local","priority":64.045,"context":"بینای بازرگانی","category":"بینای بازرگانی"},"geometry":{"type":"Point","coordinates":[44.6174972,34.9018044]}},{"type":"Feature","id":"osm-way-1372694382-commercial","properties":{"id":"osm-way-1372694382-commercial","name":"بازاڕی کافتریاکان","kind":"poi","tier":"poi_local","priority":64.045,"context":"بینای بازرگانی","category":"بینای بازرگانی"},"geometry":{"type":"Point","coordinates":[44.6160955,34.9016304]}},{"type":"Feature","id":"osm-way-1372694777-commercial","properties":{"id":"osm-way-1372694777-commercial","name":"بازاڕی کافتریاکان","kind":"poi","tier":"poi_local","priority":64.045,"context":"بینای بازرگانی","category":"بینای بازرگانی"},"geometry":{"type":"Point","coordinates":[44.6165104,34.9010289]}},{"type":"Feature","id":"osm-way-1372695045-commercial","properties":{"id":"osm-way-1372695045-commercial","name":"بازاڕی کافتریاکان","kind":"poi","tier":"poi_local","priority":64.045,"context":"بینای بازرگانی","category":"بینای بازرگانی"},"geometry":{"type":"Point","coordinates":[44.6171006,34.9001449]}},{"type":"Feature","id":"osm-way-1372684716-commercial","properties":{"id":"osm-way-1372684716-commercial","name":"دوکانەکانی تایەی ئۆتۆمبێل","kind":"poi","tier":"poi_local","priority":64.045,"context":"بینای بازرگانی","category":"بینای بازرگانی"},"geometry":{"type":"Point","coordinates":[44.6186193,34.8979133]}},{"type":"Feature","id":"osm-way-1379418901-commercial","properties":{"id":"osm-way-1379418901-commercial","name":"دوکانەکانی تایەی ئۆتۆمبێل","kind":"poi","tier":"poi_local","priority":64.045,"context":"بینای بازرگانی","category":"بینای بازرگانی"},"geometry":{"type":"Point","coordinates":[44.618901,34.8974536]}},{"type":"Feature","id":"osm-way-1379419167-commercial","properties":{"id":"osm-way-1379419167-commercial","name":"دوکانەکانی تایەی ئۆتۆمبێل","kind":"poi","tier":"poi_local","priority":64.045,"context":"بینای بازرگانی","category":"بینای بازرگانی"},"geometry":{"type":"Point","coordinates":[44.6192454,34.8968607]}},{"type":"Feature","id":"osm-way-1379419374-commercial","properties":{"id":"osm-way-1379419374-commercial","name":"دوکانەکانی تایەی ئۆتۆمبێل","kind":"poi","tier":"poi_local","priority":64.045,"context":"بینای بازرگانی","category":"بینای بازرگانی"},"geometry":{"type":"Point","coordinates":[44.6195473,34.8963395]}},{"type":"Feature","id":"osm-node-4846252422-mobile_phone_shop","properties":{"id":"osm-node-4846252422-mobile_phone_shop","name":"ANDAZYAR","kind":"poi","tier":"poi_detail","priority":50.1,"context":"دوکانی مۆبایل","category":"دوکانی مۆبایل"},"geometry":{"type":"Point","coordinates":[44.6246075,34.8974125]}},{"type":"Feature","id":"osm-node-8089050418-department_store","properties":{"id":"osm-node-8089050418-department_store","name":"اسواق الحجی","kind":"poi","tier":"poi_detail","priority":50.1,"context":"فرۆشگای گەورە","category":"فرۆشگای گەورە"},"geometry":{"type":"Point","coordinates":[44.6279372,34.8809672]}},{"type":"Feature","id":"osm-node-12544902791-bakery","properties":{"id":"osm-node-12544902791-bakery","name":"افران المصطفی للصمون الحجری","kind":"poi","tier":"poi_detail","priority":50.1,"context":"نانەواخانە","category":"نانەواخانە"},"geometry":{"type":"Point","coordinates":[44.6254177,34.8801495]}},{"type":"Feature","id":"osm-node-11146202038-community_centre","properties":{"id":"osm-node-11146202038-community_centre","name":"البیت الثقافی فی طوز خورماتو","kind":"poi","tier":"poi_detail","priority":50.1,"context":"ناوەندی کۆمەڵایەتی","category":"ناوەندی کۆمەڵایەتی"},"geometry":{"type":"Point","coordinates":[44.6332681,34.8889155]}},{"type":"Feature","id":"osm-node-12450888201-mobile_phone_shop","properties":{"id":"osm-node-12450888201-mobile_phone_shop","name":"العراق للموبایلات","kind":"poi","tier":"poi_detail","priority":50.1,"context":"دوکانی مۆبایل","category":"دوکانی مۆبایل"},"geometry":{"type":"Point","coordinates":[44.6278794,34.8810355]}},{"type":"Feature","id":"osm-node-9768302417-chalet","properties":{"id":"osm-node-9768302417-chalet","name":"اکشاک للسفرات","kind":"poi","tier":"poi_detail","priority":50.1,"context":"کەپر","category":"کەپر"},"geometry":{"type":"Point","coordinates":[44.657419,34.8897224]}},{"type":"Feature","id":"osm-node-7266308285-castle","properties":{"id":"osm-node-7266308285-castle","name":"باخچەی حاجی کافیە","kind":"poi","tier":"poi_detail","priority":50.1,"context":"قەڵا","category":"قەڵا"},"geometry":{"type":"Point","coordinates":[44.7002704,34.9958245]}},{"type":"Feature","id":"osm-node-5103569324-water_tower","properties":{"id":"osm-node-5103569324-water_tower","name":"تانکی سلێمان بەگ","kind":"poi","tier":"poi_detail","priority":50.1,"context":"بورجی ئاو","category":"بورجی ئاو"},"geometry":{"type":"Point","coordinates":[44.6653648,34.7948983]}},{"type":"Feature","id":"osm-node-8961385519-memorial","properties":{"id":"osm-node-8961385519-memorial","name":"تمثال الشهید عباس جوما","kind":"poi","tier":"poi_detail","priority":50.1,"context":"یادەوەری","category":"یادەوەری"},"geometry":{"type":"Point","coordinates":[44.6386522,34.8678563]}},{"type":"Feature","id":"osm-node-4592229293-hostel","properties":{"id":"osm-node-4592229293-hostel","name":"حی رزگاری","kind":"poi","tier":"poi_detail","priority":50.1,"context":"هۆستێل","category":"هۆستێل"},"geometry":{"type":"Point","coordinates":[44.6396325,34.8860481]}},{"type":"Feature","id":"osm-node-9653364019-doctors","properties":{"id":"osm-node-9653364019-doctors","name":"دکتور غازی للاطفال","kind":"poi","tier":"poi_detail","priority":50.1,"context":"ناوەندی پزیشکی","category":"ناوەندی پزیشکی"},"geometry":{"type":"Point","coordinates":[44.6303815,34.883341]}},{"type":"Feature","id":"osm-node-8370704517-telephone","properties":{"id":"osm-node-8370704517-telephone","name":"سنا کارد لبطاقات","kind":"poi","tier":"poi_detail","priority":50.1,"context":"تەلەفۆنی گشتی","category":"تەلەفۆنی گشتی"},"geometry":{"type":"Point","coordinates":[44.6245419,34.8974688]}},{"type":"Feature","id":"osm-node-5282053622-greengrocer","properties":{"id":"osm-node-5282053622-greengrocer","name":"سوق الغربی","kind":"poi","tier":"poi_detail","priority":50.1,"context":"میوە و سەوزە فرۆشی","category":"میوە و سەوزە فرۆشی"},"geometry":{"type":"Point","coordinates":[44.6643045,34.7928313]}},{"type":"Feature","id":"osm-node-13738313401-lighthouse","properties":{"id":"osm-node-13738313401-lighthouse","name":"سەفرەی چەمی تاڵاو","kind":"poi","tier":"poi_detail","priority":50.1,"context":"فانۆسی دەریایی","category":"فانۆسی دەریایی"},"geometry":{"type":"Point","coordinates":[44.7049483,34.9474517]}},{"type":"Feature","id":"osm-node-7272598385-doctors","properties":{"id":"osm-node-7272598385-doctors","name":"شارع اطباء حی الاکراد","kind":"poi","tier":"poi_detail","priority":50.1,"context":"ناوەندی پزیشکی","category":"ناوەندی پزیشکی"},"geometry":{"type":"Point","coordinates":[44.6222613,34.8996773]}},{"type":"Feature","id":"osm-node-11277208669-greengrocer","properties":{"id":"osm-node-11277208669-greengrocer","name":"شارع حلوه","kind":"poi","tier":"poi_detail","priority":50.1,"context":"میوە و سەوزە فرۆشی","category":"میوە و سەوزە فرۆشی"},"geometry":{"type":"Point","coordinates":[44.610624,34.8800158]}},{"type":"Feature","id":"osm-node-11277195372-nursing_home","properties":{"id":"osm-node-11277195372-nursing_home","name":"شارع حلوه","kind":"poi","tier":"poi_detail","priority":50.1,"context":"خانەی بەساڵاچووان","category":"خانەی بەساڵاچووان"},"geometry":{"type":"Point","coordinates":[44.6089809,34.8800023]}},{"type":"Feature","id":"osm-node-12427059725-mobile_phone_shop","properties":{"id":"osm-node-12427059725-mobile_phone_shop","name":"شرکە المهندس بیر تک لتجارە الهواتف النقالە","kind":"poi","tier":"poi_detail","priority":50.1,"context":"دوکانی مۆبایل","category":"دوکانی مۆبایل"},"geometry":{"type":"Point","coordinates":[44.6302686,34.8842159]}},{"type":"Feature","id":"osm-node-12876546901-monument","properties":{"id":"osm-node-12876546901-monument","name":"شهیدلر کوبروسی","kind":"poi","tier":"poi_detail","priority":50.1,"context":"پەیکەر","category":"پەیکەر"},"geometry":{"type":"Point","coordinates":[44.625489,34.8842148]}},{"type":"Feature","id":"osm-node-13714731201-lighthouse","properties":{"id":"osm-node-13714731201-lighthouse","name":"شێرەکەی حەمە","kind":"poi","tier":"poi_detail","priority":50.1,"context":"فانۆسی دەریایی","category":"فانۆسی دەریایی"},"geometry":{"type":"Point","coordinates":[44.5546873,34.9354946]}},{"type":"Feature","id":"osm-node-11415485970-guesthouse","properties":{"id":"osm-node-11415485970-guesthouse","name":"عماد سایلو","kind":"poi","tier":"poi_detail","priority":50.1,"context":"میوانخانە","category":"میوانخانە"},"geometry":{"type":"Point","coordinates":[44.6262497,34.8948438]}},{"type":"Feature","id":"osm-node-7007295885-stationery","properties":{"id":"osm-node-7007295885-stationery","name":"فۆتۆکۆپی ئەنەس","kind":"poi","tier":"poi_detail","priority":50.1,"context":"نووسینگە و کاغەز فرۆشی","category":"نووسینگە و کاغەز فرۆشی"},"geometry":{"type":"Point","coordinates":[44.6394582,34.8858962]}},{"type":"Feature","id":"osm-node-7235411928-stationery","properties":{"id":"osm-node-7235411928-stationery","name":"قرطاسیە ماشاءالله","kind":"poi","tier":"poi_detail","priority":50.1,"context":"نووسینگە و کاغەز فرۆشی","category":"نووسینگە و کاغەز فرۆشی"},"geometry":{"type":"Point","coordinates":[44.6247334,34.8941719]}},{"type":"Feature","id":"osm-node-13671482101-lighthouse","properties":{"id":"osm-node-13671482101-lighthouse","name":"ماڵ دادا","kind":"poi","tier":"poi_detail","priority":50.1,"context":"فانۆسی دەریایی","category":"فانۆسی دەریایی"},"geometry":{"type":"Point","coordinates":[44.6286001,34.897505]}},{"type":"Feature","id":"osm-node-13714731301-lighthouse","properties":{"id":"osm-node-13714731301-lighthouse","name":"ماڵ میمیم مهابات","kind":"poi","tier":"poi_detail","priority":50.1,"context":"فانۆسی دەریایی","category":"فانۆسی دەریایی"},"geometry":{"type":"Point","coordinates":[44.6121154,34.9038312]}},{"type":"Feature","id":"osm-node-10702650805-clothes","properties":{"id":"osm-node-10702650805-clothes","name":"محل کریم","kind":"poi","tier":"poi_detail","priority":50.1,"context":"جلوبەرگ فرۆشی","category":"جلوبەرگ فرۆشی"},"geometry":{"type":"Point","coordinates":[44.6276547,34.8945082]}},{"type":"Feature","id":"osm-node-13822303899-beverages","properties":{"id":"osm-node-13822303899-beverages","name":"مخزن بارزان","kind":"poi","tier":"poi_detail","priority":50.1,"context":"فرۆشگای خواردنەوە","category":"فرۆشگای خواردنەوە"},"geometry":{"type":"Point","coordinates":[44.5851636,34.9447197]}},{"type":"Feature","id":"osm-node-8278999917-mobile_phone_shop","properties":{"id":"osm-node-8278999917-mobile_phone_shop","name":"معرض الاصدقاء للموبایل","kind":"poi","tier":"poi_detail","priority":50.1,"context":"دوکانی مۆبایل","category":"دوکانی مۆبایل"},"geometry":{"type":"Point","coordinates":[44.629701,34.8855425]}},{"type":"Feature","id":"osm-node-9874935917-sports_shop","properties":{"id":"osm-node-9874935917-sports_shop","name":"ملا صفر محلاسی","kind":"poi","tier":"poi_detail","priority":50.1,"context":"فرۆشگای کەلوپەلی وەرزشی","category":"فرۆشگای کەلوپەلی وەرزشی"},"geometry":{"type":"Point","coordinates":[44.6280694,34.8833084]}},{"type":"Feature","id":"osm-node-9673091066-post_office","properties":{"id":"osm-node-9673091066-post_office","name":"مکتب برید سلمان بیک","kind":"poi","tier":"poi_detail","priority":50.1,"context":"پۆستە","category":"پۆستە"},"geometry":{"type":"Point","coordinates":[44.66843,34.787494]}},{"type":"Feature","id":"osm-node-11623869469-library","properties":{"id":"osm-node-11623869469-library","name":"مکتب وقرطاسیە ابو عبدالله","kind":"poi","tier":"poi_detail","priority":50.1,"context":"کتێبخانە","category":"کتێبخانە"},"geometry":{"type":"Point","coordinates":[44.6194958,34.8802827]}},{"type":"Feature","id":"osm-node-5282064924-fitness_centre","properties":{"id":"osm-node-5282064924-fitness_centre","name":"ناوەندی لاوان","kind":"poi","tier":"poi_detail","priority":50.1,"context":"جیم","category":"جیم"},"geometry":{"type":"Point","coordinates":[44.6666094,34.7878231]}},{"type":"Feature","id":"osm-node-6991015585-artwork","properties":{"id":"osm-node-6991015585-artwork","name":"نجارە میلانو","kind":"poi","tier":"poi_detail","priority":50.1,"context":"هونەری گشتی","category":"هونەری گشتی"},"geometry":{"type":"Point","coordinates":[44.6326675,34.8763793]}},{"type":"Feature","id":"osm-node-11158294205-memorial","properties":{"id":"osm-node-11158294205-memorial","name":"نصب شهداء العراق والشهید القائد عباس جوما","kind":"poi","tier":"poi_detail","priority":50.1,"context":"یادەوەری","category":"یادەوەری"},"geometry":{"type":"Point","coordinates":[44.6284877,34.8808898]}},{"type":"Feature","id":"osm-node-7007295886-stationery","properties":{"id":"osm-node-7007295886-stationery","name":"چاپەمەنی انس","kind":"poi","tier":"poi_detail","priority":50.1,"context":"نووسینگە و کاغەز فرۆشی","category":"نووسینگە و کاغەز فرۆشی"},"geometry":{"type":"Point","coordinates":[44.6394715,34.8859212]}},{"type":"Feature","id":"osm-node-9653363819-fitness_centre","properties":{"id":"osm-node-9653363819-fitness_centre","name":"کمال الاجسام","kind":"poi","tier":"poi_detail","priority":50.1,"context":"جیم","category":"جیم"},"geometry":{"type":"Point","coordinates":[44.6274673,34.8947282]}},{"type":"Feature","id":"osm-node-9864766717-clothes","properties":{"id":"osm-node-9864766717-clothes","name":"کوتاڵی بەرەکە","kind":"poi","tier":"poi_detail","priority":50.1,"context":"جلوبەرگ فرۆشی","category":"جلوبەرگ فرۆشی"},"geometry":{"type":"Point","coordinates":[44.6358391,34.8933063]}},{"type":"Feature","id":"osm-node-9023400117-clothes","properties":{"id":"osm-node-9023400117-clothes","name":"کوتاڵی حاجی","kind":"poi","tier":"poi_detail","priority":50.1,"context":"جلوبەرگ فرۆشی","category":"جلوبەرگ فرۆشی"},"geometry":{"type":"Point","coordinates":[44.635966,34.893127]}},{"type":"Feature","id":"osm-node-5282053621-greengrocer","properties":{"id":"osm-node-5282053621-greengrocer","name":"کوجک بزار","kind":"poi","tier":"poi_detail","priority":50.1,"context":"میوە و سەوزە فرۆشی","category":"میوە و سەوزە فرۆشی"},"geometry":{"type":"Point","coordinates":[44.669347,34.7938445]}},{"type":"Feature","id":"osm-node-12386852101-cafe","properties":{"id":"osm-node-12386852101-cafe","name":"کوفی المصطفی","kind":"poi","tier":"poi_detail","priority":50.1,"context":"کافێ","category":"کافێ"},"geometry":{"type":"Point","coordinates":[44.6298076,34.8826346]}},{"type":"Feature","id":"osm-node-5095821721-mobile_phone_shop","properties":{"id":"osm-node-5095821721-mobile_phone_shop","name":"کومبانیای محمد بو راکەیاندن","kind":"poi","tier":"poi_detail","priority":50.1,"context":"دوکانی مۆبایل","category":"دوکانی مۆبایل"},"geometry":{"type":"Point","coordinates":[44.6237836,34.8982062]}},{"type":"Feature","id":"osm-node-5874096889-artwork","properties":{"id":"osm-node-5874096889-artwork","name":"گۆران","kind":"poi","tier":"poi_detail","priority":50.1,"context":"هونەری گشتی","category":"هونەری گشتی"},"geometry":{"type":"Point","coordinates":[44.6382071,34.8936468]}},{"type":"Feature","id":"osm-node-5282020622-graveyard","properties":{"id":"osm-node-5282020622-graveyard","name":"گۆڕستانی قەرە غەمیل","kind":"poi","tier":"poi_detail","priority":50.1,"context":"قەبرستان","category":"قەبرستان"},"geometry":{"type":"Point","coordinates":[44.6668742,34.7979564]}},{"type":"Feature","id":"osm-node-5282020624-muslim","properties":{"id":"osm-node-5282020624-muslim","name":"مزگەوتی گەورە","kind":"poi","tier":"poi_detail","priority":50.098,"context":"مزگەوت","category":"مزگەوت"},"geometry":{"type":"Point","coordinates":[44.6696987,34.7943211]}},{"type":"Feature","id":"osm-node-12368340165-muslim_shia","properties":{"id":"osm-node-12368340165-muslim_shia","name":"موکب جامع وحسینیە اسد الله","kind":"poi","tier":"poi_detail","priority":50.098,"context":"مزگەوت","category":"مزگەوت"},"geometry":{"type":"Point","coordinates":[44.6297108,34.8843307]}},{"type":"Feature","id":"osm-way-1372219749-library","properties":{"id":"osm-way-1372219749-library","name":"المکتبە العامە","kind":"poi","tier":"poi_detail","priority":50.092,"context":"کتێبخانە","category":"کتێبخانە"},"geometry":{"type":"Point","coordinates":[44.631948,34.8902973]}},{"type":"Feature","id":"osm-way-1370741455-veterinary","properties":{"id":"osm-way-1370741455-veterinary","name":"بنکەی ڤێتێرنەری دووز","kind":"poi","tier":"poi_detail","priority":50.092,"context":"کلینیکی ڤێتەرنەری","category":"کلینیکی ڤێتەرنەری"},"geometry":{"type":"Point","coordinates":[44.6181007,34.9023883]}},{"type":"Feature","id":"osm-way-1372218694-post_office","properties":{"id":"osm-way-1372218694-post_office","name":"دائرە اتصالات وبرید طوز","kind":"poi","tier":"poi_detail","priority":50.092,"context":"پۆستە","category":"پۆستە"},"geometry":{"type":"Point","coordinates":[44.6267675,34.892062]}},{"type":"Feature","id":"osm-way-1372511231-community_centre","properties":{"id":"osm-way-1372511231-community_centre","name":"سەنتەری لاوانی دووز","kind":"poi","tier":"poi_detail","priority":50.092,"context":"ناوەندی کۆمەڵایەتی","category":"ناوەندی کۆمەڵایەتی"},"geometry":{"type":"Point","coordinates":[44.6227438,34.8947086]}},{"type":"Feature","id":"osm-way-1371347458-town_hall","properties":{"id":"osm-way-1371347458-town_hall","name":"شارەوانی خورماتوو","kind":"poi","tier":"poi_detail","priority":50.092,"context":"شارەوانی","category":"شارەوانی"},"geometry":{"type":"Point","coordinates":[44.6245144,34.8945994]}},{"type":"Feature","id":"osm-way-1372502304-fitness_centre","properties":{"id":"osm-way-1372502304-fitness_centre","name":"قاعە ارنولد للیاقە البدنیە","kind":"poi","tier":"poi_detail","priority":50.092,"context":"جیم","category":"جیم"},"geometry":{"type":"Point","coordinates":[44.6228298,34.8831627]}},{"type":"Feature","id":"osm-way-1372494647-fitness_centre","properties":{"id":"osm-way-1372494647-fitness_centre","name":"قاعە اللیاقە البدنیە طوز","kind":"poi","tier":"poi_detail","priority":50.092,"context":"جیم","category":"جیم"},"geometry":{"type":"Point","coordinates":[44.6265856,34.8803896]}},{"type":"Feature","id":"osm-way-775577424-cafe","properties":{"id":"osm-way-775577424-cafe","name":"قاوەخانەی کلتوری دووز","kind":"poi","tier":"poi_detail","priority":50.092,"context":"کافێ","category":"کافێ"},"geometry":{"type":"Point","coordinates":[44.6256437,34.8930958]}},{"type":"Feature","id":"osm-way-1372511653-courthouse","properties":{"id":"osm-way-1372511653-courthouse","name":"محکمە طوز","kind":"poi","tier":"poi_detail","priority":50.092,"context":"دادگا","category":"دادگا"},"geometry":{"type":"Point","coordinates":[44.6223845,34.8913411]}},{"type":"Feature","id":"osm-way-1372187175-theme_park","properties":{"id":"osm-way-1372187175-theme_park","name":"مدینە العاب طوز","kind":"poi","tier":"poi_detail","priority":50.092,"context":"پارکی یاری","category":"پارکی یاری"},"geometry":{"type":"Point","coordinates":[44.6542642,34.8885095]}},{"type":"Feature","id":"osm-way-1326192315-graveyard","properties":{"id":"osm-way-1326192315-graveyard","name":"مقبرە امام احمد بن موسی الکاظم","kind":"poi","tier":"poi_detail","priority":50.092,"context":"قەبرستان","category":"قەبرستان"},"geometry":{"type":"Point","coordinates":[44.622213,34.8797515]}},{"type":"Feature","id":"osm-way-1372491611-graveyard","properties":{"id":"osm-way-1372491611-graveyard","name":"مقبرە شیخ محسن","kind":"poi","tier":"poi_detail","priority":50.092,"context":"قەبرستان","category":"قەبرستان"},"geometry":{"type":"Point","coordinates":[44.6292423,34.8825633]}},{"type":"Feature","id":"osm-way-718113239-graveyard","properties":{"id":"osm-way-718113239-graveyard","name":"مقبرە طوز الکبیرە","kind":"poi","tier":"poi_detail","priority":50.092,"context":"قەبرستان","category":"قەبرستان"},"geometry":{"type":"Point","coordinates":[44.6368319,34.888914]}},{"type":"Feature","id":"osm-way-1013977088-pitch","properties":{"id":"osm-way-1013977088-pitch","name":"ملعب الشهید مصطفی","kind":"poi","tier":"poi_detail","priority":50.092,"context":"ناوەندی وەرزش","category":"ناوەندی وەرزش"},"geometry":{"type":"Point","coordinates":[44.6123057,34.8717007]}},{"type":"Feature","id":"osm-way-881616766-pitch","properties":{"id":"osm-way-881616766-pitch","name":"ملعب شهید حسن","kind":"poi","tier":"poi_detail","priority":50.092,"context":"ناوەندی وەرزش","category":"ناوەندی وەرزش"},"geometry":{"type":"Point","coordinates":[44.6298002,34.8823189]}},{"type":"Feature","id":"osm-way-881616765-pitch","properties":{"id":"osm-way-881616765-pitch","name":"ملعب کرە القدم وهاب","kind":"poi","tier":"poi_detail","priority":50.092,"context":"ناوەندی وەرزش","category":"ناوەندی وەرزش"},"geometry":{"type":"Point","coordinates":[44.6222736,34.8840851]}},{"type":"Feature","id":"osm-way-1372154645-community_centre","properties":{"id":"osm-way-1372154645-community_centre","name":"منتدی شباب و ریاضە طوز","kind":"poi","tier":"poi_detail","priority":50.092,"context":"ناوەندی کۆمەڵایەتی","category":"ناوەندی کۆمەڵایەتی"},"geometry":{"type":"Point","coordinates":[44.6353672,34.8803973]}},{"type":"Feature","id":"osm-way-1372501432-sports_centre","properties":{"id":"osm-way-1372501432-sports_centre","name":"نادی طوز لکرە القدم","kind":"poi","tier":"poi_detail","priority":50.092,"context":"ناوەندی وەرزش","category":"ناوەندی وەرزش"},"geometry":{"type":"Point","coordinates":[44.6231801,34.8832211]}},{"type":"Feature","id":"osm-way-1373684228-graveyard","properties":{"id":"osm-way-1373684228-graveyard","name":"هاوپێچی گۆڕستانی گەورەی دووز","kind":"poi","tier":"poi_detail","priority":50.092,"context":"قەبرستان","category":"قەبرستان"},"geometry":{"type":"Point","coordinates":[44.6376403,34.8868508]}},{"type":"Feature","id":"osm-way-1373672250-community_centre","properties":{"id":"osm-way-1373672250-community_centre","name":"هۆڵی پرسە","kind":"poi","tier":"poi_detail","priority":50.092,"context":"ناوەندی کۆمەڵایەتی","category":"ناوەندی کۆمەڵایەتی"},"geometry":{"type":"Point","coordinates":[44.6387939,34.8872609]}},{"type":"Feature","id":"osm-way-1371836004-water_works","properties":{"id":"osm-way-1371836004-water_works","name":"وێستگەی بەهێزکردنی ئاوی کۆماری","kind":"poi","tier":"poi_detail","priority":50.092,"context":"پاڵاوتنەوەی ئاو","category":"پاڵاوتنەوەی ئاو"},"geometry":{"type":"Point","coordinates":[44.6355742,34.8984284]}},{"type":"Feature","id":"osm-way-1372696748-wastewater_plant","properties":{"id":"osm-way-1372696748-wastewater_plant","name":"وێستگەی پاککردنەوەی ئاوی دووز","kind":"poi","tier":"poi_detail","priority":50.092,"context":"پاڵاوتنەوەی ئاوی پیس","category":"پاڵاوتنەوەی ئاوی پیس"},"geometry":{"type":"Point","coordinates":[44.6157246,34.903613]}},{"type":"Feature","id":"osm-way-1371917485-park","properties":{"id":"osm-way-1371917485-park","name":"پارکی حەسەن قەوان","kind":"poi","tier":"poi_detail","priority":50.092,"context":"پارک","category":"پارک"},"geometry":{"type":"Point","coordinates":[44.62427,34.8997723]}},{"type":"Feature","id":"osm-way-546493701-park","properties":{"id":"osm-way-546493701-park","name":"پارکی دووز خورماتوو","kind":"poi","tier":"poi_detail","priority":50.092,"context":"پارک","category":"پارک"},"geometry":{"type":"Point","coordinates":[44.6368507,34.8973349]}},{"type":"Feature","id":"osm-way-546491285-park","properties":{"id":"osm-way-546491285-park","name":"پارکی شەهید حەمە دووزی","kind":"poi","tier":"poi_detail","priority":50.092,"context":"پارک","category":"پارک"},"geometry":{"type":"Point","coordinates":[44.6229583,34.9023286]}},{"type":"Feature","id":"osm-way-881584994-park","properties":{"id":"osm-way-881584994-park","name":"پارکی قایمقام","kind":"poi","tier":"poi_detail","priority":50.092,"context":"پارک","category":"پارک"},"geometry":{"type":"Point","coordinates":[44.6206522,34.8958076]}},{"type":"Feature","id":"osm-way-1378440565-park","properties":{"id":"osm-way-1378440565-park","name":"پارکی مامۆستا ئیکرام","kind":"poi","tier":"poi_detail","priority":50.092,"context":"پارک","category":"پارک"},"geometry":{"type":"Point","coordinates":[44.6322955,34.8976937]}},{"type":"Feature","id":"osm-way-1381190570-park","properties":{"id":"osm-way-1381190570-park","name":"پارکی میللەت","kind":"poi","tier":"poi_detail","priority":50.092,"context":"پارک","category":"پارک"},"geometry":{"type":"Point","coordinates":[44.6268257,34.8832525]}},{"type":"Feature","id":"osm-way-1371357871-graveyard","properties":{"id":"osm-way-1371357871-graveyard","name":"گۆرستانی ئیمام حەسەنە","kind":"poi","tier":"poi_detail","priority":50.092,"context":"قەبرستان","category":"قەبرستان"},"geometry":{"type":"Point","coordinates":[44.6040552,34.9217199]}},{"type":"Feature","id":"osm-way-1067236705-graveyard","properties":{"id":"osm-way-1067236705-graveyard","name":"گۆرستانی شەهیدان","kind":"poi","tier":"poi_detail","priority":50.092,"context":"قەبرستان","category":"قەبرستان"},"geometry":{"type":"Point","coordinates":[44.6428401,34.892973]}},{"type":"Feature","id":"osm-way-1372173583-pitch","properties":{"id":"osm-way-1372173583-pitch","name":"یاریگای تۆپی پێی خاک","kind":"poi","tier":"poi_detail","priority":50.092,"context":"ناوەندی وەرزش","category":"ناوەندی وەرزش"},"geometry":{"type":"Point","coordinates":[44.6178313,34.8999683]}},{"type":"Feature","id":"osm-way-775593837-pitch","properties":{"id":"osm-way-775593837-pitch","name":"یاریگای تۆپی پێی سەنتەر","kind":"poi","tier":"poi_detail","priority":50.092,"context":"ناوەندی وەرزش","category":"ناوەندی وەرزش"},"geometry":{"type":"Point","coordinates":[44.6225168,34.8943309]}},{"type":"Feature","id":"osm-way-1372181300-pitch","properties":{"id":"osm-way-1372181300-pitch","name":"یاریگای تۆپی پێی نەسر","kind":"poi","tier":"poi_detail","priority":50.092,"context":"ناوەندی وەرزش","category":"ناوەندی وەرزش"},"geometry":{"type":"Point","coordinates":[44.6411759,34.8944106]}},{"type":"Feature","id":"osm-way-217516071-pitch","properties":{"id":"osm-way-217516071-pitch","name":"یاریگای تۆپی پێی هاوکاری","kind":"poi","tier":"poi_detail","priority":50.092,"context":"ناوەندی وەرزش","category":"ناوەندی وەرزش"},"geometry":{"type":"Point","coordinates":[44.6379294,34.8978994]}},{"type":"Feature","id":"osm-way-1371933770-muslim_shia","properties":{"id":"osm-way-1371933770-muslim_shia","name":"مزار مرسی علی","kind":"poi","tier":"poi_detail","priority":50.09,"context":"مزگەوت","category":"مزگەوت"},"geometry":{"type":"Point","coordinates":[44.6487506,34.892742]}},{"type":"Feature","id":"osm-way-1372724899-building","properties":{"id":"osm-way-1372724899-building","name":"تاوەری پەیوەندییەکانی دووز","kind":"poi","tier":"poi_detail","priority":50.055,"context":"بورج","category":"بورج"},"geometry":{"type":"Point","coordinates":[44.6274275,34.8913273]}}]}