{"type":"FeatureCollection","features":[{"type":"Feature","id":"osm-node-7818752475","properties":{"id":"osm-node-7818752475","name":"ئۆمەرگەدە","kind":"village","tier":"locality","priority":300,"context":"کەرکووک · کەرکووک","category":"گوند"},"geometry":{"type":"Point","coordinates":[44.7125755,35.4127779]}},{"type":"Feature","id":"osm-node-9424663665","properties":{"id":"osm-node-9424663665","name":"باشبوڵاغی خواروو","kind":"village","tier":"locality","priority":300,"context":"کەرکووک · کەرکووک","category":"گوند"},"geometry":{"type":"Point","coordinates":[44.6831578,35.4696384]}},{"type":"Feature","id":"osm-node-9424663666","properties":{"id":"osm-node-9424663666","name":"باشبوڵاغی سەروو","kind":"village","tier":"locality","priority":300,"context":"کەرکووک · کەرکووک","category":"گوند"},"geometry":{"type":"Point","coordinates":[44.7018488,35.4816711]}},{"type":"Feature","id":"osm-node-11377286126","properties":{"id":"osm-node-11377286126","name":"بان لەیلان","kind":"village","tier":"locality","priority":300,"context":"کەرکووک · کەرکووک","category":"گوند"},"geometry":{"type":"Point","coordinates":[44.5456911,35.341702]}},{"type":"Feature","id":"osm-node-11370384359","properties":{"id":"osm-node-11370384359","name":"بزەڵە","kind":"village","tier":"locality","priority":300,"context":"کەرکووک · کەرکووک","category":"گوند"},"geometry":{"type":"Point","coordinates":[44.6564904,35.3852574]}},{"type":"Feature","id":"osm-node-11880792754","properties":{"id":"osm-node-11880792754","name":"تەپەلوو","kind":"village","tier":"locality","priority":300,"context":"کەرکووک · کەرکووک","category":"گوند"},"geometry":{"type":"Point","coordinates":[44.5618479,35.2838247]}},{"type":"Feature","id":"osm-node-9424630162","properties":{"id":"osm-node-9424630162","name":"تەیمەزاوا","kind":"village","tier":"locality","priority":300,"context":"کەرکووک · کەرکووک","category":"گوند"},"geometry":{"type":"Point","coordinates":[44.7297702,35.401611]}},{"type":"Feature","id":"osm-node-7399865479","properties":{"id":"osm-node-7399865479","name":"جافان","kind":"village","tier":"locality","priority":300,"context":"کەرکووک · کەرکووک","category":"گوند"},"geometry":{"type":"Point","coordinates":[44.560263,35.4153928]}},{"type":"Feature","id":"osm-node-9438064702","properties":{"id":"osm-node-9438064702","name":"حوسێن سەلام","kind":"village","tier":"locality","priority":300,"context":"کەرکووک · کەرکووک","category":"گوند"},"geometry":{"type":"Point","coordinates":[44.611425,35.3882737]}},{"type":"Feature","id":"osm-node-2489303063","properties":{"id":"osm-node-2489303063","name":"حەسەن خان","kind":"village","tier":"locality","priority":300,"context":"کەرکووک · کەرکووک","category":"گوند"},"geometry":{"type":"Point","coordinates":[44.6904488,35.2829947]}},{"type":"Feature","id":"osm-node-7556999726","properties":{"id":"osm-node-7556999726","name":"حەمک","kind":"village","tier":"locality","priority":300,"context":"چەمچەماڵ · سلێمانی","category":"گوند"},"geometry":{"type":"Point","coordinates":[44.7429023,35.278892]}},{"type":"Feature","id":"osm-node-8203550445","properties":{"id":"osm-node-8203550445","name":"خاڵۆبازیانی","kind":"village","tier":"locality","priority":300,"context":"کەرکووک · کەرکووک","category":"گوند"},"geometry":{"type":"Point","coordinates":[44.6303121,35.4194948]}},{"type":"Feature","id":"osm-node-9388894566","properties":{"id":"osm-node-9388894566","name":"خدر بوڵاغ","kind":"village","tier":"locality","priority":300,"context":"کەرکووک · کەرکووک","category":"گوند"},"geometry":{"type":"Point","coordinates":[44.5841136,35.2801487]}},{"type":"Feature","id":"osm-node-7802006671","properties":{"id":"osm-node-7802006671","name":"خدربەگ شێخ حوسێن","kind":"village","tier":"locality","priority":300,"context":"کەرکووک · کەرکووک","category":"گوند"},"geometry":{"type":"Point","coordinates":[44.5917617,35.3671364]}},{"type":"Feature","id":"osm-node-11377286106","properties":{"id":"osm-node-11377286106","name":"خدربەگ شێخ محەمەد","kind":"village","tier":"locality","priority":300,"context":"کەرکووک · کەرکووک","category":"گوند"},"geometry":{"type":"Point","coordinates":[44.53922,35.3721033]}},{"type":"Feature","id":"osm-node-10585187813","properties":{"id":"osm-node-10585187813","name":"زەنگنە","kind":"village","tier":"locality","priority":300,"context":"کەرکووک · کەرکووک","category":"گوند"},"geometry":{"type":"Point","coordinates":[44.5851402,35.4668135]}},{"type":"Feature","id":"osm-node-2488270181","properties":{"id":"osm-node-2488270181","name":"زەنگنە","kind":"village","tier":"locality","priority":300,"context":"کەرکووک · کەرکووک","category":"گوند"},"geometry":{"type":"Point","coordinates":[44.5761556,35.4465039]}},{"type":"Feature","id":"osm-node-9388894890","properties":{"id":"osm-node-9388894890","name":"سیا مەنسوور","kind":"village","tier":"locality","priority":300,"context":"کەرکووک · کەرکووک","category":"گوند"},"geometry":{"type":"Point","coordinates":[44.6232861,35.3062895]}},{"type":"Feature","id":"osm-node-11370436081","properties":{"id":"osm-node-11370436081","name":"شوانە","kind":"village","tier":"locality","priority":300,"context":"کەرکووک · کەرکووک","category":"گوند"},"geometry":{"type":"Point","coordinates":[44.6532833,35.3580223]}},{"type":"Feature","id":"geonames-90772","properties":{"id":"geonames-90772","name":"شۆرجە","kind":"village","tier":"locality","priority":300,"context":"کەرکووک · کەرکووک","category":"گوند"},"geometry":{"type":"Point","coordinates":[44.65797,35.29105]}},{"type":"Feature","id":"osm-node-7818745218","properties":{"id":"osm-node-7818745218","name":"شێخ جیری خواروو","kind":"village","tier":"locality","priority":300,"context":"کەرکووک · کەرکووک","category":"گوند"},"geometry":{"type":"Point","coordinates":[44.6917738,35.427376]}},{"type":"Feature","id":"osm-node-9424607562","properties":{"id":"osm-node-9424607562","name":"شێخ جیری سەروو","kind":"village","tier":"locality","priority":300,"context":"کەرکووک · کەرکووک","category":"گوند"},"geometry":{"type":"Point","coordinates":[44.6969663,35.4356989]}},{"type":"Feature","id":"osm-node-2488271723","properties":{"id":"osm-node-2488271723","name":"عوسمان لەکە","kind":"village","tier":"locality","priority":300,"context":"کەرکووک · کەرکووک","category":"گوند"},"geometry":{"type":"Point","coordinates":[44.6866976,35.360354]}},{"type":"Feature","id":"osm-node-9370202211","properties":{"id":"osm-node-9370202211","name":"فەرقان","kind":"village","tier":"locality","priority":300,"context":"کەرکووک · کەرکووک","category":"گوند"},"geometry":{"type":"Point","coordinates":[44.5660315,35.3183696]}},{"type":"Feature","id":"osm-node-2488265835","properties":{"id":"osm-node-2488265835","name":"قازان بوڵاغ","kind":"village","tier":"locality","priority":300,"context":"کەرکووک · کەرکووک","category":"گوند"},"geometry":{"type":"Point","coordinates":[44.5050357,35.3757481]}},{"type":"Feature","id":"osm-node-11377314463","properties":{"id":"osm-node-11377314463","name":"قشڵاغ کۆن","kind":"village","tier":"locality","priority":300,"context":"کەرکووک · کەرکووک","category":"گوند"},"geometry":{"type":"Point","coordinates":[44.5746993,35.3618835]}},{"type":"Feature","id":"geonames-384578","properties":{"id":"geonames-384578","name":"قەرەھەنجیر","kind":"village","tier":"locality","priority":300,"context":"کەرکووک · کەرکووک","category":"گوند"},"geometry":{"type":"Point","coordinates":[44.63167,35.49444]}},{"type":"Feature","id":"osm-node-11377643040","properties":{"id":"osm-node-11377643040","name":"قەڵا گۆمە","kind":"village","tier":"locality","priority":300,"context":"کەرکووک · کەرکووک","category":"گوند"},"geometry":{"type":"Point","coordinates":[44.5439075,35.4272676]}},{"type":"Feature","id":"osm-node-11370383548","properties":{"id":"osm-node-11370383548","name":"میرە سوورە","kind":"village","tier":"locality","priority":300,"context":"کەرکووک · کەرکووک","category":"گوند"},"geometry":{"type":"Point","coordinates":[44.7013595,35.3836467]}},{"type":"Feature","id":"osm-node-8514854492","properties":{"id":"osm-node-8514854492","name":"مەملی","kind":"village","tier":"locality","priority":300,"context":"کەرکووک · کەرکووک","category":"گوند"},"geometry":{"type":"Point","coordinates":[44.5501077,35.4216402]}},{"type":"Feature","id":"osm-node-11370455100","properties":{"id":"osm-node-11370455100","name":"نەزراوە","kind":"village","tier":"locality","priority":300,"context":"کەرکووک · کەرکووک","category":"گوند"},"geometry":{"type":"Point","coordinates":[44.5991056,35.2960592]}},{"type":"Feature","id":"osm-node-2489303051","properties":{"id":"osm-node-2489303051","name":"هەرمین","kind":"village","tier":"locality","priority":300,"context":"کەرکووک · کەرکووک","category":"گوند"},"geometry":{"type":"Point","coordinates":[44.6315976,35.3104784]}},{"type":"Feature","id":"osm-way-728012131","properties":{"id":"osm-way-728012131","name":"هەفتا چەشمە","kind":"village","tier":"locality","priority":300,"context":"کەرکووک · کەرکووک","category":"گوند"},"geometry":{"type":"Point","coordinates":[44.721681593042334,35.3352354]}},{"type":"Feature","id":"osm-node-11228548572","properties":{"id":"osm-node-11228548572","name":"هەنارەی محەمەد سەعید","kind":"village","tier":"locality","priority":300,"context":"چەمچەماڵ · سلێمانی","category":"گوند"},"geometry":{"type":"Point","coordinates":[44.7485478,35.364459]}},{"type":"Feature","id":"osm-node-7556988724","properties":{"id":"osm-node-7556988724","name":"پویزڵ","kind":"village","tier":"locality","priority":300,"context":"کەرکووک · کەرکووک","category":"گوند"},"geometry":{"type":"Point","coordinates":[44.7131131,35.2728194]}},{"type":"Feature","id":"osm-node-11370397802","properties":{"id":"osm-node-11370397802","name":"پەڵکانە","kind":"village","tier":"locality","priority":300,"context":"کەرکووک · کەرکووک","category":"گوند"},"geometry":{"type":"Point","coordinates":[44.6239903,35.3378799]}},{"type":"Feature","id":"osm-node-2488269067","properties":{"id":"osm-node-2488269067","name":"چیمەنی بچووک","kind":"village","tier":"locality","priority":300,"context":"کەرکووک · کەرکووک","category":"گوند"},"geometry":{"type":"Point","coordinates":[44.566985,35.479674]}},{"type":"Feature","id":"osm-node-8120833904","properties":{"id":"osm-node-8120833904","name":"چیمەنی نوێ","kind":"village","tier":"locality","priority":300,"context":"کەرکووک · کەرکووک","category":"گوند"},"geometry":{"type":"Point","coordinates":[44.5628578,35.4695706]}},{"type":"Feature","id":"osm-node-9841317705","properties":{"id":"osm-node-9841317705","name":"کەوەڵە","kind":"village","tier":"locality","priority":300,"context":"کەرکووک · کەرکووک","category":"گوند"},"geometry":{"type":"Point","coordinates":[44.5892564,35.4316914]}},{"type":"Feature","id":"osm-way-679050501","properties":{"id":"osm-way-679050501","name":"یەحیاوە","kind":"village","tier":"locality","priority":300,"context":"کەرکووک · کەرکووک","category":"گوند"},"geometry":{"type":"Point","coordinates":[44.51501105876076,35.32346485]}},{"type":"Feature","id":"osm-natural-stream-036d1322d335f5","properties":{"id":"osm-natural-stream-036d1322d335f5","name":"Cham-a Tu","kind":"natural","tier":"natural","priority":180,"context":"جۆگە · کەرکووک · کەرکووک","category":"جۆگە"},"geometry":{"type":"Point","coordinates":[44.62194,35.43333]}},{"type":"Feature","id":"osm-natural-stream-0059920e10b713","properties":{"id":"osm-natural-stream-0059920e10b713","name":"Haramayn","kind":"natural","tier":"natural","priority":180,"context":"جۆگە · کەرکووک · کەرکووک","category":"جۆگە"},"geometry":{"type":"Point","coordinates":[44.63444,35.31361]}},{"type":"Feature","id":"osm-natural-mountain-ed8075e55dd03f","properties":{"id":"osm-natural-mountain-ed8075e55dd03f","name":"Jabal Chilman","kind":"natural","tier":"natural","priority":180,"context":"شاخ · کەرکووک · کەرکووک","category":"شاخ"},"geometry":{"type":"Point","coordinates":[44.5282,35.44123]}},{"type":"Feature","id":"osm-natural-hill-0efb9e24856a15","properties":{"id":"osm-natural-hill-0efb9e24856a15","name":"Sharab Tappah","kind":"natural","tier":"natural","priority":180,"context":"گرد · کەرکووک · کەرکووک","category":"گرد"},"geometry":{"type":"Point","coordinates":[44.53333,35.3]}},{"type":"Feature","id":"osm-natural-stream-05131c7e7b052c","properties":{"id":"osm-natural-stream-05131c7e7b052c","name":"ئاوی ئومەر گەدە","kind":"natural","tier":"natural","priority":180,"context":"جۆگە · کەرکووک · کەرکووک","category":"جۆگە"},"geometry":{"type":"Point","coordinates":[44.6013873,35.2968412]}},{"type":"Feature","id":"osm-natural-stream-ef4f585c57e1d3","properties":{"id":"osm-natural-stream-ef4f585c57e1d3","name":"ئاوی بەنداوی شیرین","kind":"natural","tier":"natural","priority":180,"context":"جۆگە · کەرکووک · کەرکووک","category":"جۆگە"},"geometry":{"type":"Point","coordinates":[44.5321334,35.4072697]}},{"type":"Feature","id":"osm-natural-stream-a50a49558952c2","properties":{"id":"osm-natural-stream-a50a49558952c2","name":"ئاوی زەنگنە","kind":"natural","tier":"natural","priority":180,"context":"جۆگە · کەرکووک · کەرکووک","category":"جۆگە"},"geometry":{"type":"Point","coordinates":[44.5578474,35.436052]}},{"type":"Feature","id":"osm-natural-stream-4617a4fc0a3980","properties":{"id":"osm-natural-stream-4617a4fc0a3980","name":"ئاوی قەرەهەنجیر","kind":"natural","tier":"natural","priority":180,"context":"جۆگە · کەرکووک · کەرکووک","category":"جۆگە"},"geometry":{"type":"Point","coordinates":[44.5482051,35.4453463]}},{"type":"Feature","id":"osm-natural-stream-521ece925a5fc1","properties":{"id":"osm-natural-stream-521ece925a5fc1","name":"ئاوی پەڵکانە","kind":"natural","tier":"natural","priority":180,"context":"جۆگە · کەرکووک · کەرکووک","category":"جۆگە"},"geometry":{"type":"Point","coordinates":[44.6111149,35.3213531]}},{"type":"Feature","id":"osm-natural-lake-4613c5a4cf4b71","properties":{"id":"osm-natural-lake-4613c5a4cf4b71","name":"بەنداوی پەڵکانە","kind":"natural","tier":"natural","priority":180,"context":"دەریاچە · کەرکووک · کەرکووک","category":"دەریاچە"},"geometry":{"type":"Point","coordinates":[44.6376292,35.3471236]}},{"type":"Feature","id":"osm-natural-valley-14f29156ae9007","properties":{"id":"osm-natural-valley-14f29156ae9007","name":"جدول ياهياوة","kind":"natural","tier":"natural","priority":180,"context":"دۆڵ · کەرکووک · کەرکووک","category":"دۆڵ"},"geometry":{"type":"Point","coordinates":[44.51614,35.32716]}},{"type":"Feature","id":"osm-natural-valley-3e450a4221e874","properties":{"id":"osm-natural-valley-3e450a4221e874","name":"جمة تو","kind":"natural","tier":"natural","priority":180,"context":"دۆڵ · کەرکووک · کەرکووک","category":"دۆڵ"},"geometry":{"type":"Point","coordinates":[44.621944,35.433333]}},{"type":"Feature","id":"osm-natural-orchard-7d475e570b16c2","properties":{"id":"osm-natural-orchard-7d475e570b16c2","name":"خضر بولاغ","kind":"natural","tier":"natural","priority":180,"context":"باخ · کەرکووک · کەرکووک","category":"باخ"},"geometry":{"type":"Point","coordinates":[44.5956,35.26468]}},{"type":"Feature","id":"osm-natural-stream-e0f857d83cb94a","properties":{"id":"osm-natural-stream-e0f857d83cb94a","name":"خڕ قەرەقەچە","kind":"natural","tier":"natural","priority":180,"context":"جۆگە · کەرکووک · کەرکووک","category":"جۆگە"},"geometry":{"type":"Point","coordinates":[44.7114998,35.2716722]}},{"type":"Feature","id":"osm-natural-stream-8ec547f6c67f0e","properties":{"id":"osm-natural-stream-8ec547f6c67f0e","name":"خڕ مامشە","kind":"natural","tier":"natural","priority":180,"context":"جۆگە · کەرکووک · کەرکووک","category":"جۆگە"},"geometry":{"type":"Point","coordinates":[44.6898252,35.3039161]}},{"type":"Feature","id":"osm-natural-lake-787980b5569af4","properties":{"id":"osm-natural-lake-787980b5569af4","name":"دەریاچەی بەنداوی شیرین","kind":"natural","tier":"natural","priority":180,"context":"دەریاچە · کەرکووک · کەرکووک","category":"دەریاچە"},"geometry":{"type":"Point","coordinates":[44.5102276,35.3816773]}},{"type":"Feature","id":"osm-natural-valley-26b5f3e5e64ed8","properties":{"id":"osm-natural-valley-26b5f3e5e64ed8","name":"وادي باش بولاغ","kind":"natural","tier":"natural","priority":180,"context":"دۆڵ · کەرکووک · کەرکووک","category":"دۆڵ"},"geometry":{"type":"Point","coordinates":[44.62373,35.43427]}},{"type":"Feature","id":"osm-natural-valley-1edda4ae0ff37c","properties":{"id":"osm-natural-valley-1edda4ae0ff37c","name":"وادي بالخانة","kind":"natural","tier":"natural","priority":180,"context":"دۆڵ · کەرکووک · کەرکووک","category":"دۆڵ"},"geometry":{"type":"Point","coordinates":[44.58571,35.29634]}},{"type":"Feature","id":"osm-natural-valley-c18f4dd4c45194","properties":{"id":"osm-natural-valley-c18f4dd4c45194","name":"وادي سيكة لك","kind":"natural","tier":"natural","priority":180,"context":"دۆڵ · کەرکووک · کەرکووک","category":"دۆڵ"},"geometry":{"type":"Point","coordinates":[44.62684,35.4859]}},{"type":"Feature","id":"osm-natural-valley-313ba9c1eda9c2","properties":{"id":"osm-natural-valley-313ba9c1eda9c2","name":"وادي شيرو","kind":"natural","tier":"natural","priority":180,"context":"دۆڵ · کەرکووک · کەرکووک","category":"دۆڵ"},"geometry":{"type":"Point","coordinates":[44.59587,35.35603]}},{"type":"Feature","id":"osm-natural-valley-158acd0b2d39b0","properties":{"id":"osm-natural-valley-158acd0b2d39b0","name":"وادي شيو دخران","kind":"natural","tier":"natural","priority":180,"context":"دۆڵ · کەرکووک · کەرکووک","category":"دۆڵ"},"geometry":{"type":"Point","coordinates":[44.60752,35.37681]}},{"type":"Feature","id":"osm-natural-valley-322ff884b81464","properties":{"id":"osm-natural-valley-322ff884b81464","name":"وادي قرة حسن","kind":"natural","tier":"natural","priority":180,"context":"دۆڵ · کەرکووک · کەرکووک","category":"دۆڵ"},"geometry":{"type":"Point","coordinates":[44.60682,35.37732]}},{"type":"Feature","id":"osm-natural-valley-121de59beb2c1d","properties":{"id":"osm-natural-valley-121de59beb2c1d","name":"وادي قلبخة","kind":"natural","tier":"natural","priority":180,"context":"دۆڵ · جمجمال · سلێمانی","category":"دۆڵ"},"geometry":{"type":"Point","coordinates":[44.73445,35.25869]}},{"type":"Feature","id":"osm-natural-valley-260eed60c6da6f","properties":{"id":"osm-natural-valley-260eed60c6da6f","name":"وادي كونجلي","kind":"natural","tier":"natural","priority":180,"context":"دۆڵ · کەرکووک · کەرکووک","category":"دۆڵ"},"geometry":{"type":"Point","coordinates":[44.67546,35.25241]}},{"type":"Feature","id":"osm-natural-river-ff6b737e779095","properties":{"id":"osm-natural-river-ff6b737e779095","name":"چەم شیو دەهران","kind":"natural","tier":"natural","priority":180,"context":"ڕووبار · کەرکووک · کەرکووک","category":"ڕووبار"},"geometry":{"type":"Point","coordinates":[44.5213904,35.3308716]}},{"type":"Feature","id":"osm-natural-stream-cd2f97b82d831e","properties":{"id":"osm-natural-stream-cd2f97b82d831e","name":"چەم شێرۆ","kind":"natural","tier":"natural","priority":180,"context":"جۆگە · کەرکووک · کەرکووک","category":"جۆگە"},"geometry":{"type":"Point","coordinates":[44.6073546,35.3655888]}},{"type":"Feature","id":"osm-natural-valley-3cc3ad68c40076","properties":{"id":"osm-natural-valley-3cc3ad68c40076","name":"چەم شێرۆ","kind":"natural","tier":"natural","priority":180,"context":"دۆڵ · کەرکووک · کەرکووک","category":"دۆڵ"},"geometry":{"type":"Point","coordinates":[44.5939433,35.3570331]}},{"type":"Feature","id":"osm-natural-stream-d2bb0c3a8229a1","properties":{"id":"osm-natural-stream-d2bb0c3a8229a1","name":"چەمی ئومەر گەدە","kind":"natural","tier":"natural","priority":180,"context":"جۆگە · کەرکووک · کەرکووک","category":"جۆگە"},"geometry":{"type":"Point","coordinates":[44.7252903,35.4286208]}},{"type":"Feature","id":"road-label-osm-way-1193395661","properties":{"id":"road-label-osm-way-1193395661","name":"ڕێگای سلێمانی - کەرکووک","kind":"road","tier":"road","priority":95,"context":"trunk · کەرکووک · کەرکووک","category":"ڕێگا"},"geometry":{"type":"Point","coordinates":[44.584287,35.469156]}},{"type":"Feature","id":"road-label-osm-way-1193395662","properties":{"id":"road-label-osm-way-1193395662","name":"ڕێگای کەرکووک - سلێمانی","kind":"road","tier":"road","priority":95,"context":"trunk · کەرکووک · کەرکووک","category":"ڕێگا"},"geometry":{"type":"Point","coordinates":[44.583957,35.46893]}},{"type":"Feature","id":"road-label-osm-way-1485034642","properties":{"id":"road-label-osm-way-1485034642","name":"ڕێگای لەیلان","kind":"road","tier":"road","priority":72,"context":"secondary · کەرکووک · کەرکووک","category":"ڕێگا"},"geometry":{"type":"Point","coordinates":[44.551199,35.290523]}},{"type":"Feature","id":"osm-node-6427912485-hospital","properties":{"id":"osm-node-6427912485-hospital","name":"مرکز صحی لیلان","kind":"poi","tier":"poi_landmark","priority":95.1,"context":"نەخۆشخانە","category":"نەخۆشخانە"},"geometry":{"type":"Point","coordinates":[44.5158764,35.3171909]}},{"type":"Feature","id":"osm-way-862754207-hospital","properties":{"id":"osm-way-862754207-hospital","name":"نەخۆشخانەی قەرەهەنجیر","kind":"poi","tier":"poi_landmark","priority":95.092,"context":"نەخۆشخانە","category":"نەخۆشخانە"},"geometry":{"type":"Point","coordinates":[44.6334083,35.4911405]}},{"type":"Feature","id":"osm-node-8303574306-comms_tower","properties":{"id":"osm-node-8303574306-comms_tower","name":"کۆڕەک تیلیکۆم","kind":"poi","tier":"poi_regional","priority":86.1,"context":"بورجی کۆڕەک","category":"بورجی کۆڕەک"},"geometry":{"type":"Point","coordinates":[44.5304838,35.4804629]}},{"type":"Feature","id":"osm-way-1485033387-military","properties":{"id":"osm-way-1485033387-military","name":"جیش عراقی","kind":"poi","tier":"poi_regional","priority":80.045,"context":"بنکەی سەربازی","category":"بنکەی سەربازی"},"geometry":{"type":"Point","coordinates":[44.5723991,35.26777]}},{"type":"Feature","id":"osm-node-4792942524-fuel","properties":{"id":"osm-node-4792942524-fuel","name":"بەنزینخانەی گەل","kind":"poi","tier":"poi_regional","priority":82.094,"context":"وێستگەی سووتەمەنی","category":"وێستگەی سووتەمەنی"},"geometry":{"type":"Point","coordinates":[44.5438786,35.4711384]}},{"type":"Feature","id":"osm-way-1222518130-fuel","properties":{"id":"osm-way-1222518130-fuel","name":"بەنزینخانەی قەرەهەنجیر","kind":"poi","tier":"poi_regional","priority":82.086,"context":"وێستگەی سووتەمەنی","category":"وێستگەی سووتەمەنی"},"geometry":{"type":"Point","coordinates":[44.6258756,35.4900303]}},{"type":"Feature","id":"osm-node-6741949886-police","properties":{"id":"osm-node-6741949886-police","name":"السریە الرابعە الکتیبە الاولی فوج المغاویر","kind":"poi","tier":"poi_regional","priority":77.1,"context":"بنکەی پۆلیس","category":"بنکەی پۆلیس"},"geometry":{"type":"Point","coordinates":[44.5533817,35.4657708]}},{"type":"Feature","id":"osm-node-6741949985-police","properties":{"id":"osm-node-6741949985-police","name":"فوج الاول مغاویر شرطە اتحادیە","kind":"poi","tier":"poi_regional","priority":77.1,"context":"بنکەی پۆلیس","category":"بنکەی پۆلیس"},"geometry":{"type":"Point","coordinates":[44.5544623,35.4658866]}},{"type":"Feature","id":"osm-node-9796883217-police","properties":{"id":"osm-node-9796883217-police","name":"مرکز شرطە قرەهنجیر","kind":"poi","tier":"poi_regional","priority":77.1,"context":"بنکەی پۆلیس","category":"بنکەی پۆلیس"},"geometry":{"type":"Point","coordinates":[44.640587,35.4952248]}},{"type":"Feature","id":"osm-way-11292081-police","properties":{"id":"osm-way-11292081-police","name":"بنکەی پۆلیسی لەیلان","kind":"poi","tier":"poi_regional","priority":77.092,"context":"بنکەی پۆلیس","category":"بنکەی پۆلیس"},"geometry":{"type":"Point","coordinates":[44.5129428,35.3152636]}},{"type":"Feature","id":"osm-way-1227392562-residential","properties":{"id":"osm-way-1227392562-residential","name":"باشبوڵاغی سەروو","kind":"poi","tier":"poi_local","priority":68.045,"context":"کۆمپاوندی نیشتەجێبوون","category":"کۆمپاوندی نیشتەجێبوون"},"geometry":{"type":"Point","coordinates":[44.702189,35.4819563]}},{"type":"Feature","id":"osm-way-1226902048-residential","properties":{"id":"osm-way-1226902048-residential","name":"بان لەیلان","kind":"poi","tier":"poi_local","priority":68.045,"context":"کۆمپاوندی نیشتەجێبوون","category":"کۆمپاوندی نیشتەجێبوون"},"geometry":{"type":"Point","coordinates":[44.5451523,35.3416058]}},{"type":"Feature","id":"osm-way-1226124769-residential","properties":{"id":"osm-way-1226124769-residential","name":"بزەڵە","kind":"poi","tier":"poi_local","priority":68.045,"context":"کۆمپاوندی نیشتەجێبوون","category":"کۆمپاوندی نیشتەجێبوون"},"geometry":{"type":"Point","coordinates":[44.6565808,35.3853076]}},{"type":"Feature","id":"osm-way-1279847054-residential","properties":{"id":"osm-way-1279847054-residential","name":"تەپەلو","kind":"poi","tier":"poi_local","priority":68.045,"context":"کۆمپاوندی نیشتەجێبوون","category":"کۆمپاوندی نیشتەجێبوون"},"geometry":{"type":"Point","coordinates":[44.5629312,35.2837809]}},{"type":"Feature","id":"osm-way-1138067457-residential","properties":{"id":"osm-way-1138067457-residential","name":"جافان","kind":"poi","tier":"poi_local","priority":68.045,"context":"کۆمپاوندی نیشتەجێبوون","category":"کۆمپاوندی نیشتەجێبوون"},"geometry":{"type":"Point","coordinates":[44.5602769,35.4152955]}},{"type":"Feature","id":"osm-way-792292105-residential","properties":{"id":"osm-way-792292105-residential","name":"حوسێن سەلام","kind":"poi","tier":"poi_local","priority":68.045,"context":"کۆمپاوندی نیشتەجێبوون","category":"کۆمپاوندی نیشتەجێبوون"},"geometry":{"type":"Point","coordinates":[44.6116176,35.3888351]}},{"type":"Feature","id":"osm-way-1226921130-residential","properties":{"id":"osm-way-1226921130-residential","name":"حەسەن خان","kind":"poi","tier":"poi_local","priority":68.045,"context":"کۆمپاوندی نیشتەجێبوون","category":"کۆمپاوندی نیشتەجێبوون"},"geometry":{"type":"Point","coordinates":[44.6900568,35.2828771]}},{"type":"Feature","id":"osm-way-1205874766-residential","properties":{"id":"osm-way-1205874766-residential","name":"حەمک","kind":"poi","tier":"poi_local","priority":68.045,"context":"کۆمپاوندی نیشتەجێبوون","category":"کۆمپاوندی نیشتەجێبوون"},"geometry":{"type":"Point","coordinates":[44.7424566,35.2792217]}},{"type":"Feature","id":"osm-way-783267675-residential","properties":{"id":"osm-way-783267675-residential","name":"خاڵۆبازیانی","kind":"poi","tier":"poi_local","priority":68.045,"context":"کۆمپاوندی نیشتەجێبوون","category":"کۆمپاوندی نیشتەجێبوون"},"geometry":{"type":"Point","coordinates":[44.6302987,35.4180045]}},{"type":"Feature","id":"osm-way-1226901628-residential","properties":{"id":"osm-way-1226901628-residential","name":"خدربەگ شێخ حوسێن","kind":"poi","tier":"poi_local","priority":68.045,"context":"کۆمپاوندی نیشتەجێبوون","category":"کۆمپاوندی نیشتەجێبوون"},"geometry":{"type":"Point","coordinates":[44.5920023,35.3667795]}},{"type":"Feature","id":"osm-way-1226901173-residential","properties":{"id":"osm-way-1226901173-residential","name":"خدربەگ شێخ محەمەد","kind":"poi","tier":"poi_local","priority":68.045,"context":"کۆمپاوندی نیشتەجێبوون","category":"کۆمپاوندی نیشتەجێبوون"},"geometry":{"type":"Point","coordinates":[44.5390907,35.372225]}},{"type":"Feature","id":"osm-way-627351782-residential","properties":{"id":"osm-way-627351782-residential","name":"زەنگەنە","kind":"poi","tier":"poi_local","priority":68.045,"context":"کۆمپاوندی نیشتەجێبوون","category":"کۆمپاوندی نیشتەجێبوون"},"geometry":{"type":"Point","coordinates":[44.5764248,35.4465735]}},{"type":"Feature","id":"osm-way-1226127826-residential","properties":{"id":"osm-way-1226127826-residential","name":"سیا مەنسوور","kind":"poi","tier":"poi_local","priority":68.045,"context":"کۆمپاوندی نیشتەجێبوون","category":"کۆمپاوندی نیشتەجێبوون"},"geometry":{"type":"Point","coordinates":[44.6228947,35.3064533]}},{"type":"Feature","id":"osm-way-1226125883-residential","properties":{"id":"osm-way-1226125883-residential","name":"شوانە","kind":"poi","tier":"poi_local","priority":68.045,"context":"کۆمپاوندی نیشتەجێبوون","category":"کۆمپاوندی نیشتەجێبوون"},"geometry":{"type":"Point","coordinates":[44.6534713,35.3581694]}},{"type":"Feature","id":"osm-way-1227393156-residential","properties":{"id":"osm-way-1227393156-residential","name":"شێخ جیری خواروو","kind":"poi","tier":"poi_local","priority":68.045,"context":"کۆمپاوندی نیشتەجێبوون","category":"کۆمپاوندی نیشتەجێبوون"},"geometry":{"type":"Point","coordinates":[44.6921781,35.4268855]}},{"type":"Feature","id":"osm-way-1227393751-residential","properties":{"id":"osm-way-1227393751-residential","name":"شێخ جیری سەروو","kind":"poi","tier":"poi_local","priority":68.045,"context":"کۆمپاوندی نیشتەجێبوون","category":"کۆمپاوندی نیشتەجێبوون"},"geometry":{"type":"Point","coordinates":[44.6972838,35.4358199]}},{"type":"Feature","id":"osm-way-1226123497-residential","properties":{"id":"osm-way-1226123497-residential","name":"عوسمان لەکە","kind":"poi","tier":"poi_local","priority":68.045,"context":"کۆمپاوندی نیشتەجێبوون","category":"کۆمپاوندی نیشتەجێبوون"},"geometry":{"type":"Point","coordinates":[44.6870345,35.365495]}},{"type":"Feature","id":"osm-way-679049502-residential","properties":{"id":"osm-way-679049502-residential","name":"فەرقان","kind":"poi","tier":"poi_local","priority":68.045,"context":"کۆمپاوندی نیشتەجێبوون","category":"کۆمپاوندی نیشتەجێبوون"},"geometry":{"type":"Point","coordinates":[44.5632151,35.3151223]}},{"type":"Feature","id":"osm-way-558473033-residential","properties":{"id":"osm-way-558473033-residential","name":"قەرەهەنجیر","kind":"poi","tier":"poi_local","priority":68.045,"context":"کۆمپاوندی نیشتەجێبوون","category":"کۆمپاوندی نیشتەجێبوون"},"geometry":{"type":"Point","coordinates":[44.6389976,35.4927345]}},{"type":"Feature","id":"osm-way-908426279-residential","properties":{"id":"osm-way-908426279-residential","name":"قەڵا گۆمە","kind":"poi","tier":"poi_local","priority":68.045,"context":"کۆمپاوندی نیشتەجێبوون","category":"کۆمپاوندی نیشتەجێبوون"},"geometry":{"type":"Point","coordinates":[44.5438527,35.4276356]}},{"type":"Feature","id":"osm-way-727281177-residential","properties":{"id":"osm-way-727281177-residential","name":"میرە سوورە","kind":"poi","tier":"poi_local","priority":68.045,"context":"کۆمپاوندی نیشتەجێبوون","category":"کۆمپاوندی نیشتەجێبوون"},"geometry":{"type":"Point","coordinates":[44.7017959,35.3843548]}},{"type":"Feature","id":"osm-way-1226941014-residential","properties":{"id":"osm-way-1226941014-residential","name":"مەملی","kind":"poi","tier":"poi_local","priority":68.045,"context":"کۆمپاوندی نیشتەجێبوون","category":"کۆمپاوندی نیشتەجێبوون"},"geometry":{"type":"Point","coordinates":[44.5494462,35.4213416]}},{"type":"Feature","id":"osm-way-1226128995-residential","properties":{"id":"osm-way-1226128995-residential","name":"نەزراوە","kind":"poi","tier":"poi_local","priority":68.045,"context":"کۆمپاوندی نیشتەجێبوون","category":"کۆمپاوندی نیشتەجێبوون"},"geometry":{"type":"Point","coordinates":[44.5991341,35.2962845]}},{"type":"Feature","id":"osm-way-1226127647-residential","properties":{"id":"osm-way-1226127647-residential","name":"هەرمین","kind":"poi","tier":"poi_local","priority":68.045,"context":"کۆمپاوندی نیشتەجێبوون","category":"کۆمپاوندی نیشتەجێبوون"},"geometry":{"type":"Point","coordinates":[44.63137,35.3103326]}},{"type":"Feature","id":"osm-way-1212002224-residential","properties":{"id":"osm-way-1212002224-residential","name":"هەنارەی محەمەد سەعید","kind":"poi","tier":"poi_local","priority":68.045,"context":"کۆمپاوندی نیشتەجێبوون","category":"کۆمپاوندی نیشتەجێبوون"},"geometry":{"type":"Point","coordinates":[44.7485922,35.3647373]}},{"type":"Feature","id":"osm-way-1205876071-residential","properties":{"id":"osm-way-1205876071-residential","name":"پویزڵ","kind":"poi","tier":"poi_local","priority":68.045,"context":"کۆمپاوندی نیشتەجێبوون","category":"کۆمپاوندی نیشتەجێبوون"},"geometry":{"type":"Point","coordinates":[44.7120731,35.2734016]}},{"type":"Feature","id":"osm-way-1226126253-residential","properties":{"id":"osm-way-1226126253-residential","name":"پەڵکانە","kind":"poi","tier":"poi_local","priority":68.045,"context":"کۆمپاوندی نیشتەجێبوون","category":"کۆمپاوندی نیشتەجێبوون"},"geometry":{"type":"Point","coordinates":[44.623966,35.3377355]}},{"type":"Feature","id":"osm-way-783267674-residential","properties":{"id":"osm-way-783267674-residential","name":"کەوەڵە","kind":"poi","tier":"poi_local","priority":68.045,"context":"کۆمپاوندی نیشتەجێبوون","category":"کۆمپاوندی نیشتەجێبوون"},"geometry":{"type":"Point","coordinates":[44.5898866,35.4318697]}},{"type":"Feature","id":"osm-way-1492290944-industrial","properties":{"id":"osm-way-1492290944-industrial","name":"Musk Brick Project","kind":"poi","tier":"poi_local","priority":66.045,"context":"ناوچەی پیشەسازی","category":"ناوچەی پیشەسازی"},"geometry":{"type":"Point","coordinates":[44.5105617,35.3651413]}},{"type":"Feature","id":"osm-way-1376446214-industrial","properties":{"id":"osm-way-1376446214-industrial","name":"Qarahanjir Substation","kind":"poi","tier":"poi_local","priority":66.045,"context":"ناوچەی پیشەسازی","category":"ناوچەی پیشەسازی"},"geometry":{"type":"Point","coordinates":[44.6564512,35.494958]}},{"type":"Feature","id":"osm-node-4780946521-restaurant","properties":{"id":"osm-node-4780946521-restaurant","name":"Qarahanjer resturant","kind":"poi","tier":"poi_detail","priority":50.1,"context":"چێشتخانە","category":"چێشتخانە"},"geometry":{"type":"Point","coordinates":[44.6396086,35.4948086]}},{"type":"Feature","id":"osm-node-4794677922-supermarket","properties":{"id":"osm-node-4794677922-supermarket","name":"فرۆشگای چیمەن","kind":"poi","tier":"poi_detail","priority":50.1,"context":"سۆپەرمارکێت","category":"سۆپەرمارکێت"},"geometry":{"type":"Point","coordinates":[44.5439556,35.4710706]}},{"type":"Feature","id":"osm-node-5333355424-school","properties":{"id":"osm-node-5333355424-school","name":"قوتابخانەی خالو بازیانی","kind":"poi","tier":"poi_detail","priority":50.1,"context":"قوتابخانە","category":"قوتابخانە"},"geometry":{"type":"Point","coordinates":[44.6259737,35.4208096]}},{"type":"Feature","id":"osm-node-9513635417-school","properties":{"id":"osm-node-9513635417-school","name":"مدرسە رومان","kind":"poi","tier":"poi_detail","priority":50.1,"context":"قوتابخانە","category":"قوتابخانە"},"geometry":{"type":"Point","coordinates":[44.5081946,35.3131069]}},{"type":"Feature","id":"osm-node-9532045517-school","properties":{"id":"osm-node-9532045517-school","name":"مدرسە چەرموو کچان","kind":"poi","tier":"poi_detail","priority":50.1,"context":"قوتابخانە","category":"قوتابخانە"},"geometry":{"type":"Point","coordinates":[44.5118984,35.3124059]}},{"type":"Feature","id":"osm-node-11330696470-clinic","properties":{"id":"osm-node-11330696470-clinic","name":"مرکز صحی خالو بازیانی","kind":"poi","tier":"poi_detail","priority":50.1,"context":"کلینیک","category":"کلینیک"},"geometry":{"type":"Point","coordinates":[44.6311932,35.4163512]}},{"type":"Feature","id":"osm-node-11656213535-restaurant","properties":{"id":"osm-node-11656213535-restaurant","name":"مطعم کزخان","kind":"poi","tier":"poi_detail","priority":50.1,"context":"چێشتخانە","category":"چێشتخانە"},"geometry":{"type":"Point","coordinates":[44.638847,35.493269]}},{"type":"Feature","id":"osm-node-5323296721-supermarket","properties":{"id":"osm-node-5323296721-supermarket","name":"مینی مارکێتی چیمەن","kind":"poi","tier":"poi_detail","priority":50.1,"context":"سۆپەرمارکێت","category":"سۆپەرمارکێت"},"geometry":{"type":"Point","coordinates":[44.5672057,35.479676]}},{"type":"Feature","id":"osm-node-5663960721-restaurant","properties":{"id":"osm-node-5663960721-restaurant","name":"چیشتخانەی چیمەن","kind":"poi","tier":"poi_detail","priority":50.1,"context":"چێشتخانە","category":"چێشتخانە"},"geometry":{"type":"Point","coordinates":[44.5408188,35.4736077]}},{"type":"Feature","id":"osm-node-5124566523-restaurant","properties":{"id":"osm-node-5124566523-restaurant","name":"کانی وەتمان","kind":"poi","tier":"poi_detail","priority":50.1,"context":"چێشتخانە","category":"چێشتخانە"},"geometry":{"type":"Point","coordinates":[44.599104,35.4753891]}},{"type":"Feature","id":"osm-way-1102771688-school","properties":{"id":"osm-way-1102771688-school","name":"خوێندنگەی سەرکانی","kind":"poi","tier":"poi_detail","priority":50.092,"context":"قوتابخانە","category":"قوتابخانە"},"geometry":{"type":"Point","coordinates":[44.6365944,35.4923455]}},{"type":"Feature","id":"osm-node-10881895707-courthouse","properties":{"id":"osm-node-10881895707-courthouse","name":"دادگای به رای له یلان","kind":"poi","tier":"poi_detail","priority":50.1,"context":"دادگا","category":"دادگا"},"geometry":{"type":"Point","coordinates":[44.5118944,35.3155426]}},{"type":"Feature","id":"osm-node-5746821522-hostel","properties":{"id":"osm-node-5746821522-hostel","name":"دولی جافان","kind":"poi","tier":"poi_detail","priority":50.1,"context":"هۆستێل","category":"هۆستێل"},"geometry":{"type":"Point","coordinates":[44.5642771,35.4052807]}},{"type":"Feature","id":"osm-node-10864137677-viewpoint","properties":{"id":"osm-node-10864137677-viewpoint","name":"دیمەنی کەرکوک","kind":"poi","tier":"poi_detail","priority":50.1,"context":"شوێنی سەیران","category":"شوێنی سەیران"},"geometry":{"type":"Point","coordinates":[44.6037334,35.4293089]}},{"type":"Feature","id":"osm-node-10742999305-picnic_site","properties":{"id":"osm-node-10742999305-picnic_site","name":"سەفرە","kind":"poi","tier":"poi_detail","priority":50.1,"context":"شوێنی پیکنیک","category":"شوێنی پیکنیک"},"geometry":{"type":"Point","coordinates":[44.6100243,35.4010763]}},{"type":"Feature","id":"osm-node-5731864121-car_wash","properties":{"id":"osm-node-5731864121-car_wash","name":"غسل السیارات","kind":"poi","tier":"poi_detail","priority":50.1,"context":"شۆردنەوەی ئۆتۆمبیل","category":"شۆردنەوەی ئۆتۆمبیل"},"geometry":{"type":"Point","coordinates":[44.5024725,35.3263841]}},{"type":"Feature","id":"osm-node-9673091024-post_office","properties":{"id":"osm-node-9673091024-post_office","name":"مکتب برید قرە حسن","kind":"poi","tier":"poi_detail","priority":50.1,"context":"پۆستە","category":"پۆستە"},"geometry":{"type":"Point","coordinates":[44.51377,35.315808]}},{"type":"Feature","id":"osm-node-6741949888-viewpoint","properties":{"id":"osm-node-6741949888-viewpoint","name":"کوتا خالی فە جی ۱ مغاویر","kind":"poi","tier":"poi_detail","priority":50.1,"context":"شوێنی سەیران","category":"شوێنی سەیران"},"geometry":{"type":"Point","coordinates":[44.5467045,35.3417608]}},{"type":"Feature","id":"osm-node-8259639824-muslim_sunni","properties":{"id":"osm-node-8259639824-muslim_sunni","name":"مزگەوتی ڕەحیم","kind":"poi","tier":"poi_detail","priority":50.098,"context":"مزگەوت","category":"مزگەوت"},"geometry":{"type":"Point","coordinates":[44.5598985,35.4660753]}},{"type":"Feature","id":"osm-way-1202052617-muslim","properties":{"id":"osm-way-1202052617-muslim","name":"مزگەوتی باشبوڵاغ","kind":"poi","tier":"poi_detail","priority":50.09,"context":"مزگەوت","category":"مزگەوت"},"geometry":{"type":"Point","coordinates":[44.7023648,35.482055]}},{"type":"Feature","id":"osm-way-1102771681-muslim","properties":{"id":"osm-way-1102771681-muslim","name":"مزگەوتی قەرەهەنجیر","kind":"poi","tier":"poi_detail","priority":50.09,"context":"مزگەوت","category":"مزگەوت"},"geometry":{"type":"Point","coordinates":[44.6371735,35.4904156]}},{"type":"Feature","id":"osm-way-692228091-dam","properties":{"id":"osm-way-692228091-dam","name":"بەنداوی شیرین","kind":"poi","tier":"poi_detail","priority":50.086,"context":"بەنداوی ئاو","category":"بەنداوی ئاو"},"geometry":{"type":"Point","coordinates":[44.5077042,35.3777804]}},{"type":"Feature","id":"osm-way-692228345-dam","properties":{"id":"osm-way-692228345-dam","name":"بەنداوی شیرین","kind":"poi","tier":"poi_detail","priority":50.086,"context":"بەنداوی ئاو","category":"بەنداوی ئاو"},"geometry":{"type":"Point","coordinates":[44.5112619,35.3762004]}},{"type":"Feature","id":"osm-way-692019969-dam","properties":{"id":"osm-way-692019969-dam","name":"پەڵکانە","kind":"poi","tier":"poi_detail","priority":50.086,"context":"بەنداوی ئاو","category":"بەنداوی ئاو"},"geometry":{"type":"Point","coordinates":[44.6360416,35.345999]}},{"type":"Feature","id":"osm-way-499843377-forest","properties":{"id":"osm-way-499843377-forest","name":"dar","kind":"poi","tier":"poi_detail","priority":50.045,"context":"دارستان","category":"دارستان"},"geometry":{"type":"Point","coordinates":[44.7134737,35.4089342]}},{"type":"Feature","id":"osm-way-499848783-forest","properties":{"id":"osm-way-499848783-forest","name":"dar","kind":"poi","tier":"poi_detail","priority":50.045,"context":"دارستان","category":"دارستان"},"geometry":{"type":"Point","coordinates":[44.7212095,35.4231585]}}]}