{"type":"FeatureCollection","features":[{"type":"Feature","id":"osm-node-13729140112","properties":{"id":"osm-node-13729140112","name":"بێباد","kind":"village","tier":"locality","priority":300,"context":"ڕەواندز · هەولێر","category":"گوند"},"geometry":{"type":"Point","coordinates":[44.8023492,37.0163513]}},{"type":"Feature","id":"osm-node-13717346370","properties":{"id":"osm-node-13717346370","name":"خنێرە","kind":"village","tier":"locality","priority":300,"context":"ڕەواندز · هەولێر","category":"گوند"},"geometry":{"type":"Point","coordinates":[44.8535526,37.0066383]}},{"type":"Feature","id":"osm-node-13729504680","properties":{"id":"osm-node-13729504680","name":"سورتە","kind":"village","tier":"locality","priority":300,"context":"ڕەواندز · هەولێر","category":"گوند"},"geometry":{"type":"Point","coordinates":[44.7699355,37.0239917]}},{"type":"Feature","id":"osm-node-13717398309","properties":{"id":"osm-node-13717398309","name":"کانی نێر","kind":"village","tier":"locality","priority":300,"context":"ڕەواندز · هەولێر","category":"گوند"},"geometry":{"type":"Point","coordinates":[44.8261085,37.0083245]}},{"type":"Feature","id":"osm-node-13734275865","properties":{"id":"osm-node-13734275865","name":"یالانە","kind":"village","tier":"locality","priority":300,"context":"ڕەواندز · هەولێر","category":"گوند"},"geometry":{"type":"Point","coordinates":[44.8409004,37.0299077]}},{"type":"Feature","id":"osm-natural-mountain-2cd39c2f101847","properties":{"id":"osm-natural-mountain-2cd39c2f101847","name":"Chiya-i Akhachakan","kind":"natural","tier":"natural","priority":180,"context":"شاخ · راوندوز · هەولێر","category":"شاخ"},"geometry":{"type":"Point","coordinates":[44.89667,37.01472]}},{"type":"Feature","id":"osm-natural-mountain-848b04577794a7","properties":{"id":"osm-natural-mountain-848b04577794a7","name":"Chiya-i Awkhwarik","kind":"natural","tier":"natural","priority":180,"context":"شاخ · راوندوز · هەولێر","category":"شاخ"},"geometry":{"type":"Point","coordinates":[44.82333,37.03583]}},{"type":"Feature","id":"osm-natural-valley-ddb24b86a7d423","properties":{"id":"osm-natural-valley-ddb24b86a7d423","name":"Dol-i Algashim","kind":"natural","tier":"natural","priority":180,"context":"دۆڵ · راوندوز · هەولێر","category":"دۆڵ"},"geometry":{"type":"Point","coordinates":[44.83694,37.02]}},{"type":"Feature","id":"osm-natural-river-cae21965c6e8fc","properties":{"id":"osm-natural-river-cae21965c6e8fc","name":"Gali Ari","kind":"natural","tier":"natural","priority":180,"context":"ڕووبار · راوندوز · هەولێر","category":"ڕووبار"},"geometry":{"type":"Point","coordinates":[44.76194,37.06167]}},{"type":"Feature","id":"osm-natural-river-5a33db32a5d7cf","properties":{"id":"osm-natural-river-5a33db32a5d7cf","name":"Gali Kheruznk","kind":"natural","tier":"natural","priority":180,"context":"ڕووبار · راوندوز · هەولێر","category":"ڕووبار"},"geometry":{"type":"Point","coordinates":[44.7675,37.01778]}},{"type":"Feature","id":"osm-natural-mountain_pass-cf8f3b0b81f106","properties":{"id":"osm-natural-mountain_pass-cf8f3b0b81f106","name":"Gardaneh-ye Khanireh","kind":"natural","tier":"natural","priority":180,"context":"دەروازەی شاخ · راوندوز · هەولێر","category":"دەروازەی شاخ"},"geometry":{"type":"Point","coordinates":[44.83333,37.01667]}},{"type":"Feature","id":"osm-natural-mountain-cce4ce7c2fde23","properties":{"id":"osm-natural-mountain-cce4ce7c2fde23","name":"Jabal Zurmazi","kind":"natural","tier":"natural","priority":180,"context":"شاخ · راوندوز · هەولێر","category":"شاخ"},"geometry":{"type":"Point","coordinates":[44.78333,37.05]}},{"type":"Feature","id":"osm-natural-mountain-ed359a08c5172b","properties":{"id":"osm-natural-mountain-ed359a08c5172b","name":"Kuh-e Jasurak","kind":"natural","tier":"natural","priority":180,"context":"شاخ · راوندوز · هەولێر","category":"شاخ"},"geometry":{"type":"Point","coordinates":[44.75841,37.06943]}},{"type":"Feature","id":"osm-natural-mountain-14a3465f4babeb","properties":{"id":"osm-natural-mountain-14a3465f4babeb","name":"Kuh-e Liv ol Dabil","kind":"natural","tier":"natural","priority":180,"context":"شاخ · راوندوز · هەولێر","category":"شاخ"},"geometry":{"type":"Point","coordinates":[44.7806,37.1458]}},{"type":"Feature","id":"osm-natural-peak-f9e7f6c7a6eb94","properties":{"id":"osm-natural-peak-f9e7f6c7a6eb94","name":"Sar-i Bilibad","kind":"natural","tier":"natural","priority":180,"context":"لوتکە · راوندوز · هەولێر","category":"لوتکە"},"geometry":{"type":"Point","coordinates":[44.7875,37.02222]}},{"type":"Feature","id":"osm-natural-peak-0e8284030813b7","properties":{"id":"osm-natural-peak-0e8284030813b7","name":"Sar-i Birarash","kind":"natural","tier":"natural","priority":180,"context":"لوتکە · راوندوز · هەولێر","category":"لوتکە"},"geometry":{"type":"Point","coordinates":[44.77889,37.04333]}},{"type":"Feature","id":"osm-natural-peak-056b4081061fc8","properties":{"id":"osm-natural-peak-056b4081061fc8","name":"Sar-i Kanikah","kind":"natural","tier":"natural","priority":180,"context":"لوتکە · راوندوز · هەولێر","category":"لوتکە"},"geometry":{"type":"Point","coordinates":[44.79528,37.01111]}},{"type":"Feature","id":"osm-natural-peak-1273618976e96f","properties":{"id":"osm-natural-peak-1273618976e96f","name":"Sar-i Sako","kind":"natural","tier":"natural","priority":180,"context":"لوتکە · راوندوز · هەولێر","category":"لوتکە"},"geometry":{"type":"Point","coordinates":[44.87444,37.03222]}},{"type":"Feature","id":"osm-natural-peak-1d040745adffdd","properties":{"id":"osm-natural-peak-1d040745adffdd","name":"Sar-i Zhula","kind":"natural","tier":"natural","priority":180,"context":"لوتکە · راوندوز · هەولێر","category":"لوتکە"},"geometry":{"type":"Point","coordinates":[44.80639,37.02139]}},{"type":"Feature","id":"osm-natural-river-a1093eb850dcd1","properties":{"id":"osm-natural-river-a1093eb850dcd1","name":"Shiw-i Hawar Bag","kind":"natural","tier":"natural","priority":180,"context":"ڕووبار · راوندوز · هەولێر","category":"ڕووبار"},"geometry":{"type":"Point","coordinates":[44.82472,37.00778]}},{"type":"Feature","id":"osm-natural-river-7497670cc61ba6","properties":{"id":"osm-natural-river-7497670cc61ba6","name":"Shiw-i Spiyara","kind":"natural","tier":"natural","priority":180,"context":"ڕووبار · راوندوز · هەولێر","category":"ڕووبار"},"geometry":{"type":"Point","coordinates":[44.75167,37.07583]}},{"type":"Feature","id":"osm-natural-peak-45c1213c45c392","properties":{"id":"osm-natural-peak-45c1213c45c392","name":"قمة بيروك","kind":"natural","tier":"natural","priority":180,"context":"لوتکە · راوندوز · هەولێر","category":"لوتکە"},"geometry":{"type":"Point","coordinates":[44.84829,37.0395]}},{"type":"Feature","id":"osm-natural-peak-558ad34e426117","properties":{"id":"osm-natural-peak-558ad34e426117","name":"قمة جينوك ماهينوك","kind":"natural","tier":"natural","priority":180,"context":"لوتکە · راوندوز · هەولێر","category":"لوتکە"},"geometry":{"type":"Point","coordinates":[44.79324,37.03991]}},{"type":"Feature","id":"osm-natural-river-80857d4bb88c8e","properties":{"id":"osm-natural-river-80857d4bb88c8e","name":"وادي سورلوك","kind":"natural","tier":"natural","priority":180,"context":"ڕووبار · راوندوز · هەولێر","category":"ڕووبار"},"geometry":{"type":"Point","coordinates":[44.76694,37.0175]}},{"type":"Feature","id":"osm-natural-valley-7570e149e77d0a","properties":{"id":"osm-natural-valley-7570e149e77d0a","name":"وادي كاني كرم","kind":"natural","tier":"natural","priority":180,"context":"دۆڵ · راوندوز · هەولێر","category":"دۆڵ"},"geometry":{"type":"Point","coordinates":[44.8593,37.00287]}},{"type":"Feature","id":"osm-natural-river-6e7456d41fb2f2","properties":{"id":"osm-natural-river-6e7456d41fb2f2","name":"گادار چایی","kind":"natural","tier":"natural","priority":180,"context":"ڕووبار · راوندوز · هەولێر","category":"ڕووبار"},"geometry":{"type":"Point","coordinates":[44.7689443,37.1186828]}},{"type":"Feature","id":"osm-way-837858389-military","properties":{"id":"osm-way-837858389-military","name":"دژ مرزبانی","kind":"poi","tier":"poi_regional","priority":80.045,"context":"بنکەی سەربازی","category":"بنکەی سەربازی"},"geometry":{"type":"Point","coordinates":[44.9067676,37.0098449]}},{"type":"Feature","id":"osm-way-1499243923-residential","properties":{"id":"osm-way-1499243923-residential","name":"بێباد","kind":"poi","tier":"poi_local","priority":68.045,"context":"کۆمپاوندی نیشتەجێبوون","category":"کۆمپاوندی نیشتەجێبوون"},"geometry":{"type":"Point","coordinates":[44.8024558,37.0164412]}},{"type":"Feature","id":"osm-way-1497799207-residential","properties":{"id":"osm-way-1497799207-residential","name":"خنێرە","kind":"poi","tier":"poi_local","priority":68.045,"context":"کۆمپاوندی نیشتەجێبوون","category":"کۆمپاوندی نیشتەجێبوون"},"geometry":{"type":"Point","coordinates":[44.8533403,37.0065032]}},{"type":"Feature","id":"osm-way-1499280979-residential","properties":{"id":"osm-way-1499280979-residential","name":"سورتە","kind":"poi","tier":"poi_local","priority":68.045,"context":"کۆمپاوندی نیشتەجێبوون","category":"کۆمپاوندی نیشتەجێبوون"},"geometry":{"type":"Point","coordinates":[44.7698491,37.0240045]}},{"type":"Feature","id":"osm-way-1497800302-residential","properties":{"id":"osm-way-1497800302-residential","name":"کانی نێر","kind":"poi","tier":"poi_local","priority":68.045,"context":"کۆمپاوندی نیشتەجێبوون","category":"کۆمپاوندی نیشتەجێبوون"},"geometry":{"type":"Point","coordinates":[44.82609,37.0084281]}},{"type":"Feature","id":"osm-way-1499843624-residential","properties":{"id":"osm-way-1499843624-residential","name":"یالانە","kind":"poi","tier":"poi_local","priority":68.045,"context":"کۆمپاوندی نیشتەجێبوون","category":"کۆمپاوندی نیشتەجێبوون"},"geometry":{"type":"Point","coordinates":[44.8410327,37.0299249]}}]}