{"type":"FeatureCollection","features":[{"type":"Feature","id":"osm-node-13727145030","properties":{"id":"osm-node-13727145030","name":"باویا","kind":"village","tier":"locality","priority":300,"context":"ڕەواندز · هەولێر","category":"گوند"},"geometry":{"type":"Point","coordinates":[44.7602888,36.7908111]}},{"type":"Feature","id":"osm-node-11522986913","properties":{"id":"osm-node-11522986913","name":"بن پەرێزە","kind":"village","tier":"locality","priority":300,"context":"ڕەواندز · هەولێر","category":"گوند"},"geometry":{"type":"Point","coordinates":[44.7651516,36.8307794]}},{"type":"Feature","id":"geonames-8558625","properties":{"id":"geonames-8558625","name":"بنپەرێز","kind":"village","tier":"locality","priority":300,"context":"ڕەواندز · هەولێر","category":"گوند"},"geometry":{"type":"Point","coordinates":[44.76517,36.83067]}},{"type":"Feature","id":"osm-node-13727094981","properties":{"id":"osm-node-13727094981","name":"بڕەشکێن","kind":"village","tier":"locality","priority":300,"context":"ڕەواندز · هەولێر","category":"گوند"},"geometry":{"type":"Point","coordinates":[44.7811495,36.7692843]}},{"type":"Feature","id":"geonames-97607","properties":{"id":"geonames-97607","name":"بیرکمە","kind":"village","tier":"locality","priority":300,"context":"ڕەواندز · هەولێر","category":"گوند"},"geometry":{"type":"Point","coordinates":[44.7632,36.871]}},{"type":"Feature","id":"osm-node-13517911789","properties":{"id":"osm-node-13517911789","name":"بیرکمە","kind":"village","tier":"locality","priority":300,"context":"ڕەواندز · هەولێر","category":"گوند"},"geometry":{"type":"Point","coordinates":[44.7717683,36.8753687]}},{"type":"Feature","id":"osm-node-13718112705","properties":{"id":"osm-node-13718112705","name":"بێجوانا","kind":"village","tier":"locality","priority":300,"context":"ڕەواندز · هەولێر","category":"گوند"},"geometry":{"type":"Point","coordinates":[44.7548731,36.7555277]}},{"type":"Feature","id":"osm-node-13727128773","properties":{"id":"osm-node-13727128773","name":"بەربزین","kind":"village","tier":"locality","priority":300,"context":"ڕەواندز · هەولێر","category":"گوند"},"geometry":{"type":"Point","coordinates":[44.8169646,36.8569981]}},{"type":"Feature","id":"osm-node-13719638663","properties":{"id":"osm-node-13719638663","name":"بەنێ","kind":"village","tier":"locality","priority":300,"context":"ڕەواندز · هەولێر","category":"گوند"},"geometry":{"type":"Point","coordinates":[44.7536354,36.8277713]}},{"type":"Feature","id":"osm-node-13729281882","properties":{"id":"osm-node-13729281882","name":"خوار","kind":"village","tier":"locality","priority":300,"context":"ڕەواندز · هەولێر","category":"گوند"},"geometry":{"type":"Point","coordinates":[44.8168418,36.8664745]}},{"type":"Feature","id":"osm-node-13717374349","properties":{"id":"osm-node-13717374349","name":"دێما","kind":"village","tier":"locality","priority":300,"context":"ڕەواندز · هەولێر","category":"گوند"},"geometry":{"type":"Point","coordinates":[44.831679,36.9542073]}},{"type":"Feature","id":"osm-node-13729358181","properties":{"id":"osm-node-13729358181","name":"دێوین","kind":"village","tier":"locality","priority":300,"context":"ڕەواندز · هەولێر","category":"گوند"},"geometry":{"type":"Point","coordinates":[44.8531936,36.8753779]}},{"type":"Feature","id":"osm-node-13729344075","properties":{"id":"osm-node-13729344075","name":"دەرهۆڵ","kind":"village","tier":"locality","priority":300,"context":"ڕەواندز · هەولێر","category":"گوند"},"geometry":{"type":"Point","coordinates":[44.7917174,36.8308943]}},{"type":"Feature","id":"osm-node-13744441627","properties":{"id":"osm-node-13744441627","name":"سارداو","kind":"village","tier":"locality","priority":300,"context":"ڕەواندز · هەولێر","category":"گوند"},"geometry":{"type":"Point","coordinates":[44.7823901,36.9798791]}},{"type":"Feature","id":"osm-node-13717377648","properties":{"id":"osm-node-13717377648","name":"سالاریا","kind":"village","tier":"locality","priority":300,"context":"ڕەواندز · هەولێر","category":"گوند"},"geometry":{"type":"Point","coordinates":[44.8094714,36.9980939]}},{"type":"Feature","id":"osm-node-13720222634","properties":{"id":"osm-node-13720222634","name":"سنین","kind":"village","tier":"locality","priority":300,"context":"ڕەواندز · هەولێر","category":"گوند"},"geometry":{"type":"Point","coordinates":[44.7665462,36.899255]}},{"type":"Feature","id":"osm-node-13717374934","properties":{"id":"osm-node-13717374934","name":"سۆرەزەوی","kind":"village","tier":"locality","priority":300,"context":"ڕەواندز · هەولێر","category":"گوند"},"geometry":{"type":"Point","coordinates":[44.7712295,36.9681163]}},{"type":"Feature","id":"osm-node-13729596353","properties":{"id":"osm-node-13729596353","name":"شیوە سەقەر","kind":"village","tier":"locality","priority":300,"context":"ڕەواندز · هەولێر","category":"گوند"},"geometry":{"type":"Point","coordinates":[44.8698962,36.9334122]}},{"type":"Feature","id":"osm-node-13717325888","properties":{"id":"osm-node-13717325888","name":"لۆلان","kind":"village","tier":"locality","priority":300,"context":"ڕەواندز · هەولێر","category":"گوند"},"geometry":{"type":"Point","coordinates":[44.8018079,36.9588304]}},{"type":"Feature","id":"osm-node-13503660488","properties":{"id":"osm-node-13503660488","name":"ماڵەمەلا","kind":"village","tier":"locality","priority":300,"context":"ڕەواندز · هەولێر","category":"گوند"},"geometry":{"type":"Point","coordinates":[44.7629882,36.9631007]}},{"type":"Feature","id":"osm-node-13727145008","properties":{"id":"osm-node-13727145008","name":"مێرگەدوکان","kind":"village","tier":"locality","priority":300,"context":"ڕەواندز · هەولێر","category":"گوند"},"geometry":{"type":"Point","coordinates":[44.8558493,36.8820797]}},{"type":"Feature","id":"osm-node-13727142411","properties":{"id":"osm-node-13727142411","name":"مێرگەمیر","kind":"village","tier":"locality","priority":300,"context":"ڕەواندز · هەولێر","category":"گوند"},"geometry":{"type":"Point","coordinates":[44.8434262,36.8584662]}},{"type":"Feature","id":"geonames-92945","properties":{"id":"geonames-92945","name":"ناوچیا","kind":"village","tier":"locality","priority":300,"context":"ڕەواندز · هەولێر","category":"گوند"},"geometry":{"type":"Point","coordinates":[44.81196,36.97405]}},{"type":"Feature","id":"osm-node-13718141953","properties":{"id":"osm-node-13718141953","name":"هۆڕنێ","kind":"village","tier":"locality","priority":300,"context":"ڕەواندز · هەولێر","category":"گوند"},"geometry":{"type":"Point","coordinates":[44.7871237,36.7697382]}},{"type":"Feature","id":"geonames-446759","properties":{"id":"geonames-446759","name":"هێردن","kind":"village","tier":"locality","priority":300,"context":"ڕەواندز · هەولێر","category":"گوند"},"geometry":{"type":"Point","coordinates":[44.7516,36.80017]}},{"type":"Feature","id":"osm-node-13718473421","properties":{"id":"osm-node-13718473421","name":"هێردەن","kind":"village","tier":"locality","priority":300,"context":"ڕەواندز · هەولێر","category":"گوند"},"geometry":{"type":"Point","coordinates":[44.75133,36.8011773]}},{"type":"Feature","id":"osm-node-13717377637","properties":{"id":"osm-node-13717377637","name":"پیرکان","kind":"village","tier":"locality","priority":300,"context":"ڕەواندز · هەولێر","category":"گوند"},"geometry":{"type":"Point","coordinates":[44.7792955,36.9773654]}},{"type":"Feature","id":"osm-node-13717400464","properties":{"id":"osm-node-13717400464","name":"ڕووسۆر","kind":"village","tier":"locality","priority":300,"context":"ڕەواندز · هەولێر","category":"گوند"},"geometry":{"type":"Point","coordinates":[44.8178215,36.9564276]}},{"type":"Feature","id":"geonames-446853","properties":{"id":"geonames-446853","name":"ڕیشۆڵە","kind":"village","tier":"locality","priority":300,"context":"ڕەواندز · هەولێر","category":"گوند"},"geometry":{"type":"Point","coordinates":[44.80861,36.95833]}},{"type":"Feature","id":"osm-node-13732002156","properties":{"id":"osm-node-13732002156","name":"کولەک","kind":"village","tier":"locality","priority":300,"context":"ڕەواندز · هەولێر","category":"گوند"},"geometry":{"type":"Point","coordinates":[44.7668968,36.870247]}},{"type":"Feature","id":"geonames-93750","properties":{"id":"geonames-93750","name":"کێلە شین","kind":"village","tier":"locality","priority":300,"context":"ڕەواندز · هەولێر","category":"گوند"},"geometry":{"type":"Point","coordinates":[44.89811,36.91541]}},{"type":"Feature","id":"osm-node-13719660373","properties":{"id":"osm-node-13719660373","name":"کەتینە","kind":"village","tier":"locality","priority":300,"context":"ڕەواندز · هەولێر","category":"گوند"},"geometry":{"type":"Point","coordinates":[44.7702267,36.8323783]}},{"type":"Feature","id":"osm-node-2488199233","properties":{"id":"osm-node-2488199233","name":"ممر کیلە شین","kind":"locality","tier":"locality","priority":200,"context":"ڕەواندز · هەولێر","category":"شوێنی ناوخۆیی"},"geometry":{"type":"Point","coordinates":[44.902306,36.914308]}},{"type":"Feature","id":"osm-natural-mountain-9cc208cb00b862","properties":{"id":"osm-natural-mountain-9cc208cb00b862","name":"Barbazin Rowst","kind":"natural","tier":"natural","priority":180,"context":"شاخ · راوندوز · هەولێر","category":"شاخ"},"geometry":{"type":"Point","coordinates":[44.8105,36.8447]}},{"type":"Feature","id":"osm-natural-lake-0a2e7e63c3771f","properties":{"id":"osm-natural-lake-0a2e7e63c3771f","name":"Birm-e Dendaran","kind":"natural","tier":"natural","priority":180,"context":"دەریاچە · راوندوز · هەولێر","category":"دەریاچە"},"geometry":{"type":"Point","coordinates":[44.8568,36.8922]}},{"type":"Feature","id":"osm-natural-stream-e768709ec76c99","properties":{"id":"osm-natural-stream-e768709ec76c99","name":"Chem-i Zeydan","kind":"natural","tier":"natural","priority":180,"context":"جۆگە · راوندوز · هەولێر","category":"جۆگە"},"geometry":{"type":"Point","coordinates":[44.81091,36.8133]}},{"type":"Feature","id":"osm-natural-mountain-3036149f5ff0f8","properties":{"id":"osm-natural-mountain-3036149f5ff0f8","name":"Cheya-ye Bardajow","kind":"natural","tier":"natural","priority":180,"context":"شاخ · راوندوز · هەولێر","category":"شاخ"},"geometry":{"type":"Point","coordinates":[44.8811,36.8954]}},{"type":"Feature","id":"osm-natural-hill-ba1720bbd08ef1","properties":{"id":"osm-natural-hill-ba1720bbd08ef1","name":"Chiya-i Bardaspi","kind":"natural","tier":"natural","priority":180,"context":"گرد · راوندوز · هەولێر","category":"گرد"},"geometry":{"type":"Point","coordinates":[44.82056,36.96889]}},{"type":"Feature","id":"osm-natural-mountain-6aa6bd8f688bf4","properties":{"id":"osm-natural-mountain-6aa6bd8f688bf4","name":"Chiya-i Bardaspi","kind":"natural","tier":"natural","priority":180,"context":"شاخ · راوندوز · هەولێر","category":"شاخ"},"geometry":{"type":"Point","coordinates":[44.821,36.9696]}},{"type":"Feature","id":"osm-natural-mountain-6248cb577c3b46","properties":{"id":"osm-natural-mountain-6248cb577c3b46","name":"Chiya-i Bashmasha","kind":"natural","tier":"natural","priority":180,"context":"شاخ · راوندوز · هەولێر","category":"شاخ"},"geometry":{"type":"Point","coordinates":[44.7685,36.8816]}},{"type":"Feature","id":"osm-natural-mountain-c71e27a2031f1a","properties":{"id":"osm-natural-mountain-c71e27a2031f1a","name":"Chiya-i Dolmaydan","kind":"natural","tier":"natural","priority":180,"context":"شاخ · راوندوز · هەولێر","category":"شاخ"},"geometry":{"type":"Point","coordinates":[44.83806,36.84111]}},{"type":"Feature","id":"osm-natural-mountain-202b5a2aa9be72","properties":{"id":"osm-natural-mountain-202b5a2aa9be72","name":"Chiya-i Girdashuwan","kind":"natural","tier":"natural","priority":180,"context":"شاخ · راوندوز · هەولێر","category":"شاخ"},"geometry":{"type":"Point","coordinates":[44.77139,36.9175]}},{"type":"Feature","id":"osm-natural-mountain-c756d10f3363f7","properties":{"id":"osm-natural-mountain-c756d10f3363f7","name":"Chiya-i Kilarash","kind":"natural","tier":"natural","priority":180,"context":"شاخ · راوندوز · هەولێر","category":"شاخ"},"geometry":{"type":"Point","coordinates":[44.86333,36.95861]}},{"type":"Feature","id":"osm-natural-mountain-281330c7b0fb74","properties":{"id":"osm-natural-mountain-281330c7b0fb74","name":"Chiya-i Malgaman","kind":"natural","tier":"natural","priority":180,"context":"شاخ · راوندوز · هەولێر","category":"شاخ"},"geometry":{"type":"Point","coordinates":[44.7865,36.8927]}},{"type":"Feature","id":"osm-natural-mountain-c54c0bf8d9a026","properties":{"id":"osm-natural-mountain-c54c0bf8d9a026","name":"Chiya-i Rizabard","kind":"natural","tier":"natural","priority":180,"context":"شاخ · راوندوز · هەولێر","category":"شاخ"},"geometry":{"type":"Point","coordinates":[44.94639,36.7675]}},{"type":"Feature","id":"osm-natural-hill-b20935f9b25324","properties":{"id":"osm-natural-hill-b20935f9b25324","name":"Chiya-i Saruka","kind":"natural","tier":"natural","priority":180,"context":"گرد · راوندوز · هەولێر","category":"گرد"},"geometry":{"type":"Point","coordinates":[44.80139,36.91083]}},{"type":"Feature","id":"osm-natural-mountain-a4faa2ce72eb1f","properties":{"id":"osm-natural-mountain-a4faa2ce72eb1f","name":"Chiya-i Wema","kind":"natural","tier":"natural","priority":180,"context":"شاخ · راوندوز · هەولێر","category":"شاخ"},"geometry":{"type":"Point","coordinates":[44.84056,36.96694]}},{"type":"Feature","id":"osm-natural-valley-56864b3f37c8fe","properties":{"id":"osm-natural-valley-56864b3f37c8fe","name":"Dol-i Nawshiw","kind":"natural","tier":"natural","priority":180,"context":"دۆڵ · راوندوز · هەولێر","category":"دۆڵ"},"geometry":{"type":"Point","coordinates":[44.7507,36.9543]}},{"type":"Feature","id":"osm-natural-valley-21fafdff27afcc","properties":{"id":"osm-natural-valley-21fafdff27afcc","name":"Dol-i Shaykh Rash","kind":"natural","tier":"natural","priority":180,"context":"دۆڵ · راوندوز · هەولێر","category":"دۆڵ"},"geometry":{"type":"Point","coordinates":[44.76194,36.95722]}},{"type":"Feature","id":"osm-natural-river-26b8b90099cd7b","properties":{"id":"osm-natural-river-26b8b90099cd7b","name":"Gali Birkan","kind":"natural","tier":"natural","priority":180,"context":"ڕووبار · راوندوز · هەولێر","category":"ڕووبار"},"geometry":{"type":"Point","coordinates":[44.78306,36.98028]}},{"type":"Feature","id":"osm-natural-hill-c564143ed55ad1","properties":{"id":"osm-natural-hill-c564143ed55ad1","name":"Gerd-e Kermalowk","kind":"natural","tier":"natural","priority":180,"context":"گرد · راوندوز · هەولێر","category":"گرد"},"geometry":{"type":"Point","coordinates":[44.8218,36.9047]}},{"type":"Feature","id":"osm-natural-hill-4151d86f9d3b47","properties":{"id":"osm-natural-hill-4151d86f9d3b47","name":"Gerde san","kind":"natural","tier":"natural","priority":180,"context":"گرد · راوندوز · هەولێر","category":"گرد"},"geometry":{"type":"Point","coordinates":[44.8828,36.9213]}},{"type":"Feature","id":"osm-natural-hill-766a7dcfbc26bc","properties":{"id":"osm-natural-hill-766a7dcfbc26bc","name":"Gird-i Bazebardi","kind":"natural","tier":"natural","priority":180,"context":"گرد · راوندوز · هەولێر","category":"گرد"},"geometry":{"type":"Point","coordinates":[44.845,36.87639]}},{"type":"Feature","id":"osm-natural-mountain-59af3560cae87f","properties":{"id":"osm-natural-mountain-59af3560cae87f","name":"Gird-i Bazebardi","kind":"natural","tier":"natural","priority":180,"context":"شاخ · راوندوز · هەولێر","category":"شاخ"},"geometry":{"type":"Point","coordinates":[44.84528,36.88167]}},{"type":"Feature","id":"osm-natural-hill-c39322878033ab","properties":{"id":"osm-natural-hill-c39322878033ab","name":"Gird-i Hawabezhan","kind":"natural","tier":"natural","priority":180,"context":"گرد · راوندوز · هەولێر","category":"گرد"},"geometry":{"type":"Point","coordinates":[44.83806,36.91056]}},{"type":"Feature","id":"osm-natural-hill-db11c54b2b3994","properties":{"id":"osm-natural-hill-db11c54b2b3994","name":"Gird-i Lolaw","kind":"natural","tier":"natural","priority":180,"context":"گرد · راوندوز · هەولێر","category":"گرد"},"geometry":{"type":"Point","coordinates":[44.8078,36.8849]}},{"type":"Feature","id":"osm-natural-mountain-bf3c3ddd1784c4","properties":{"id":"osm-natural-mountain-bf3c3ddd1784c4","name":"Gird-i Lolaw","kind":"natural","tier":"natural","priority":180,"context":"شاخ · راوندوز · هەولێر","category":"شاخ"},"geometry":{"type":"Point","coordinates":[44.80639,36.8875]}},{"type":"Feature","id":"osm-natural-mountain-cf2a1cb9b73b05","properties":{"id":"osm-natural-mountain-cf2a1cb9b73b05","name":"Gird-i Matarez","kind":"natural","tier":"natural","priority":180,"context":"شاخ · راوندوز · هەولێر","category":"شاخ"},"geometry":{"type":"Point","coordinates":[44.79862,36.85979]}},{"type":"Feature","id":"osm-natural-hill-fd5f949c434c97","properties":{"id":"osm-natural-hill-fd5f949c434c97","name":"Gird-i Sinka","kind":"natural","tier":"natural","priority":180,"context":"گرد · راوندوز · هەولێر","category":"گرد"},"geometry":{"type":"Point","coordinates":[44.76444,36.85639]}},{"type":"Feature","id":"osm-natural-mountain-1034092a5473e0","properties":{"id":"osm-natural-mountain-1034092a5473e0","name":"Gird-i Sinka","kind":"natural","tier":"natural","priority":180,"context":"شاخ · راوندوز · هەولێر","category":"شاخ"},"geometry":{"type":"Point","coordinates":[44.75972,36.85722]}},{"type":"Feature","id":"osm-natural-hill-6413dd36140ad7","properties":{"id":"osm-natural-hill-6413dd36140ad7","name":"Gird-i Tirakhan","kind":"natural","tier":"natural","priority":180,"context":"گرد · راوندوز · هەولێر","category":"گرد"},"geometry":{"type":"Point","coordinates":[44.77111,36.93694]}},{"type":"Feature","id":"osm-natural-mountain-11652fae3e473c","properties":{"id":"osm-natural-mountain-11652fae3e473c","name":"Lut-i Mergamir","kind":"natural","tier":"natural","priority":180,"context":"شاخ · راوندوز · هەولێر","category":"شاخ"},"geometry":{"type":"Point","coordinates":[44.84222,36.85806]}},{"type":"Feature","id":"osm-natural-mountain-53c21eba88bd45","properties":{"id":"osm-natural-mountain-53c21eba88bd45","name":"Marqabali Dagh","kind":"natural","tier":"natural","priority":180,"context":"شاخ · راوندوز · هەولێر","category":"شاخ"},"geometry":{"type":"Point","coordinates":[44.86667,36.9]}},{"type":"Feature","id":"osm-natural-hill-8b23325aead25e","properties":{"id":"osm-natural-hill-8b23325aead25e","name":"Melah-e Kargozin","kind":"natural","tier":"natural","priority":180,"context":"گرد · راوندوز · هەولێر","category":"گرد"},"geometry":{"type":"Point","coordinates":[44.8711,36.9028]}},{"type":"Feature","id":"osm-natural-mountain-a8a270d3802f9c","properties":{"id":"osm-natural-mountain-a8a270d3802f9c","name":"Mila-i Kargozin","kind":"natural","tier":"natural","priority":180,"context":"شاخ · راوندوز · هەولێر","category":"شاخ"},"geometry":{"type":"Point","coordinates":[44.87167,36.89972]}},{"type":"Feature","id":"osm-natural-peak-89ea161b7a6456","properties":{"id":"osm-natural-peak-89ea161b7a6456","name":"Qimmat Biyukahrah","kind":"natural","tier":"natural","priority":180,"context":"لوتکە · راوندوز · هەولێر","category":"لوتکە"},"geometry":{"type":"Point","coordinates":[44.84434,36.92097]}},{"type":"Feature","id":"osm-natural-mountain-06fc08a4c2b64e","properties":{"id":"osm-natural-mountain-06fc08a4c2b64e","name":"Qoch-i Dolamaydan","kind":"natural","tier":"natural","priority":180,"context":"شاخ · راوندوز · هەولێر","category":"شاخ"},"geometry":{"type":"Point","coordinates":[44.84361,36.83167]}},{"type":"Feature","id":"osm-natural-peak-bbd90eb3f79bb8","properties":{"id":"osm-natural-peak-bbd90eb3f79bb8","name":"Qoch-i Kargozin","kind":"natural","tier":"natural","priority":180,"context":"لوتکە · راوندوز · هەولێر","category":"لوتکە"},"geometry":{"type":"Point","coordinates":[44.88806,36.89694]}},{"type":"Feature","id":"osm-natural-peak-22e0a8c85f61f3","properties":{"id":"osm-natural-peak-22e0a8c85f61f3","name":"Qosh-i Dolamaydan","kind":"natural","tier":"natural","priority":180,"context":"لوتکە · راوندوز · هەولێر","category":"لوتکە"},"geometry":{"type":"Point","coordinates":[44.84444,36.83306]}},{"type":"Feature","id":"osm-natural-stream-1792a4365a8654","properties":{"id":"osm-natural-stream-1792a4365a8654","name":"Rubar-i Lolan","kind":"natural","tier":"natural","priority":180,"context":"جۆگە · راوندوز · هەولێر","category":"جۆگە"},"geometry":{"type":"Point","coordinates":[44.80472,36.95833]}},{"type":"Feature","id":"osm-natural-peak-a40d3087a4588c","properties":{"id":"osm-natural-peak-a40d3087a4588c","name":"Sar-i Binibardi","kind":"natural","tier":"natural","priority":180,"context":"لوتکە · راوندوز · هەولێر","category":"لوتکە"},"geometry":{"type":"Point","coordinates":[44.82056,36.83361]}},{"type":"Feature","id":"osm-natural-hill-7d1556e2455372","properties":{"id":"osm-natural-hill-7d1556e2455372","name":"Sar-i Biwgara","kind":"natural","tier":"natural","priority":180,"context":"گرد · راوندوز · هەولێر","category":"گرد"},"geometry":{"type":"Point","coordinates":[44.85611,36.92028]}},{"type":"Feature","id":"osm-natural-peak-aec5fd01297222","properties":{"id":"osm-natural-peak-aec5fd01297222","name":"Sar-i Dolabarda","kind":"natural","tier":"natural","priority":180,"context":"لوتکە · راوندوز · هەولێر","category":"لوتکە"},"geometry":{"type":"Point","coordinates":[44.87639,36.95861]}},{"type":"Feature","id":"osm-natural-peak-10a70f75a6441e","properties":{"id":"osm-natural-peak-10a70f75a6441e","name":"Sar-i Garu-i Komi","kind":"natural","tier":"natural","priority":180,"context":"لوتکە · راوندوز · هەولێر","category":"لوتکە"},"geometry":{"type":"Point","coordinates":[44.78,36.94694]}},{"type":"Feature","id":"osm-natural-peak-153692bb0f70bf","properties":{"id":"osm-natural-peak-153692bb0f70bf","name":"Sar-i Gilasur","kind":"natural","tier":"natural","priority":180,"context":"لوتکە · راوندوز · هەولێر","category":"لوتکە"},"geometry":{"type":"Point","coordinates":[44.86528,36.98444]}},{"type":"Feature","id":"osm-natural-peak-24248048a3021d","properties":{"id":"osm-natural-peak-24248048a3021d","name":"Sar-i Hawar-i Mala Mustafa","kind":"natural","tier":"natural","priority":180,"context":"لوتکە · راوندوز · هەولێر","category":"لوتکە"},"geometry":{"type":"Point","coordinates":[44.86056,36.84639]}},{"type":"Feature","id":"osm-natural-mountain-f56234fce86e2f","properties":{"id":"osm-natural-mountain-f56234fce86e2f","name":"Sar-i Hawez","kind":"natural","tier":"natural","priority":180,"context":"شاخ · راوندوز · هەولێر","category":"شاخ"},"geometry":{"type":"Point","coordinates":[44.77167,36.79861]}},{"type":"Feature","id":"osm-natural-peak-0cd83f19424ad8","properties":{"id":"osm-natural-peak-0cd83f19424ad8","name":"Sar-i Kargozin","kind":"natural","tier":"natural","priority":180,"context":"لوتکە · راوندوز · هەولێر","category":"لوتکە"},"geometry":{"type":"Point","coordinates":[44.86618,36.90393]}},{"type":"Feature","id":"osm-natural-mountain-8d2a36aa7b5e38","properties":{"id":"osm-natural-mountain-8d2a36aa7b5e38","name":"Sar-i Khayat","kind":"natural","tier":"natural","priority":180,"context":"شاخ · راوندوز · هەولێر","category":"شاخ"},"geometry":{"type":"Point","coordinates":[44.76861,36.77944]}},{"type":"Feature","id":"osm-natural-peak-d87135faced8ab","properties":{"id":"osm-natural-peak-d87135faced8ab","name":"Sar-i Mila Sirwe","kind":"natural","tier":"natural","priority":180,"context":"لوتکە · راوندوز · هەولێر","category":"لوتکە"},"geometry":{"type":"Point","coordinates":[44.83806,36.81639]}},{"type":"Feature","id":"osm-natural-peak-70aa326c9e30da","properties":{"id":"osm-natural-peak-70aa326c9e30da","name":"Sar-i Mir Hamas","kind":"natural","tier":"natural","priority":180,"context":"لوتکە · راوندوز · هەولێر","category":"لوتکە"},"geometry":{"type":"Point","coordinates":[44.85028,36.975]}},{"type":"Feature","id":"osm-natural-mountain-61084347783864","properties":{"id":"osm-natural-mountain-61084347783864","name":"Sar-i Sagar","kind":"natural","tier":"natural","priority":180,"context":"شاخ · راوندوز · هەولێر","category":"شاخ"},"geometry":{"type":"Point","coordinates":[44.81611,36.80556]}},{"type":"Feature","id":"osm-natural-mountain-9e417471fe801d","properties":{"id":"osm-natural-mountain-9e417471fe801d","name":"Sar-i Satristan","kind":"natural","tier":"natural","priority":180,"context":"شاخ · راوندوز · هەولێر","category":"شاخ"},"geometry":{"type":"Point","coordinates":[44.82222,36.79472]}},{"type":"Feature","id":"osm-natural-peak-5ac4adc64d96be","properties":{"id":"osm-natural-peak-5ac4adc64d96be","name":"Sar-i Satristan","kind":"natural","tier":"natural","priority":180,"context":"لوتکە · راوندوز · هەولێر","category":"لوتکە"},"geometry":{"type":"Point","coordinates":[44.8241,36.7963]}},{"type":"Feature","id":"osm-natural-mountain-b7a9dd72a95a10","properties":{"id":"osm-natural-mountain-b7a9dd72a95a10","name":"Sar-i Shatra","kind":"natural","tier":"natural","priority":180,"context":"شاخ · راوندوز · هەولێر","category":"شاخ"},"geometry":{"type":"Point","coordinates":[44.87778,36.99028]}},{"type":"Feature","id":"osm-natural-peak-6965dac92b9921","properties":{"id":"osm-natural-peak-6965dac92b9921","name":"Sar-i Shatra","kind":"natural","tier":"natural","priority":180,"context":"لوتکە · راوندوز · هەولێر","category":"لوتکە"},"geometry":{"type":"Point","coordinates":[44.88135,36.9915]}},{"type":"Feature","id":"osm-natural-mountain-5c2d5da1b1537f","properties":{"id":"osm-natural-mountain-5c2d5da1b1537f","name":"Sar-i Zilak","kind":"natural","tier":"natural","priority":180,"context":"شاخ · راوندوز · هەولێر","category":"شاخ"},"geometry":{"type":"Point","coordinates":[44.75722,36.99917]}},{"type":"Feature","id":"osm-natural-peak-51020c0a2f7e7a","properties":{"id":"osm-natural-peak-51020c0a2f7e7a","name":"Sar-i Zilak","kind":"natural","tier":"natural","priority":180,"context":"لوتکە · راوندوز · هەولێر","category":"لوتکە"},"geometry":{"type":"Point","coordinates":[44.7638,36.9984]}},{"type":"Feature","id":"osm-natural-stream-f1d05c0985939e","properties":{"id":"osm-natural-stream-f1d05c0985939e","name":"Shiv-e Bespur","kind":"natural","tier":"natural","priority":180,"context":"جۆگە · راوندوز · هەولێر","category":"جۆگە"},"geometry":{"type":"Point","coordinates":[44.8092,36.9425]}},{"type":"Feature","id":"osm-natural-mountain-c6dc3cbc84f345","properties":{"id":"osm-natural-mountain-c6dc3cbc84f345","name":"Shiv-e Sivil","kind":"natural","tier":"natural","priority":180,"context":"شاخ · راوندوز · هەولێر","category":"شاخ"},"geometry":{"type":"Point","coordinates":[44.8592,36.9325]}},{"type":"Feature","id":"osm-natural-stream-d81a882de86885","properties":{"id":"osm-natural-stream-d81a882de86885","name":"Shiw-i Barazan","kind":"natural","tier":"natural","priority":180,"context":"جۆگە · راوندوز · هەولێر","category":"جۆگە"},"geometry":{"type":"Point","coordinates":[44.76972,36.87417]}},{"type":"Feature","id":"osm-natural-valley-33541f68f9880a","properties":{"id":"osm-natural-valley-33541f68f9880a","name":"Shiw-i Buamis","kind":"natural","tier":"natural","priority":180,"context":"دۆڵ · راوندوز · هەولێر","category":"دۆڵ"},"geometry":{"type":"Point","coordinates":[44.81222,36.86361]}},{"type":"Feature","id":"osm-natural-stream-fbede7c1d67275","properties":{"id":"osm-natural-stream-fbede7c1d67275","name":"Shiw-i Garrik","kind":"natural","tier":"natural","priority":180,"context":"جۆگە · راوندوز · هەولێر","category":"جۆگە"},"geometry":{"type":"Point","coordinates":[44.84722,36.91833]}},{"type":"Feature","id":"osm-natural-stream-d275a52f00feaa","properties":{"id":"osm-natural-stream-d275a52f00feaa","name":"Shiw-i San","kind":"natural","tier":"natural","priority":180,"context":"جۆگە · راوندوز · هەولێر","category":"جۆگە"},"geometry":{"type":"Point","coordinates":[44.88006,36.92013]}},{"type":"Feature","id":"osm-natural-valley-8394c5f261874b","properties":{"id":"osm-natural-valley-8394c5f261874b","name":"Wadi Kahrnik","kind":"natural","tier":"natural","priority":180,"context":"دۆڵ · راوندوز · هەولێر","category":"دۆڵ"},"geometry":{"type":"Point","coordinates":[44.81821,36.89885]}},{"type":"Feature","id":"osm-natural-valley-f5075ce66c4e6d","properties":{"id":"osm-natural-valley-f5075ce66c4e6d","name":"Wadi Shaykh Rahsh","kind":"natural","tier":"natural","priority":180,"context":"دۆڵ · راوندوز · هەولێر","category":"دۆڵ"},"geometry":{"type":"Point","coordinates":[44.76132,36.95702]}},{"type":"Feature","id":"osm-natural-lake-5a9cdfa0bdb56d","properties":{"id":"osm-natural-lake-5a9cdfa0bdb56d","name":"بێرمی دینداران","kind":"natural","tier":"natural","priority":180,"context":"دەریاچە · راوندوز · هەولێر","category":"دەریاچە"},"geometry":{"type":"Point","coordinates":[44.856433,36.8917144]}},{"type":"Feature","id":"osm-natural-valley-8b5a8edae3b90e","properties":{"id":"osm-natural-valley-8b5a8edae3b90e","name":"بێرکم","kind":"natural","tier":"natural","priority":180,"context":"دۆڵ · راوندوز · هەولێر","category":"دۆڵ"},"geometry":{"type":"Point","coordinates":[44.7637483,36.8714405]}},{"type":"Feature","id":"osm-natural-valley-81e705848e67a1","properties":{"id":"osm-natural-valley-81e705848e67a1","name":"بەنێ","kind":"natural","tier":"natural","priority":180,"context":"دۆڵ · راوندوز · هەولێر","category":"دۆڵ"},"geometry":{"type":"Point","coordinates":[44.7611133,36.8270094]}},{"type":"Feature","id":"osm-natural-hill-8a48aeef97f50f","properties":{"id":"osm-natural-hill-8a48aeef97f50f","name":"تل بيو","kind":"natural","tier":"natural","priority":180,"context":"گرد · راوندوز · هەولێر","category":"گرد"},"geometry":{"type":"Point","coordinates":[44.84114,36.92447]}},{"type":"Feature","id":"osm-natural-mountain-2772c85ff17a0b","properties":{"id":"osm-natural-mountain-2772c85ff17a0b","name":"تل قوجي لولان","kind":"natural","tier":"natural","priority":180,"context":"شاخ · راوندوز · هەولێر","category":"شاخ"},"geometry":{"type":"Point","coordinates":[44.7954,36.93877]}},{"type":"Feature","id":"osm-natural-hill-c9a56e874ba04d","properties":{"id":"osm-natural-hill-c9a56e874ba04d","name":"تل لوتي ميركة ماية","kind":"natural","tier":"natural","priority":180,"context":"گرد · راوندوز · هەولێر","category":"گرد"},"geometry":{"type":"Point","coordinates":[44.8635,36.85973]}},{"type":"Feature","id":"osm-natural-hill-159501bbf99ace","properties":{"id":"osm-natural-hill-159501bbf99ace","name":"تل هواء بيراء","kind":"natural","tier":"natural","priority":180,"context":"گرد · راوندوز · هەولێر","category":"گرد"},"geometry":{"type":"Point","coordinates":[44.84539,36.9103]}},{"type":"Feature","id":"osm-natural-hill-66c1cfec006da7","properties":{"id":"osm-natural-hill-66c1cfec006da7","name":"سر حويز","kind":"natural","tier":"natural","priority":180,"context":"گرد · راوندوز · هەولێر","category":"گرد"},"geometry":{"type":"Point","coordinates":[44.76785,36.7993]}},{"type":"Feature","id":"osm-natural-mountain-6825a56a80df48","properties":{"id":"osm-natural-mountain-6825a56a80df48","name":"سلاسل حصاروست","kind":"natural","tier":"natural","priority":180,"context":"شاخ · راوندوز · هەولێر","category":"شاخ"},"geometry":{"type":"Point","coordinates":[44.82146,36.79391]}},{"type":"Feature","id":"osm-natural-peak-e5913894252fec","properties":{"id":"osm-natural-peak-e5913894252fec","name":"قمة بردة رش","kind":"natural","tier":"natural","priority":180,"context":"لوتکە · راوندوز · هەولێر","category":"لوتکە"},"geometry":{"type":"Point","coordinates":[44.86277,36.76885]}},{"type":"Feature","id":"osm-natural-peak-dc0618694939ae","properties":{"id":"osm-natural-peak-dc0618694939ae","name":"قمة جبل كرد نويل","kind":"natural","tier":"natural","priority":180,"context":"لوتکە · راوندوز · هەولێر","category":"لوتکە"},"geometry":{"type":"Point","coordinates":[44.89241,36.93194]}},{"type":"Feature","id":"osm-natural-peak-d6e3d6ff957fef","properties":{"id":"osm-natural-peak-d6e3d6ff957fef","name":"قمة جبل كوه شوان","kind":"natural","tier":"natural","priority":180,"context":"لوتکە · راوندوز · هەولێر","category":"لوتکە"},"geometry":{"type":"Point","coordinates":[44.7708,36.91748]}},{"type":"Feature","id":"osm-natural-peak-c05e38e69b4774","properties":{"id":"osm-natural-peak-c05e38e69b4774","name":"قمة ختياط","kind":"natural","tier":"natural","priority":180,"context":"لوتکە · راوندوز · هەولێر","category":"لوتکە"},"geometry":{"type":"Point","coordinates":[44.77666,36.77723]}},{"type":"Feature","id":"osm-natural-peak-db1360dfaa736f","properties":{"id":"osm-natural-peak-db1360dfaa736f","name":"قمة دولة ميدان","kind":"natural","tier":"natural","priority":180,"context":"لوتکە · راوندوز · هەولێر","category":"لوتکە"},"geometry":{"type":"Point","coordinates":[44.84277,36.83279]}},{"type":"Feature","id":"osm-natural-peak-ad214b30e8e12a","properties":{"id":"osm-natural-peak-ad214b30e8e12a","name":"قمة سروكة","kind":"natural","tier":"natural","priority":180,"context":"لوتکە · راوندوز · هەولێر","category":"لوتکە"},"geometry":{"type":"Point","coordinates":[44.80703,36.91705]}},{"type":"Feature","id":"osm-natural-peak-09bd1233878546","properties":{"id":"osm-natural-peak-09bd1233878546","name":"قمة سري اجر","kind":"natural","tier":"natural","priority":180,"context":"لوتکە · راوندوز · هەولێر","category":"لوتکە"},"geometry":{"type":"Point","coordinates":[44.7556,36.85238]}},{"type":"Feature","id":"osm-natural-peak-1fdb677e441ef3","properties":{"id":"osm-natural-peak-1fdb677e441ef3","name":"قمة سياه كيو","kind":"natural","tier":"natural","priority":180,"context":"لوتکە · راوندوز · هەولێر","category":"لوتکە"},"geometry":{"type":"Point","coordinates":[44.89423,36.89137]}},{"type":"Feature","id":"osm-natural-peak-ec6e1406dc3928","properties":{"id":"osm-natural-peak-ec6e1406dc3928","name":"قمة صقر","kind":"natural","tier":"natural","priority":180,"context":"لوتکە · راوندوز · هەولێر","category":"لوتکە"},"geometry":{"type":"Point","coordinates":[44.80408,36.79458]}},{"type":"Feature","id":"osm-natural-peak-d43ff0c7835660","properties":{"id":"osm-natural-peak-d43ff0c7835660","name":"قمة غاله رش","kind":"natural","tier":"natural","priority":180,"context":"لوتکە · راوندوز · هەولێر","category":"لوتکە"},"geometry":{"type":"Point","coordinates":[44.8635,36.95918]}},{"type":"Feature","id":"osm-natural-peak-6fefc9445e1958","properties":{"id":"osm-natural-peak-6fefc9445e1958","name":"قمة كرخوت","kind":"natural","tier":"natural","priority":180,"context":"لوتکە · راوندوز · هەولێر","category":"لوتکە"},"geometry":{"type":"Point","coordinates":[44.77268,36.80848]}},{"type":"Feature","id":"osm-natural-peak-51f4984fc42448","properties":{"id":"osm-natural-peak-51f4984fc42448","name":"قمة كوري سنكة","kind":"natural","tier":"natural","priority":180,"context":"لوتکە · راوندوز · هەولێر","category":"لوتکە"},"geometry":{"type":"Point","coordinates":[44.76417,36.85449]}},{"type":"Feature","id":"osm-natural-peak-45d869f3bd368a","properties":{"id":"osm-natural-peak-45d869f3bd368a","name":"قمة ميركة بري","kind":"natural","tier":"natural","priority":180,"context":"لوتکە · راوندوز · هەولێر","category":"لوتکە"},"geometry":{"type":"Point","coordinates":[44.85479,36.90864]}},{"type":"Feature","id":"osm-natural-peak-945ca9fc520a1d","properties":{"id":"osm-natural-peak-945ca9fc520a1d","name":"قمة هزدع","kind":"natural","tier":"natural","priority":180,"context":"لوتکە · راوندوز · هەولێر","category":"لوتکە"},"geometry":{"type":"Point","coordinates":[44.83846,36.93285]}},{"type":"Feature","id":"osm-natural-valley-d07d6720985037","properties":{"id":"osm-natural-valley-d07d6720985037","name":"وادي بني بردي","kind":"natural","tier":"natural","priority":180,"context":"دۆڵ · راوندوز · هەولێر","category":"دۆڵ"},"geometry":{"type":"Point","coordinates":[44.88041,36.91939]}},{"type":"Feature","id":"osm-natural-stream-2e9d6a34aa90af","properties":{"id":"osm-natural-stream-2e9d6a34aa90af","name":"وادي بيرةمسة","kind":"natural","tier":"natural","priority":180,"context":"جۆگە · راوندوز · هەولێر","category":"جۆگە"},"geometry":{"type":"Point","coordinates":[44.81147,36.88285]}},{"type":"Feature","id":"osm-natural-valley-19eb216dc3ba88","properties":{"id":"osm-natural-valley-19eb216dc3ba88","name":"وادي بيركان","kind":"natural","tier":"natural","priority":180,"context":"دۆڵ · راوندوز · هەولێر","category":"دۆڵ"},"geometry":{"type":"Point","coordinates":[44.78303,36.97996]}},{"type":"Feature","id":"osm-natural-valley-336f51e4fbca54","properties":{"id":"osm-natural-valley-336f51e4fbca54","name":"وادي خبره","kind":"natural","tier":"natural","priority":180,"context":"دۆڵ · راوندوز · هەولێر","category":"دۆڵ"},"geometry":{"type":"Point","coordinates":[44.78347,36.98024]}},{"type":"Feature","id":"osm-natural-stream-61d145efbe0426","properties":{"id":"osm-natural-stream-61d145efbe0426","name":"وادي خنير","kind":"natural","tier":"natural","priority":180,"context":"جۆگە · راوندوز · هەولێر","category":"جۆگە"},"geometry":{"type":"Point","coordinates":[44.81717,36.9999]}},{"type":"Feature","id":"osm-natural-valley-15eb2ce4e2ae83","properties":{"id":"osm-natural-valley-15eb2ce4e2ae83","name":"وادي خوار","kind":"natural","tier":"natural","priority":180,"context":"دۆڵ · راوندوز · هەولێر","category":"دۆڵ"},"geometry":{"type":"Point","coordinates":[44.80132,36.87623]}},{"type":"Feature","id":"osm-natural-valley-4ac9e80ba05066","properties":{"id":"osm-natural-valley-4ac9e80ba05066","name":"وادي ديمة","kind":"natural","tier":"natural","priority":180,"context":"دۆڵ · راوندوز · هەولێر","category":"دۆڵ"},"geometry":{"type":"Point","coordinates":[44.8509,36.94631]}},{"type":"Feature","id":"osm-natural-valley-13ba0634515146","properties":{"id":"osm-natural-valley-13ba0634515146","name":"وادي رازان","kind":"natural","tier":"natural","priority":180,"context":"دۆڵ · راوندوز · هەولێر","category":"دۆڵ"},"geometry":{"type":"Point","coordinates":[44.76983,36.87421]}},{"type":"Feature","id":"osm-natural-valley-e7e6bc6bc75b33","properties":{"id":"osm-natural-valley-e7e6bc6bc75b33","name":"وادي سئول","kind":"natural","tier":"natural","priority":180,"context":"دۆڵ · راوندوز · هەولێر","category":"دۆڵ"},"geometry":{"type":"Point","coordinates":[44.86414,36.93211]}},{"type":"Feature","id":"osm-natural-valley-ba1ddf7178aaaa","properties":{"id":"osm-natural-valley-ba1ddf7178aaaa","name":"وادي سور","kind":"natural","tier":"natural","priority":180,"context":"دۆڵ · راوندوز · هەولێر","category":"دۆڵ"},"geometry":{"type":"Point","coordinates":[44.8053,36.95797]}},{"type":"Feature","id":"osm-natural-valley-b2a3fc4c976963","properties":{"id":"osm-natural-valley-b2a3fc4c976963","name":"وادي صقر","kind":"natural","tier":"natural","priority":180,"context":"دۆڵ · راوندوز · هەولێر","category":"دۆڵ"},"geometry":{"type":"Point","coordinates":[44.86621,36.9351]}},{"type":"Feature","id":"osm-natural-valley-0b1cacc4ace7e5","properties":{"id":"osm-natural-valley-0b1cacc4ace7e5","name":"وادي قونجرو","kind":"natural","tier":"natural","priority":180,"context":"دۆڵ · راوندوز · هەولێر","category":"دۆڵ"},"geometry":{"type":"Point","coordinates":[44.78657,36.87394]}},{"type":"Feature","id":"osm-natural-valley-67bfe24e5920cd","properties":{"id":"osm-natural-valley-67bfe24e5920cd","name":"وادي كلي كوزة خزال","kind":"natural","tier":"natural","priority":180,"context":"دۆڵ · راوندوز · هەولێر","category":"دۆڵ"},"geometry":{"type":"Point","coordinates":[44.80465,36.99747]}},{"type":"Feature","id":"osm-natural-valley-0ea2bf9f472e82","properties":{"id":"osm-natural-valley-0ea2bf9f472e82","name":"وادي لولان","kind":"natural","tier":"natural","priority":180,"context":"دۆڵ · راوندوز · هەولێر","category":"دۆڵ"},"geometry":{"type":"Point","coordinates":[44.77247,36.96]}},{"type":"Feature","id":"osm-natural-valley-a3fa5e6f5eeddd","properties":{"id":"osm-natural-valley-a3fa5e6f5eeddd","name":"وادي ميركة مير","kind":"natural","tier":"natural","priority":180,"context":"دۆڵ · راوندوز · هەولێر","category":"دۆڵ"},"geometry":{"type":"Point","coordinates":[44.80082,36.87485]}},{"type":"Feature","id":"osm-natural-valley-67c90112a4e68a","properties":{"id":"osm-natural-valley-67c90112a4e68a","name":"وادي هوار بالول","kind":"natural","tier":"natural","priority":180,"context":"دۆڵ · راوندوز · هەولێر","category":"دۆڵ"},"geometry":{"type":"Point","coordinates":[44.85015,36.94592]}},{"type":"Feature","id":"osm-natural-lake-abf33f2beb40e3","properties":{"id":"osm-natural-lake-abf33f2beb40e3","name":"گۆمی بێرمە سارد ٢","kind":"natural","tier":"natural","priority":180,"context":"دەریاچە · راوندوز · هەولێر","category":"دەریاچە"},"geometry":{"type":"Point","coordinates":[44.8539014,36.757635]}},{"type":"Feature","id":"osm-natural-lake-f8ff0e854cf85a","properties":{"id":"osm-natural-lake-f8ff0e854cf85a","name":"گۆمی بێرمەسارد","kind":"natural","tier":"natural","priority":180,"context":"دەریاچە · راوندوز · هەولێر","category":"دەریاچە"},"geometry":{"type":"Point","coordinates":[44.8486003,36.752434]}},{"type":"Feature","id":"osm-way-1498984924-residential","properties":{"id":"osm-way-1498984924-residential","name":"باویا","kind":"poi","tier":"poi_local","priority":68.045,"context":"کۆمپاوندی نیشتەجێبوون","category":"کۆمپاوندی نیشتەجێبوون"},"geometry":{"type":"Point","coordinates":[44.7602459,36.7908541]}},{"type":"Feature","id":"osm-way-878055339-residential","properties":{"id":"osm-way-878055339-residential","name":"بن پەرێزە","kind":"poi","tier":"poi_local","priority":68.045,"context":"کۆمپاوندی نیشتەجێبوون","category":"کۆمپاوندی نیشتەجێبوون"},"geometry":{"type":"Point","coordinates":[44.7650668,36.8307561]}},{"type":"Feature","id":"osm-way-872214781-residential","properties":{"id":"osm-way-872214781-residential","name":"بولی","kind":"poi","tier":"poi_local","priority":68.045,"context":"کۆمپاوندی نیشتەجێبوون","category":"کۆمپاوندی نیشتەجێبوون"},"geometry":{"type":"Point","coordinates":[44.7558457,36.7698049]}},{"type":"Feature","id":"osm-way-1498981399-residential","properties":{"id":"osm-way-1498981399-residential","name":"بڕەشکێن","kind":"poi","tier":"poi_local","priority":68.045,"context":"کۆمپاوندی نیشتەجێبوون","category":"کۆمپاوندی نیشتەجێبوون"},"geometry":{"type":"Point","coordinates":[44.7813671,36.7692599]}},{"type":"Feature","id":"osm-way-1473438983-residential","properties":{"id":"osm-way-1473438983-residential","name":"بیرکمە","kind":"poi","tier":"poi_local","priority":68.045,"context":"کۆمپاوندی نیشتەجێبوون","category":"کۆمپاوندی نیشتەجێبوون"},"geometry":{"type":"Point","coordinates":[44.772067,36.8754159]}},{"type":"Feature","id":"osm-way-1497878678-residential","properties":{"id":"osm-way-1497878678-residential","name":"بێجوانا","kind":"poi","tier":"poi_local","priority":68.045,"context":"کۆمپاوندی نیشتەجێبوون","category":"کۆمپاوندی نیشتەجێبوون"},"geometry":{"type":"Point","coordinates":[44.7549599,36.7556185]}},{"type":"Feature","id":"osm-way-1498983018-residential","properties":{"id":"osm-way-1498983018-residential","name":"بەربزین","kind":"poi","tier":"poi_local","priority":68.045,"context":"کۆمپاوندی نیشتەجێبوون","category":"کۆمپاوندی نیشتەجێبوون"},"geometry":{"type":"Point","coordinates":[44.8165719,36.856959]}},{"type":"Feature","id":"osm-way-1498077749-residential","properties":{"id":"osm-way-1498077749-residential","name":"بەنێ","kind":"poi","tier":"poi_local","priority":68.045,"context":"کۆمپاوندی نیشتەجێبوون","category":"کۆمپاوندی نیشتەجێبوون"},"geometry":{"type":"Point","coordinates":[44.7535806,36.8280881]}},{"type":"Feature","id":"osm-way-1499259871-residential","properties":{"id":"osm-way-1499259871-residential","name":"خوار","kind":"poi","tier":"poi_local","priority":68.045,"context":"کۆمپاوندی نیشتەجێبوون","category":"کۆمپاوندی نیشتەجێبوون"},"geometry":{"type":"Point","coordinates":[44.8167602,36.8663849]}},{"type":"Feature","id":"osm-way-1499263443-residential","properties":{"id":"osm-way-1499263443-residential","name":"دێوین","kind":"poi","tier":"poi_local","priority":68.045,"context":"کۆمپاوندی نیشتەجێبوون","category":"کۆمپاوندی نیشتەجێبوون"},"geometry":{"type":"Point","coordinates":[44.8531998,36.8753631]}},{"type":"Feature","id":"osm-way-1499262563-residential","properties":{"id":"osm-way-1499262563-residential","name":"دەرهۆڵ","kind":"poi","tier":"poi_local","priority":68.045,"context":"کۆمپاوندی نیشتەجێبوون","category":"کۆمپاوندی نیشتەجێبوون"},"geometry":{"type":"Point","coordinates":[44.7917026,36.8308911]}},{"type":"Feature","id":"osm-way-1501288223-residential","properties":{"id":"osm-way-1501288223-residential","name":"سارداو","kind":"poi","tier":"poi_local","priority":68.045,"context":"کۆمپاوندی نیشتەجێبوون","category":"کۆمپاوندی نیشتەجێبوون"},"geometry":{"type":"Point","coordinates":[44.7816858,36.9794381]}},{"type":"Feature","id":"osm-way-1497798488-residential","properties":{"id":"osm-way-1497798488-residential","name":"سالاریا","kind":"poi","tier":"poi_local","priority":68.045,"context":"کۆمپاوندی نیشتەجێبوون","category":"کۆمپاوندی نیشتەجێبوون"},"geometry":{"type":"Point","coordinates":[44.8093694,36.9980709]}},{"type":"Feature","id":"osm-way-1498137010-residential","properties":{"id":"osm-way-1498137010-residential","name":"سنین","kind":"poi","tier":"poi_local","priority":68.045,"context":"کۆمپاوندی نیشتەجێبوون","category":"کۆمپاوندی نیشتەجێبوون"},"geometry":{"type":"Point","coordinates":[44.7667967,36.8991642]}},{"type":"Feature","id":"osm-way-1497797827-residential","properties":{"id":"osm-way-1497797827-residential","name":"سۆرەزەوی","kind":"poi","tier":"poi_local","priority":68.045,"context":"کۆمپاوندی نیشتەجێبوون","category":"کۆمپاوندی نیشتەجێبوون"},"geometry":{"type":"Point","coordinates":[44.7710632,36.9681977]}},{"type":"Feature","id":"osm-way-1499288005-residential","properties":{"id":"osm-way-1499288005-residential","name":"شیوە سەقەر","kind":"poi","tier":"poi_local","priority":68.045,"context":"کۆمپاوندی نیشتەجێبوون","category":"کۆمپاوندی نیشتەجێبوون"},"geometry":{"type":"Point","coordinates":[44.8700467,36.9335197]}},{"type":"Feature","id":"osm-way-1497800593-residential","properties":{"id":"osm-way-1497800593-residential","name":"لۆلان","kind":"poi","tier":"poi_local","priority":68.045,"context":"کۆمپاوندی نیشتەجێبوون","category":"کۆمپاوندی نیشتەجێبوون"},"geometry":{"type":"Point","coordinates":[44.8017743,36.9589506]}},{"type":"Feature","id":"osm-way-1497797493-residential","properties":{"id":"osm-way-1497797493-residential","name":"ماڵەمەلا","kind":"poi","tier":"poi_local","priority":68.045,"context":"کۆمپاوندی نیشتەجێبوون","category":"کۆمپاوندی نیشتەجێبوون"},"geometry":{"type":"Point","coordinates":[44.7630961,36.9632856]}},{"type":"Feature","id":"osm-way-1498984051-residential","properties":{"id":"osm-way-1498984051-residential","name":"مێرگەدوکان","kind":"poi","tier":"poi_local","priority":68.045,"context":"کۆمپاوندی نیشتەجێبوون","category":"کۆمپاوندی نیشتەجێبوون"},"geometry":{"type":"Point","coordinates":[44.8559603,36.8820609]}},{"type":"Feature","id":"osm-way-1498983730-residential","properties":{"id":"osm-way-1498983730-residential","name":"مێرگەمیر","kind":"poi","tier":"poi_local","priority":68.045,"context":"کۆمپاوندی نیشتەجێبوون","category":"کۆمپاوندی نیشتەجێبوون"},"geometry":{"type":"Point","coordinates":[44.8434225,36.8585906]}},{"type":"Feature","id":"osm-way-1497885160-residential","properties":{"id":"osm-way-1497885160-residential","name":"هۆڕنێ","kind":"poi","tier":"poi_local","priority":68.045,"context":"کۆمپاوندی نیشتەجێبوون","category":"کۆمپاوندی نیشتەجێبوون"},"geometry":{"type":"Point","coordinates":[44.7871827,36.769647]}},{"type":"Feature","id":"osm-way-1497925084-residential","properties":{"id":"osm-way-1497925084-residential","name":"هێردەن","kind":"poi","tier":"poi_local","priority":68.045,"context":"کۆمپاوندی نیشتەجێبوون","category":"کۆمپاوندی نیشتەجێبوون"},"geometry":{"type":"Point","coordinates":[44.7516182,36.802024]}},{"type":"Feature","id":"osm-way-1501287741-residential","properties":{"id":"osm-way-1501287741-residential","name":"پیرکان","kind":"poi","tier":"poi_local","priority":68.045,"context":"کۆمپاوندی نیشتەجێبوون","category":"کۆمپاوندی نیشتەجێبوون"},"geometry":{"type":"Point","coordinates":[44.7793499,36.9774129]}},{"type":"Feature","id":"osm-way-1497800921-residential","properties":{"id":"osm-way-1497800921-residential","name":"ڕووسۆر","kind":"poi","tier":"poi_local","priority":68.045,"context":"کۆمپاوندی نیشتەجێبوون","category":"کۆمپاوندی نیشتەجێبوون"},"geometry":{"type":"Point","coordinates":[44.8179894,36.9562815]}},{"type":"Feature","id":"osm-way-1499572086-residential","properties":{"id":"osm-way-1499572086-residential","name":"کولەک","kind":"poi","tier":"poi_local","priority":68.045,"context":"کۆمپاوندی نیشتەجێبوون","category":"کۆمپاوندی نیشتەجێبوون"},"geometry":{"type":"Point","coordinates":[44.766877,36.8702515]}},{"type":"Feature","id":"osm-way-1498078520-residential","properties":{"id":"osm-way-1498078520-residential","name":"کەتینە","kind":"poi","tier":"poi_local","priority":68.045,"context":"کۆمپاوندی نیشتەجێبوون","category":"کۆمپاوندی نیشتەجێبوون"},"geometry":{"type":"Point","coordinates":[44.7702451,36.8324992]}},{"type":"Feature","id":"osm-node-7939514685-kindergarten","properties":{"id":"osm-node-7939514685-kindergarten","name":"زوب ئه رکان","kind":"poi","tier":"poi_detail","priority":50.1,"context":"باخچەی ساوایان","category":"باخچەی ساوایان"},"geometry":{"type":"Point","coordinates":[44.8095447,36.7571509]}},{"type":"Feature","id":"osm-node-2488203243-sports_centre","properties":{"id":"osm-node-2488203243-sports_centre","name":"مصیف کوجر","kind":"poi","tier":"poi_detail","priority":50.1,"context":"ناوەندی وەرزش","category":"ناوەندی وەرزش"},"geometry":{"type":"Point","coordinates":[44.887614,36.75495]}},{"type":"Feature","id":"osm-node-2488203244-sports_centre","properties":{"id":"osm-node-2488203244-sports_centre","name":"مصیف کوجر","kind":"poi","tier":"poi_detail","priority":50.1,"context":"ناوەندی وەرزش","category":"ناوەندی وەرزش"},"geometry":{"type":"Point","coordinates":[44.769243,36.758427]}},{"type":"Feature","id":"osm-way-976278045-helipad","properties":{"id":"osm-way-976278045-helipad","name":"محل فرود هلی کوپتر","kind":"poi","tier":"poi_detail","priority":50.088,"context":"فڕۆکەخانەی هێلیکۆپتەر","category":"فڕۆکەخانەی هێلیکۆپتەر"},"geometry":{"type":"Point","coordinates":[44.904236,36.884439]}}]}