{"type":"FeatureCollection","features":[{"type":"Feature","id":"osm-node-10312625493","properties":{"id":"osm-node-10312625493","name":"ئاوایی حەمکۆڵ","kind":"village","tier":"locality","priority":300,"context":"کفری · دیالە","category":"گوند"},"geometry":{"type":"Point","coordinates":[44.9035997,34.6773307]}},{"type":"Feature","id":"osm-node-2489322828","properties":{"id":"osm-node-2489322828","name":"زەرداو","kind":"village","tier":"locality","priority":300,"context":"کفری · دیالە","category":"گوند"},"geometry":{"type":"Point","coordinates":[44.9892454,34.5835071]}},{"type":"Feature","id":"osm-node-13854443885","properties":{"id":"osm-node-13854443885","name":"زەرداوی بچوک - ڕوخاو","kind":"village","tier":"locality","priority":300,"context":"کفری · دیالە","category":"گوند"},"geometry":{"type":"Point","coordinates":[44.9388134,34.5607885]}},{"type":"Feature","id":"osm-node-10720463716","properties":{"id":"osm-node-10720463716","name":"سەرچەم","kind":"village","tier":"locality","priority":300,"context":"کفری · دیالە","category":"گوند"},"geometry":{"type":"Point","coordinates":[44.9814942,34.6573526]}},{"type":"Feature","id":"osm-node-13822894505","properties":{"id":"osm-node-13822894505","name":"صفصافە","kind":"village","tier":"locality","priority":300,"context":"کفری · دیالە","category":"گوند"},"geometry":{"type":"Point","coordinates":[44.8900612,34.5048315]}},{"type":"Feature","id":"osm-node-10557564023","properties":{"id":"osm-node-10557564023","name":"قنگربان","kind":"village","tier":"locality","priority":300,"context":"کفری · دیالە","category":"گوند"},"geometry":{"type":"Point","coordinates":[44.8362181,34.7067871]}},{"type":"Feature","id":"osm-node-2488643071","properties":{"id":"osm-node-2488643071","name":"قنگربان","kind":"village","tier":"locality","priority":300,"context":"کفری · دیالە","category":"گوند"},"geometry":{"type":"Point","coordinates":[44.90271,34.673184]}},{"type":"Feature","id":"osm-node-2488643050","properties":{"id":"osm-node-2488643050","name":"کارێز مەجید پاشا","kind":"village","tier":"locality","priority":300,"context":"کفری · دیالە","category":"گوند"},"geometry":{"type":"Point","coordinates":[44.9198013,34.6567726]}},{"type":"Feature","id":"osm-node-9588871097","properties":{"id":"osm-node-9588871097","name":"گۆبان عارەب","kind":"village","tier":"locality","priority":300,"context":"کفری · دیالە","category":"گوند"},"geometry":{"type":"Point","coordinates":[44.9698029,34.7438117]}},{"type":"Feature","id":"osm-way-328683507","properties":{"id":"osm-way-328683507","name":"گۆبان عەرەب","kind":"village","tier":"locality","priority":300,"context":"کفری · دیالە","category":"گوند"},"geometry":{"type":"Point","coordinates":[44.970143572156545,34.742514]}},{"type":"Feature","id":"osm-node-2489322490","properties":{"id":"osm-node-2489322490","name":"چەم داوڵخانە","kind":"locality","tier":"locality","priority":200,"context":"کفری · دیالە","category":"شوێنی ناوخۆیی"},"geometry":{"type":"Point","coordinates":[44.9822932,34.63568]}},{"type":"Feature","id":"osm-node-2488643021","properties":{"id":"osm-node-2488643021","name":"چەم چەرمە","kind":"locality","tier":"locality","priority":200,"context":"کفری · دیالە","category":"شوێنی ناوخۆیی"},"geometry":{"type":"Point","coordinates":[44.933333,34.533333]}},{"type":"Feature","id":"osm-node-7235493867","properties":{"id":"osm-node-7235493867","name":"گەڕەکی نەورۆز","kind":"locality","tier":"locality","priority":200,"context":"کفری · دیالە","category":"شوێنی ناوخۆیی"},"geometry":{"type":"Point","coordinates":[44.9632391,34.688507]}},{"type":"Feature","id":"osm-natural-stream-f179a54d1f5825","properties":{"id":"osm-natural-stream-f179a54d1f5825","name":"Cham Dawlkhanah","kind":"natural","tier":"natural","priority":180,"context":"جۆگە · کفری · دیالە","category":"جۆگە"},"geometry":{"type":"Point","coordinates":[44.98333,34.63333]}},{"type":"Feature","id":"osm-natural-stream-9e1a4796606af6","properties":{"id":"osm-natural-stream-9e1a4796606af6","name":"Cham-i Chirma","kind":"natural","tier":"natural","priority":180,"context":"جۆگە · کفری · دیالە","category":"جۆگە"},"geometry":{"type":"Point","coordinates":[44.93333,34.53333]}},{"type":"Feature","id":"osm-natural-stream-29d0f3a060edcf","properties":{"id":"osm-natural-stream-29d0f3a060edcf","name":"Chaman Kupri","kind":"natural","tier":"natural","priority":180,"context":"جۆگە · کفری · دیالە","category":"جۆگە"},"geometry":{"type":"Point","coordinates":[44.93333,34.51667]}},{"type":"Feature","id":"osm-natural-hill-df622a08dd3a62","properties":{"id":"osm-natural-hill-df622a08dd3a62","name":"Kariz Tilishah","kind":"natural","tier":"natural","priority":180,"context":"گرد · کفری · دیالە","category":"گرد"},"geometry":{"type":"Point","coordinates":[44.95,34.66667]}},{"type":"Feature","id":"osm-natural-hill-0323d6b83ba5be","properties":{"id":"osm-natural-hill-0323d6b83ba5be","name":"Kifri Dagh","kind":"natural","tier":"natural","priority":180,"context":"گرد · کفری · دیالە","category":"گرد"},"geometry":{"type":"Point","coordinates":[44.91667,34.73333]}},{"type":"Feature","id":"osm-natural-water_well-17fe59e765a078","properties":{"id":"osm-natural-water_well-17fe59e765a078","name":"Kurah Chay","kind":"natural","tier":"natural","priority":180,"context":"بیری ئاو · کفری · دیالە","category":"بیری ئاو"},"geometry":{"type":"Point","coordinates":[44.85,34.73333]}},{"type":"Feature","id":"osm-natural-stream-ee1d94306d3024","properties":{"id":"osm-natural-stream-ee1d94306d3024","name":"Nahr Isma`il Bakr","kind":"natural","tier":"natural","priority":180,"context":"جۆگە · کفری · دیالە","category":"جۆگە"},"geometry":{"type":"Point","coordinates":[44.98333,34.73333]}},{"type":"Feature","id":"osm-natural-stream-3595391f143869","properties":{"id":"osm-natural-stream-3595391f143869","name":"Nahr as Salahiyah","kind":"natural","tier":"natural","priority":180,"context":"جۆگە · کفری · دیالە","category":"جۆگە"},"geometry":{"type":"Point","coordinates":[44.98333,34.65]}},{"type":"Feature","id":"osm-natural-stream-c6bea06f1f0c20","properties":{"id":"osm-natural-stream-c6bea06f1f0c20","name":"Quri Chay","kind":"natural","tier":"natural","priority":180,"context":"جۆگە · کفری · دیالە","category":"جۆگە"},"geometry":{"type":"Point","coordinates":[44.81329,34.65297]}},{"type":"Feature","id":"osm-natural-stream-9da78fd250c7e0","properties":{"id":"osm-natural-stream-9da78fd250c7e0","name":"Sar Cham","kind":"natural","tier":"natural","priority":180,"context":"جۆگە · کفری · دیالە","category":"جۆگە"},"geometry":{"type":"Point","coordinates":[44.95,34.53333]}},{"type":"Feature","id":"osm-natural-hill-307525b32699c7","properties":{"id":"osm-natural-hill-307525b32699c7","name":"Tall Waraq","kind":"natural","tier":"natural","priority":180,"context":"گرد · کفری · دیالە","category":"گرد"},"geometry":{"type":"Point","coordinates":[44.95,34.55]}},{"type":"Feature","id":"osm-natural-hill-2d1ca79afa7f63","properties":{"id":"osm-natural-hill-2d1ca79afa7f63","name":"Tappah Tilishan","kind":"natural","tier":"natural","priority":180,"context":"گرد · کفری · دیالە","category":"گرد"},"geometry":{"type":"Point","coordinates":[44.95,34.58333]}},{"type":"Feature","id":"osm-natural-valley-240f5a8ee0c081","properties":{"id":"osm-natural-valley-240f5a8ee0c081","name":"Wadi Chachal","kind":"natural","tier":"natural","priority":180,"context":"دۆڵ · کفری · دیالە","category":"دۆڵ"},"geometry":{"type":"Point","coordinates":[44.76533,34.52821]}},{"type":"Feature","id":"osm-natural-valley-da0975f3bb3f1b","properties":{"id":"osm-natural-valley-da0975f3bb3f1b","name":"Wadi Imam Chay","kind":"natural","tier":"natural","priority":180,"context":"دۆڵ · کفری · دیالە","category":"دۆڵ"},"geometry":{"type":"Point","coordinates":[44.99185,34.62466]}},{"type":"Feature","id":"osm-natural-valley-1ed2c9a73a5752","properties":{"id":"osm-natural-valley-1ed2c9a73a5752","name":"Wadi Kifri Chay","kind":"natural","tier":"natural","priority":180,"context":"دۆڵ · کفری · دیالە","category":"دۆڵ"},"geometry":{"type":"Point","coordinates":[44.94313,34.5354]}},{"type":"Feature","id":"osm-natural-valley-01bf94c4a9c826","properties":{"id":"osm-natural-valley-01bf94c4a9c826","name":"باخ ڕەش","kind":"natural","tier":"natural","priority":180,"context":"دۆڵ · کفری · دیالە","category":"دۆڵ"},"geometry":{"type":"Point","coordinates":[44.9734488,34.7299404]}},{"type":"Feature","id":"osm-natural-lake-b817280da1334b","properties":{"id":"osm-natural-lake-b817280da1334b","name":"باوە شاسوار","kind":"natural","tier":"natural","priority":180,"context":"دەریاچە · کفری · دیالە","category":"دەریاچە"},"geometry":{"type":"Point","coordinates":[44.9736873,34.7293048]}},{"type":"Feature","id":"osm-natural-reservoir-78b3052917911c","properties":{"id":"osm-natural-reservoir-78b3052917911c","name":"بەنداوی داوڵخانە","kind":"natural","tier":"natural","priority":180,"context":"بەنداوی ئاو · کفری · دیالە","category":"بەنداوی ئاو"},"geometry":{"type":"Point","coordinates":[44.9845472,34.6341956]}},{"type":"Feature","id":"osm-natural-mountain-01617eb2168577","properties":{"id":"osm-natural-mountain-01617eb2168577","name":"جبل كفري دارغ","kind":"natural","tier":"natural","priority":180,"context":"شاخ · کفری · دیالە","category":"شاخ"},"geometry":{"type":"Point","coordinates":[44.90972,34.73681]}},{"type":"Feature","id":"osm-natural-stream-d18d4d921d0147","properties":{"id":"osm-natural-stream-d18d4d921d0147","name":"جدول زرداو الكبير","kind":"natural","tier":"natural","priority":180,"context":"جۆگە · کفری · دیالە","category":"جۆگە"},"geometry":{"type":"Point","coordinates":[44.9877691,34.539329]}},{"type":"Feature","id":"osm-natural-river-a0903b07cb5934","properties":{"id":"osm-natural-river-a0903b07cb5934","name":"قوڕی چای","kind":"natural","tier":"natural","priority":180,"context":"ڕووبار · دووزخورماتوو · سەڵاحەدین","category":"ڕووبار"},"geometry":{"type":"Point","coordinates":[44.8430987,34.7419816]}},{"type":"Feature","id":"osm-natural-stream-37f1c628b999b8","properties":{"id":"osm-natural-stream-37f1c628b999b8","name":"نهر السده","kind":"natural","tier":"natural","priority":180,"context":"جۆگە · کفری · دیالە","category":"جۆگە"},"geometry":{"type":"Point","coordinates":[44.93627,34.67772]}},{"type":"Feature","id":"osm-natural-valley-11c2ef585cc2bc","properties":{"id":"osm-natural-valley-11c2ef585cc2bc","name":"وادي ابو زليله","kind":"natural","tier":"natural","priority":180,"context":"دۆڵ · کفری · دیالە","category":"دۆڵ"},"geometry":{"type":"Point","coordinates":[44.85568,34.60086]}},{"type":"Feature","id":"osm-natural-valley-6c9e6f742a52be","properties":{"id":"osm-natural-valley-6c9e6f742a52be","name":"وادي اشتوكان","kind":"natural","tier":"natural","priority":180,"context":"دۆڵ · کفری · دیالە","category":"دۆڵ"},"geometry":{"type":"Point","coordinates":[44.85519,34.60067]}},{"type":"Feature","id":"osm-natural-valley-f086a2a7084062","properties":{"id":"osm-natural-valley-f086a2a7084062","name":"وادي الثور","kind":"natural","tier":"natural","priority":180,"context":"دۆڵ · کفری · دیالە","category":"دۆڵ"},"geometry":{"type":"Point","coordinates":[44.94375,34.53509]}},{"type":"Feature","id":"osm-natural-valley-8c1cdbdd73c8c7","properties":{"id":"osm-natural-valley-8c1cdbdd73c8c7","name":"وادي الحديدين","kind":"natural","tier":"natural","priority":180,"context":"دۆڵ · کفری · دیالە","category":"دۆڵ"},"geometry":{"type":"Point","coordinates":[44.86907,34.67286]}},{"type":"Feature","id":"osm-natural-valley-69f4fe0a74d0d9","properties":{"id":"osm-natural-valley-69f4fe0a74d0d9","name":"وادي الشوك","kind":"natural","tier":"natural","priority":180,"context":"دۆڵ · کفری · دیالە","category":"دۆڵ"},"geometry":{"type":"Point","coordinates":[44.91777,34.5657]}},{"type":"Feature","id":"osm-natural-valley-aa20fa75853637","properties":{"id":"osm-natural-valley-aa20fa75853637","name":"وادي النوم","kind":"natural","tier":"natural","priority":180,"context":"دۆڵ · کفری · دیالە","category":"دۆڵ"},"geometry":{"type":"Point","coordinates":[44.83906,34.63572]}},{"type":"Feature","id":"osm-natural-valley-66e0ef26d8ff55","properties":{"id":"osm-natural-valley-66e0ef26d8ff55","name":"وادي بكراس","kind":"natural","tier":"natural","priority":180,"context":"دۆڵ · کفری · دیالە","category":"دۆڵ"},"geometry":{"type":"Point","coordinates":[44.97476,34.73015]}},{"type":"Feature","id":"osm-natural-valley-90997b6e228389","properties":{"id":"osm-natural-valley-90997b6e228389","name":"وادي تبة سور","kind":"natural","tier":"natural","priority":180,"context":"دۆڵ · کفری · دیالە","category":"دۆڵ"},"geometry":{"type":"Point","coordinates":[44.8593616,34.7181264]}},{"type":"Feature","id":"osm-natural-valley-51ad34092ca1c5","properties":{"id":"osm-natural-valley-51ad34092ca1c5","name":"وادي حسن آغه","kind":"natural","tier":"natural","priority":180,"context":"دۆڵ · کفری · دیالە","category":"دۆڵ"},"geometry":{"type":"Point","coordinates":[44.89593,34.65576]}},{"type":"Feature","id":"osm-natural-valley-a254c9959284cc","properties":{"id":"osm-natural-valley-a254c9959284cc","name":"وادي دباغة","kind":"natural","tier":"natural","priority":180,"context":"دۆڵ · کفری · دیالە","category":"دۆڵ"},"geometry":{"type":"Point","coordinates":[44.84681,34.64846]}},{"type":"Feature","id":"osm-natural-valley-04c671333c4d6d","properties":{"id":"osm-natural-valley-04c671333c4d6d","name":"وادي درعيه","kind":"natural","tier":"natural","priority":180,"context":"دۆڵ · کفری · دیالە","category":"دۆڵ"},"geometry":{"type":"Point","coordinates":[44.93299,34.61286]}},{"type":"Feature","id":"osm-natural-valley-37a15ed98630f2","properties":{"id":"osm-natural-valley-37a15ed98630f2","name":"وادي دوفركه","kind":"natural","tier":"natural","priority":180,"context":"دۆڵ · کفری · دیالە","category":"دۆڵ"},"geometry":{"type":"Point","coordinates":[44.86254,34.68183]}},{"type":"Feature","id":"osm-natural-valley-47fa953e1c2e93","properties":{"id":"osm-natural-valley-47fa953e1c2e93","name":"وادي سري كول","kind":"natural","tier":"natural","priority":180,"context":"دۆڵ · کفری · دیالە","category":"دۆڵ"},"geometry":{"type":"Point","coordinates":[44.83664,34.61563]}},{"type":"Feature","id":"osm-natural-valley-0a07de5d2d1810","properties":{"id":"osm-natural-valley-0a07de5d2d1810","name":"وادي سناجره","kind":"natural","tier":"natural","priority":180,"context":"دۆڵ · کفری · دیالە","category":"دۆڵ"},"geometry":{"type":"Point","coordinates":[44.91265,34.53351]}},{"type":"Feature","id":"osm-natural-valley-60d70e07e6d899","properties":{"id":"osm-natural-valley-60d70e07e6d899","name":"وادي سوارة","kind":"natural","tier":"natural","priority":180,"context":"دۆڵ · کفری · دیالە","category":"دۆڵ"},"geometry":{"type":"Point","coordinates":[44.936208,34.612426]}},{"type":"Feature","id":"osm-natural-valley-0e58e8c4b541eb","properties":{"id":"osm-natural-valley-0e58e8c4b541eb","name":"وادي سواره","kind":"natural","tier":"natural","priority":180,"context":"دۆڵ · کفری · دیالە","category":"دۆڵ"},"geometry":{"type":"Point","coordinates":[44.93702,34.61568]}},{"type":"Feature","id":"osm-natural-valley-f6a863c2aec98d","properties":{"id":"osm-natural-valley-f6a863c2aec98d","name":"وادي غزلان","kind":"natural","tier":"natural","priority":180,"context":"دۆڵ · کفری · دیالە","category":"دۆڵ"},"geometry":{"type":"Point","coordinates":[44.90491,34.53038]}},{"type":"Feature","id":"osm-natural-valley-a3cd1ef4155c34","properties":{"id":"osm-natural-valley-a3cd1ef4155c34","name":"وادي كوريان","kind":"natural","tier":"natural","priority":180,"context":"دۆڵ · کفری · دیالە","category":"دۆڵ"},"geometry":{"type":"Point","coordinates":[44.98418,34.59195]}},{"type":"Feature","id":"osm-natural-valley-d92434ea98841b","properties":{"id":"osm-natural-valley-d92434ea98841b","name":"وادي واسدور","kind":"natural","tier":"natural","priority":180,"context":"دۆڵ · کفری · دیالە","category":"دۆڵ"},"geometry":{"type":"Point","coordinates":[44.90622,34.64473]}},{"type":"Feature","id":"osm-natural-valley-2ad6503d6f7436","properties":{"id":"osm-natural-valley-2ad6503d6f7436","name":"وادي واشديوار","kind":"natural","tier":"natural","priority":180,"context":"دۆڵ · کفری · دیالە","category":"دۆڵ"},"geometry":{"type":"Point","coordinates":[44.91852,34.56609]}},{"type":"Feature","id":"osm-natural-stream-d9f775c10ab309","properties":{"id":"osm-natural-stream-d9f775c10ab309","name":"کارێز","kind":"natural","tier":"natural","priority":180,"context":"جۆگە · کفری · دیالە","category":"جۆگە"},"geometry":{"type":"Point","coordinates":[44.9513694,34.7058077]}},{"type":"Feature","id":"road-label-osm-way-910156105","properties":{"id":"road-label-osm-way-910156105","name":"شەقامی پشتێنەی کفری","kind":"road","tier":"road","priority":88,"context":"primary · کفری · دیالە","category":"ڕێگا"},"geometry":{"type":"Point","coordinates":[44.963287,34.672298]}},{"type":"Feature","id":"road-label-osm-way-260953569","properties":{"id":"road-label-osm-way-260953569","name":"دوار سرا","kind":"road","tier":"road","priority":72,"context":"secondary · کفری · دیالە","category":"ڕێگا"},"geometry":{"type":"Point","coordinates":[44.961597,34.695944]}},{"type":"Feature","id":"road-label-osm-way-773679333","properties":{"id":"road-label-osm-way-773679333","name":"شارع اللجنة","kind":"road","tier":"road","priority":72,"context":"secondary · کفری · دیالە","category":"ڕێگا"},"geometry":{"type":"Point","coordinates":[44.960708,34.687132]}},{"type":"Feature","id":"road-label-osm-way-323152216","properties":{"id":"road-label-osm-way-323152216","name":"شەقامی ئەنفال","kind":"road","tier":"road","priority":72,"context":"secondary · کفری · دیالە","category":"ڕێگا"},"geometry":{"type":"Point","coordinates":[44.964517,34.678817]}},{"type":"Feature","id":"road-label-osm-way-773678233","properties":{"id":"road-label-osm-way-773678233","name":"شەقامی کۆمیتە","kind":"road","tier":"road","priority":72,"context":"secondary · کفری · دیالە","category":"ڕێگا"},"geometry":{"type":"Point","coordinates":[44.961832,34.686612]}},{"type":"Feature","id":"road-label-osm-way-1268328579","properties":{"id":"road-label-osm-way-1268328579","name":"ڕیگای کەلار کفری","kind":"road","tier":"road","priority":72,"context":"secondary · کفری · دیالە","category":"ڕێگا"},"geometry":{"type":"Point","coordinates":[44.967785,34.684946]}},{"type":"Feature","id":"road-label-osm-way-332665393","properties":{"id":"road-label-osm-way-332665393","name":"ڕێگای کفری - دوز خورماتوو","kind":"road","tier":"road","priority":72,"context":"secondary · کفری · دیالە","category":"ڕێگا"},"geometry":{"type":"Point","coordinates":[44.954323,34.683195]}},{"type":"Feature","id":"road-label-osm-way-773678232","properties":{"id":"road-label-osm-way-773678232","name":"ڕێگای کەلار - کفری","kind":"road","tier":"road","priority":72,"context":"secondary · کفری · دیالە","category":"ڕێگا"},"geometry":{"type":"Point","coordinates":[44.967853,34.685052]}},{"type":"Feature","id":"osm-node-4622373294-hospital","properties":{"id":"osm-node-4622373294-hospital","name":"مرکز طبی الترکمانی","kind":"poi","tier":"poi_landmark","priority":95.1,"context":"نەخۆشخانە","category":"نەخۆشخانە"},"geometry":{"type":"Point","coordinates":[44.9607018,34.6961228]}},{"type":"Feature","id":"osm-node-4682298990-hospital","properties":{"id":"osm-node-4682298990-hospital","name":"مستشفی الترکمانی","kind":"poi","tier":"poi_landmark","priority":95.1,"context":"نەخۆشخانە","category":"نەخۆشخانە"},"geometry":{"type":"Point","coordinates":[44.9606828,34.6960732]}},{"type":"Feature","id":"osm-way-1084397611-hospital","properties":{"id":"osm-way-1084397611-hospital","name":"نەخۆشخانەی شەهید خالد گەرمیانی","kind":"poi","tier":"poi_landmark","priority":95.092,"context":"نەخۆشخانە","category":"نەخۆشخانە"},"geometry":{"type":"Point","coordinates":[44.9586377,34.6879276]}},{"type":"Feature","id":"osm-node-13856316081-university","properties":{"id":"osm-node-13856316081-university","name":"پەیمانگای بەهرە","kind":"poi","tier":"poi_landmark","priority":94.1,"context":"زانکۆ","category":"زانکۆ"},"geometry":{"type":"Point","coordinates":[44.9897326,34.6792208]}},{"type":"Feature","id":"osm-way-1106018715-bank","properties":{"id":"osm-way-1106018715-bank","name":"بانک","kind":"poi","tier":"poi_landmark","priority":92.092,"context":"بانک","category":"بانک"},"geometry":{"type":"Point","coordinates":[44.9656276,34.6859057]}},{"type":"Feature","id":"osm-way-1327895020-stadium","properties":{"id":"osm-way-1327895020-stadium","name":"یاریگای باوەشاسوار","kind":"poi","tier":"poi_regional","priority":76.092,"context":"یاریگا","category":"یاریگا"},"geometry":{"type":"Point","coordinates":[44.9548329,34.6905047]}},{"type":"Feature","id":"osm-node-13293389701-attraction","properties":{"id":"osm-node-13293389701-attraction","name":"ماڵی لوند ستلایت","kind":"poi","tier":"poi_detail","priority":50.1,"context":"شوێنی گەشتیاری","category":"شوێنی گەشتیاری"},"geometry":{"type":"Point","coordinates":[44.966545,34.6945333]}},{"type":"Feature","id":"osm-node-4664908097-college","properties":{"id":"osm-node-4664908097-college","name":"کۆلێژی کشتوکاڵی کفری","kind":"poi","tier":"poi_detail","priority":50.1,"context":"کۆلێژ","category":"کۆلێژ"},"geometry":{"type":"Point","coordinates":[44.9581159,34.6919809]}},{"type":"Feature","id":"osm-way-1344623264-college","properties":{"id":"osm-way-1344623264-college","name":"کۆلێجی تەکنیکی کفری","kind":"poi","tier":"poi_detail","priority":50.092,"context":"کۆلێژ","category":"کۆلێژ"},"geometry":{"type":"Point","coordinates":[44.9577856,34.6915281]}},{"type":"Feature","id":"osm-node-4485653393-fuel","properties":{"id":"osm-node-4485653393-fuel","name":"بانزین خانه","kind":"poi","tier":"poi_regional","priority":82.094,"context":"وێستگەی سووتەمەنی","category":"وێستگەی سووتەمەنی"},"geometry":{"type":"Point","coordinates":[44.9580159,34.6861403]}},{"type":"Feature","id":"osm-node-8285962617-fuel","properties":{"id":"osm-node-8285962617-fuel","name":"به نزین خانه ی شار","kind":"poi","tier":"poi_regional","priority":82.094,"context":"وێستگەی سووتەمەنی","category":"وێستگەی سووتەمەنی"},"geometry":{"type":"Point","coordinates":[44.9607647,34.6730844]}},{"type":"Feature","id":"osm-way-1516365443-fuel","properties":{"id":"osm-way-1516365443-fuel","name":"تل منزل","kind":"poi","tier":"poi_regional","priority":82.086,"context":"وێستگەی سووتەمەنی","category":"وێستگەی سووتەمەنی"},"geometry":{"type":"Point","coordinates":[44.7668874,34.7450116]}},{"type":"Feature","id":"osm-way-328591742-fuel","properties":{"id":"osm-way-328591742-fuel","name":"محطە وقود","kind":"poi","tier":"poi_regional","priority":82.086,"context":"وێستگەی سووتەمەنی","category":"وێستگەی سووتەمەنی"},"geometry":{"type":"Point","coordinates":[44.9928541,34.6782576]}},{"type":"Feature","id":"osm-node-4759556862-bus_station","properties":{"id":"osm-node-4759556862-bus_station","name":"گهراجی کفری","kind":"poi","tier":"poi_regional","priority":80.096,"context":"وێستگەی پاس","category":"وێستگەی پاس"},"geometry":{"type":"Point","coordinates":[44.9593832,34.6884061]}},{"type":"Feature","id":"osm-node-4485653494-police","properties":{"id":"osm-node-4485653494-police","name":"دارستان بولیس","kind":"poi","tier":"poi_regional","priority":77.1,"context":"بنکەی پۆلیس","category":"بنکەی پۆلیس"},"geometry":{"type":"Point","coordinates":[44.9556591,34.6927317]}},{"type":"Feature","id":"osm-node-4485653501-police","properties":{"id":"osm-node-4485653501-police","name":"شرطە المرور","kind":"poi","tier":"poi_regional","priority":77.1,"context":"بنکەی پۆلیس","category":"بنکەی پۆلیس"},"geometry":{"type":"Point","coordinates":[44.9566698,34.6942868]}},{"type":"Feature","id":"osm-node-4622413589-police","properties":{"id":"osm-node-4622413589-police","name":"مرکز شرطە کفری","kind":"poi","tier":"poi_regional","priority":77.1,"context":"بنکەی پۆلیس","category":"بنکەی پۆلیس"},"geometry":{"type":"Point","coordinates":[44.9591138,34.695261]}},{"type":"Feature","id":"osm-way-1084392216-police","properties":{"id":"osm-way-1084392216-police","name":"بنکەی پۆلیس","kind":"poi","tier":"poi_regional","priority":77.092,"context":"بنکەی پۆلیس","category":"بنکەی پۆلیس"},"geometry":{"type":"Point","coordinates":[44.9525134,34.6834793]}},{"type":"Feature","id":"osm-way-1217714047-residential","properties":{"id":"osm-way-1217714047-residential","name":"سەرچەم","kind":"poi","tier":"poi_local","priority":68.045,"context":"کۆمپاوندی نیشتەجێبوون","category":"کۆمپاوندی نیشتەجێبوون"},"geometry":{"type":"Point","coordinates":[44.9813209,34.6570261]}},{"type":"Feature","id":"osm-way-321550332-residential","properties":{"id":"osm-way-321550332-residential","name":"قریە فکە","kind":"poi","tier":"poi_local","priority":68.045,"context":"کۆمپاوندی نیشتەجێبوون","category":"کۆمپاوندی نیشتەجێبوون"},"geometry":{"type":"Point","coordinates":[44.9202667,34.5236361]}},{"type":"Feature","id":"osm-way-1374537052-industrial","properties":{"id":"osm-way-1374537052-industrial","name":"Kifri 33kV Substation","kind":"poi","tier":"poi_local","priority":66.045,"context":"ناوچەی پیشەسازی","category":"ناوچەی پیشەسازی"},"geometry":{"type":"Point","coordinates":[44.9709523,34.6830928]}},{"type":"Feature","id":"osm-way-987820472-industrial","properties":{"id":"osm-way-987820472-industrial","name":"Kifri Substation","kind":"poi","tier":"poi_local","priority":66.045,"context":"ناوچەی پیشەسازی","category":"ناوچەی پیشەسازی"},"geometry":{"type":"Point","coordinates":[44.942357,34.6792607]}},{"type":"Feature","id":"osm-way-1335737940-industrial","properties":{"id":"osm-way-1335737940-industrial","name":"ناوچەی پیشەسازی کفری","kind":"poi","tier":"poi_local","priority":66.045,"context":"ناوچەی پیشەسازی","category":"ناوچەی پیشەسازی"},"geometry":{"type":"Point","coordinates":[44.9498433,34.6934648]}},{"type":"Feature","id":"osm-node-6050936485-supermarket","properties":{"id":"osm-node-6050936485-supermarket","name":"Bazary darya","kind":"poi","tier":"poi_detail","priority":50.1,"context":"سۆپەرمارکێت","category":"سۆپەرمارکێت"},"geometry":{"type":"Point","coordinates":[44.9622208,34.6860031]}},{"type":"Feature","id":"osm-node-6318431785-supermarket","properties":{"id":"osm-node-6318431785-supermarket","name":"Bzare darya","kind":"poi","tier":"poi_detail","priority":50.1,"context":"سۆپەرمارکێت","category":"سۆپەرمارکێت"},"geometry":{"type":"Point","coordinates":[44.9622162,34.6859099]}},{"type":"Feature","id":"osm-node-9988908619-supermarket","properties":{"id":"osm-node-9988908619-supermarket","name":"Kardo","kind":"poi","tier":"poi_detail","priority":50.1,"context":"سۆپەرمارکێت","category":"سۆپەرمارکێت"},"geometry":{"type":"Point","coordinates":[44.9579417,34.6908371]}},{"type":"Feature","id":"osm-node-4485653500-fire_station","properties":{"id":"osm-node-4485653500-fire_station","name":"ئاگرکوژێنەوە","kind":"poi","tier":"poi_detail","priority":50.1,"context":"بنکەی ئاگرکوژێنەوە","category":"بنکەی ئاگرکوژێنەوە"},"geometry":{"type":"Point","coordinates":[44.9628805,34.692146]}},{"type":"Feature","id":"osm-node-8910144818-supermarket","properties":{"id":"osm-node-8910144818-supermarket","name":"اسواق کاریز","kind":"poi","tier":"poi_detail","priority":50.1,"context":"سۆپەرمارکێت","category":"سۆپەرمارکێت"},"geometry":{"type":"Point","coordinates":[44.9501919,34.6830133]}},{"type":"Feature","id":"osm-node-9868628518-school","properties":{"id":"osm-node-9868628518-school","name":"باخچەی منداڵان","kind":"poi","tier":"poi_detail","priority":50.1,"context":"قوتابخانە","category":"قوتابخانە"},"geometry":{"type":"Point","coordinates":[44.9590401,34.6920456]}},{"type":"Feature","id":"osm-node-6050936185-supermarket","properties":{"id":"osm-node-6050936185-supermarket","name":"بازاری داریا","kind":"poi","tier":"poi_detail","priority":50.1,"context":"سۆپەرمارکێت","category":"سۆپەرمارکێت"},"geometry":{"type":"Point","coordinates":[44.96087,34.6834664]}},{"type":"Feature","id":"osm-node-10587162205-clinic","properties":{"id":"osm-node-10587162205-clinic","name":"تاقیگەی پزیشکی سارا","kind":"poi","tier":"poi_detail","priority":50.1,"context":"کلینیک","category":"کلینیک"},"geometry":{"type":"Point","coordinates":[44.9533503,34.6835216]}},{"type":"Feature","id":"osm-node-5663587721-supermarket","properties":{"id":"osm-node-5663587721-supermarket","name":"داریا","kind":"poi","tier":"poi_detail","priority":50.1,"context":"سۆپەرمارکێت","category":"سۆپەرمارکێت"},"geometry":{"type":"Point","coordinates":[44.9623865,34.6858619]}},{"type":"Feature","id":"osm-node-8422687419-pharmacy","properties":{"id":"osm-node-8422687419-pharmacy","name":"ده رمانخانه ی عه لی واحد","kind":"poi","tier":"poi_detail","priority":50.1,"context":"دەرمانخانە","category":"دەرمانخانە"},"geometry":{"type":"Point","coordinates":[44.9638767,34.6935645]}},{"type":"Feature","id":"osm-node-5169029921-pharmacy","properties":{"id":"osm-node-5169029921-pharmacy","name":"ده رمانخانه ی هونەر","kind":"poi","tier":"poi_detail","priority":50.1,"context":"دەرمانخانە","category":"دەرمانخانە"},"geometry":{"type":"Point","coordinates":[44.9613184,34.6880758]}},{"type":"Feature","id":"osm-node-4740974621-pharmacy","properties":{"id":"osm-node-4740974621-pharmacy","name":"دهرمانخانهی بنار","kind":"poi","tier":"poi_detail","priority":50.1,"context":"دەرمانخانە","category":"دەرمانخانە"},"geometry":{"type":"Point","coordinates":[44.9636807,34.6925105]}},{"type":"Feature","id":"osm-node-5169030022-pharmacy","properties":{"id":"osm-node-5169030022-pharmacy","name":"دەرمانخانەی بکر","kind":"poi","tier":"poi_detail","priority":50.1,"context":"دەرمانخانە","category":"دەرمانخانە"},"geometry":{"type":"Point","coordinates":[44.9610584,34.6870793]}},{"type":"Feature","id":"osm-node-10834352312-supermarket","properties":{"id":"osm-node-10834352312-supermarket","name":"ماڕکێتی مام صدیق","kind":"poi","tier":"poi_detail","priority":50.1,"context":"سۆپەرمارکێت","category":"سۆپەرمارکێت"},"geometry":{"type":"Point","coordinates":[44.9611955,34.6796454]}},{"type":"Feature","id":"osm-node-5643639487-school","properties":{"id":"osm-node-5643639487-school","name":"مدرسە ڕزگاری الاساس","kind":"poi","tier":"poi_detail","priority":50.1,"context":"قوتابخانە","category":"قوتابخانە"},"geometry":{"type":"Point","coordinates":[44.9547399,34.6793514]}},{"type":"Feature","id":"osm-node-8910145017-clinic","properties":{"id":"osm-node-8910145017-clinic","name":"مرکز صحی","kind":"poi","tier":"poi_detail","priority":50.1,"context":"کلینیک","category":"کلینیک"},"geometry":{"type":"Point","coordinates":[44.9514557,34.6832119]}},{"type":"Feature","id":"osm-node-8872581321-pharmacy","properties":{"id":"osm-node-8872581321-pharmacy","name":"هیوا","kind":"poi","tier":"poi_detail","priority":50.1,"context":"دەرمانخانە","category":"دەرمانخانە"},"geometry":{"type":"Point","coordinates":[44.9623835,34.686399]}},{"type":"Feature","id":"osm-node-8402098217-pharmacy","properties":{"id":"osm-node-8402098217-pharmacy","name":"ژین دەرمانخانە","kind":"poi","tier":"poi_detail","priority":50.1,"context":"دەرمانخانە","category":"دەرمانخانە"},"geometry":{"type":"Point","coordinates":[44.9625864,34.6940613]}},{"type":"Feature","id":"osm-node-12366260043-restaurant","properties":{"id":"osm-node-12366260043-restaurant","name":"کباب عبدلله","kind":"poi","tier":"poi_detail","priority":50.1,"context":"چێشتخانە","category":"چێشتخانە"},"geometry":{"type":"Point","coordinates":[44.9612239,34.686822]}},{"type":"Feature","id":"osm-way-1084392212-school","properties":{"id":"osm-way-1084392212-school","name":"ئامادەیی (فیدڕاڵ)ئ تێکەڵ","kind":"poi","tier":"poi_detail","priority":50.092,"context":"قوتابخانە","category":"قوتابخانە"},"geometry":{"type":"Point","coordinates":[44.9503414,34.6849531]}},{"type":"Feature","id":"osm-way-1084397617-school","properties":{"id":"osm-way-1084397617-school","name":"ئامادەیی پیشەسازی کفری","kind":"poi","tier":"poi_detail","priority":50.092,"context":"قوتابخانە","category":"قوتابخانە"},"geometry":{"type":"Point","coordinates":[44.9605604,34.6891851]}},{"type":"Feature","id":"osm-way-1323676820-marketplace","properties":{"id":"osm-way-1323676820-marketplace","name":"بازاری کفری","kind":"poi","tier":"poi_detail","priority":50.092,"context":"بازاڕ","category":"بازاڕ"},"geometry":{"type":"Point","coordinates":[44.9634382,34.6938379]}},{"type":"Feature","id":"osm-way-1084392222-school","properties":{"id":"osm-way-1084392222-school","name":"خوێندنگوی بنەڕەتی نەورۆز","kind":"poi","tier":"poi_detail","priority":50.092,"context":"قوتابخانە","category":"قوتابخانە"},"geometry":{"type":"Point","coordinates":[44.9605268,34.6815524]}},{"type":"Feature","id":"osm-way-775529274-school","properties":{"id":"osm-way-775529274-school","name":"خوێندنگەی ئامادەیی سۆلاڤ","kind":"poi","tier":"poi_detail","priority":50.092,"context":"قوتابخانە","category":"قوتابخانە"},"geometry":{"type":"Point","coordinates":[44.9700109,34.689993]}},{"type":"Feature","id":"osm-way-1106013937-school","properties":{"id":"osm-way-1106013937-school","name":"خوێندنگەی ئامادەیی کفری","kind":"poi","tier":"poi_detail","priority":50.092,"context":"قوتابخانە","category":"قوتابخانە"},"geometry":{"type":"Point","coordinates":[44.9648055,34.6863106]}},{"type":"Feature","id":"osm-way-1106534461-school","properties":{"id":"osm-way-1106534461-school","name":"خوێندنگەی ئەحمەدی خانی - ئێواران","kind":"poi","tier":"poi_detail","priority":50.092,"context":"قوتابخانە","category":"قوتابخانە"},"geometry":{"type":"Point","coordinates":[44.962592,34.6972863]}},{"type":"Feature","id":"osm-way-1106523066-school","properties":{"id":"osm-way-1106523066-school","name":"خوێندنگەی بنەڕەتی ئیمام محەمەد","kind":"poi","tier":"poi_detail","priority":50.092,"context":"قوتابخانە","category":"قوتابخانە"},"geometry":{"type":"Point","coordinates":[44.9692813,34.692595]}},{"type":"Feature","id":"osm-way-1084392217-school","properties":{"id":"osm-way-1084392217-school","name":"خوێندنگەی بنەڕەتی خۆرنەوازان","kind":"poi","tier":"poi_detail","priority":50.092,"context":"قوتابخانە","category":"قوتابخانە"},"geometry":{"type":"Point","coordinates":[44.9554755,34.6856803]}},{"type":"Feature","id":"osm-way-1106534460-school","properties":{"id":"osm-way-1106534460-school","name":"خوێندنگەی بنەڕەتی سۆران","kind":"poi","tier":"poi_detail","priority":50.092,"context":"قوتابخانە","category":"قوتابخانە"},"geometry":{"type":"Point","coordinates":[44.9634843,34.6998351]}},{"type":"Feature","id":"osm-way-1084397619-school","properties":{"id":"osm-way-1084397619-school","name":"خوێندنگەی بنەڕەتی سیروان","kind":"poi","tier":"poi_detail","priority":50.092,"context":"قوتابخانە","category":"قوتابخانە"},"geometry":{"type":"Point","coordinates":[44.9643837,34.6901356]}},{"type":"Feature","id":"osm-way-1106523064-school","properties":{"id":"osm-way-1106523064-school","name":"خوێندنگەی بنەڕەتی هەتاو","kind":"poi","tier":"poi_detail","priority":50.092,"context":"قوتابخانە","category":"قوتابخانە"},"geometry":{"type":"Point","coordinates":[44.956841,34.68907]}},{"type":"Feature","id":"osm-way-1084398272-school","properties":{"id":"osm-way-1084398272-school","name":"خوێندنگەی بنەڕەتی هەڵمەت","kind":"poi","tier":"poi_detail","priority":50.092,"context":"قوتابخانە","category":"قوتابخانە"},"geometry":{"type":"Point","coordinates":[44.9683511,34.6966501]}},{"type":"Feature","id":"osm-way-1084392214-school","properties":{"id":"osm-way-1084392214-school","name":"خوێندنگەی بنەڕەتی ڕاستی","kind":"poi","tier":"poi_detail","priority":50.092,"context":"قوتابخانە","category":"قوتابخانە"},"geometry":{"type":"Point","coordinates":[44.9504602,34.6835363]}},{"type":"Feature","id":"osm-way-1084397622-school","properties":{"id":"osm-way-1084397622-school","name":"خوێندنگەی سەرەتایی قازی مەحەمەد","kind":"poi","tier":"poi_detail","priority":50.092,"context":"قوتابخانە","category":"قوتابخانە"},"geometry":{"type":"Point","coordinates":[44.9632637,34.6916471]}},{"type":"Feature","id":"osm-way-775529270-school","properties":{"id":"osm-way-775529270-school","name":"خوێندنگەی شۆڕش","kind":"poi","tier":"poi_detail","priority":50.092,"context":"قوتابخانە","category":"قوتابخانە"},"geometry":{"type":"Point","coordinates":[44.9664167,34.6793176]}},{"type":"Feature","id":"osm-way-1106528991-school","properties":{"id":"osm-way-1106528991-school","name":"خوێندنگەی مەشخەڵان","kind":"poi","tier":"poi_detail","priority":50.092,"context":"قوتابخانە","category":"قوتابخانە"},"geometry":{"type":"Point","coordinates":[44.9583293,34.6927819]}},{"type":"Feature","id":"osm-way-775529273-school","properties":{"id":"osm-way-775529273-school","name":"خوێندنگەی ڕەوا","kind":"poi","tier":"poi_detail","priority":50.092,"context":"قوتابخانە","category":"قوتابخانە"},"geometry":{"type":"Point","coordinates":[44.9681552,34.6826528]}},{"type":"Feature","id":"osm-way-1084392221-kindergarten","properties":{"id":"osm-way-1084392221-kindergarten","name":"دایانگە","kind":"poi","tier":"poi_detail","priority":50.092,"context":"باخچەی ساوایان","category":"باخچەی ساوایان"},"geometry":{"type":"Point","coordinates":[44.9545558,34.6849173]}},{"type":"Feature","id":"osm-way-332658575-school","properties":{"id":"osm-way-332658575-school","name":"قوتابخانەی باوەشاسوار","kind":"poi","tier":"poi_detail","priority":50.092,"context":"قوتابخانە","category":"قوتابخانە"},"geometry":{"type":"Point","coordinates":[44.9606075,34.6951485]}},{"type":"Feature","id":"osm-way-1323676818-school","properties":{"id":"osm-way-1323676818-school","name":"قوتابخانەی قەرەئۆغلان","kind":"poi","tier":"poi_detail","priority":50.092,"context":"قوتابخانە","category":"قوتابخانە"},"geometry":{"type":"Point","coordinates":[44.9627847,34.6904505]}},{"type":"Feature","id":"osm-way-1323676819-school","properties":{"id":"osm-way-1323676819-school","name":"قوتابخانەی مستەفا نەریمانی","kind":"poi","tier":"poi_detail","priority":50.092,"context":"قوتابخانە","category":"قوتابخانە"},"geometry":{"type":"Point","coordinates":[44.9614887,34.6900945]}},{"type":"Feature","id":"osm-way-332658902-building","properties":{"id":"osm-way-332658902-building","name":"قوتابخانەی قازی محمد","kind":"poi","tier":"poi_detail","priority":50.055,"context":"قوتابخانە","category":"قوتابخانە"},"geometry":{"type":"Point","coordinates":[44.9630596,34.69173]}},{"type":"Feature","id":"osm-way-332658899-building","properties":{"id":"osm-way-332658899-building","name":"قوتابخانەی کوردستانی کچانی بنەرەتی","kind":"poi","tier":"poi_detail","priority":50.055,"context":"قوتابخانە","category":"قوتابخانە"},"geometry":{"type":"Point","coordinates":[44.960968,34.6894928]}},{"type":"Feature","id":"osm-node-11656213720-mobile_phone_shop","properties":{"id":"osm-node-11656213720-mobile_phone_shop","name":"Aland Mobile","kind":"poi","tier":"poi_detail","priority":50.1,"context":"دوکانی مۆبایل","category":"دوکانی مۆبایل"},"geometry":{"type":"Point","coordinates":[44.9628628,34.6937266]}},{"type":"Feature","id":"osm-node-4872175726-bakery","properties":{"id":"osm-node-4872175726-bakery","name":"Fair frite","kind":"poi","tier":"poi_detail","priority":50.1,"context":"نانەواخانە","category":"نانەواخانە"},"geometry":{"type":"Point","coordinates":[44.9622424,34.6923453]}},{"type":"Feature","id":"osm-node-11656213518-mobile_phone_shop","properties":{"id":"osm-node-11656213518-mobile_phone_shop","name":"Falah Phone","kind":"poi","tier":"poi_detail","priority":50.1,"context":"دوکانی مۆبایل","category":"دوکانی مۆبایل"},"geometry":{"type":"Point","coordinates":[44.9635378,34.6931606]}},{"type":"Feature","id":"osm-node-11656208507-mobile_phone_shop","properties":{"id":"osm-node-11656208507-mobile_phone_shop","name":"Hama Phone","kind":"poi","tier":"poi_detail","priority":50.1,"context":"دوکانی مۆبایل","category":"دوکانی مۆبایل"},"geometry":{"type":"Point","coordinates":[44.9637943,34.693404]}},{"type":"Feature","id":"osm-node-8833111329-water_mill","properties":{"id":"osm-node-8833111329-water_mill","name":"ئاسیاو","kind":"poi","tier":"poi_detail","priority":50.1,"context":"ئاشی ئاو","category":"ئاشی ئاو"},"geometry":{"type":"Point","coordinates":[44.9713682,34.7144497]}},{"type":"Feature","id":"osm-node-8833111330-water_mill","properties":{"id":"osm-node-8833111330-water_mill","name":"ئاسیاو","kind":"poi","tier":"poi_detail","priority":50.1,"context":"ئاشی ئاو","category":"ئاشی ئاو"},"geometry":{"type":"Point","coordinates":[44.9726031,34.7144077]}},{"type":"Feature","id":"osm-node-7814992187-artwork","properties":{"id":"osm-node-7814992187-artwork","name":"ابوڕۆژ","kind":"poi","tier":"poi_detail","priority":50.1,"context":"هونەری گشتی","category":"هونەری گشتی"},"geometry":{"type":"Point","coordinates":[44.958963,34.6934169]}},{"type":"Feature","id":"osm-node-4622373293-convenience","properties":{"id":"osm-node-4622373293-convenience","name":"اسواق جمال","kind":"poi","tier":"poi_detail","priority":50.1,"context":"دوکانی نزیک","category":"دوکانی نزیک"},"geometry":{"type":"Point","coordinates":[44.9642132,34.6962734]}},{"type":"Feature","id":"osm-node-4624584790-convenience","properties":{"id":"osm-node-4624584790-convenience","name":"اسواق سیف","kind":"poi","tier":"poi_detail","priority":50.1,"context":"دوکانی نزیک","category":"دوکانی نزیک"},"geometry":{"type":"Point","coordinates":[44.9643363,34.695968]}},{"type":"Feature","id":"osm-node-8925074717-monument","properties":{"id":"osm-node-8925074717-monument","name":"توفی کفرلی","kind":"poi","tier":"poi_detail","priority":50.1,"context":"پەیکەر","category":"پەیکەر"},"geometry":{"type":"Point","coordinates":[44.9606796,34.6942026]}},{"type":"Feature","id":"osm-node-4662853490-hairdresser","properties":{"id":"osm-node-4662853490-hairdresser","name":"حلاقە فاروق","kind":"poi","tier":"poi_detail","priority":50.1,"context":"سەرتاشخانە","category":"سەرتاشخانە"},"geometry":{"type":"Point","coordinates":[44.963964,34.6933384]}},{"type":"Feature","id":"osm-node-12651032901-outdoor_shop","properties":{"id":"osm-node-12651032901-outdoor_shop","name":"خالد عسکری","kind":"poi","tier":"poi_detail","priority":50.1,"context":"فرۆشگای کەلوپەلی دەرەوە","category":"فرۆشگای کەلوپەلی دەرەوە"},"geometry":{"type":"Point","coordinates":[44.9643359,34.6957344]}},{"type":"Feature","id":"osm-node-12651067801-cafe","properties":{"id":"osm-node-12651067801-cafe","name":"خلیل منور","kind":"poi","tier":"poi_detail","priority":50.1,"context":"کافێ","category":"کافێ"},"geometry":{"type":"Point","coordinates":[44.9643454,34.6954982]}},{"type":"Feature","id":"osm-node-8422687420-mobile_phone_shop","properties":{"id":"osm-node-8422687420-mobile_phone_shop","name":"زانیار تصلیح موبایل","kind":"poi","tier":"poi_detail","priority":50.1,"context":"دوکانی مۆبایل","category":"دوکانی مۆبایل"},"geometry":{"type":"Point","coordinates":[44.9636799,34.6931485]}},{"type":"Feature","id":"osm-node-8873390417-clothes","properties":{"id":"osm-node-8873390417-clothes","name":"سایان","kind":"poi","tier":"poi_detail","priority":50.1,"context":"جلوبەرگ فرۆشی","category":"جلوبەرگ فرۆشی"},"geometry":{"type":"Point","coordinates":[44.960488,34.6829861]}},{"type":"Feature","id":"osm-node-6118519185-clothes","properties":{"id":"osm-node-6118519185-clothes","name":"سمایل","kind":"poi","tier":"poi_detail","priority":50.1,"context":"جلوبەرگ فرۆشی","category":"جلوبەرگ فرۆشی"},"geometry":{"type":"Point","coordinates":[44.9586846,34.680402]}},{"type":"Feature","id":"osm-node-8937584919-monument","properties":{"id":"osm-node-8937584919-monument","name":"سوران","kind":"poi","tier":"poi_detail","priority":50.1,"context":"پەیکەر","category":"پەیکەر"},"geometry":{"type":"Point","coordinates":[44.961579,34.6886379]}},{"type":"Feature","id":"osm-node-12857237801-furniture_shop","properties":{"id":"osm-node-12857237801-furniture_shop","name":"سوفیان نه جار","kind":"poi","tier":"poi_detail","priority":50.1,"context":"کەل و پەلی ماڵ فرۆشی","category":"کەل و پەلی ماڵ فرۆشی"},"geometry":{"type":"Point","coordinates":[44.9622987,34.6945012]}},{"type":"Feature","id":"osm-node-5169018624-beauty_shop","properties":{"id":"osm-node-5169018624-beauty_shop","name":"سەرتاشخانەی شاهین","kind":"poi","tier":"poi_detail","priority":50.1,"context":"جوانکاری","category":"جوانکاری"},"geometry":{"type":"Point","coordinates":[44.9622367,34.6864018]}},{"type":"Feature","id":"osm-node-11515873569-beauty_shop","properties":{"id":"osm-node-11515873569-beauty_shop","name":"سەرتاشخانەی کلاسیک","kind":"poi","tier":"poi_detail","priority":50.1,"context":"جوانکاری","category":"جوانکاری"},"geometry":{"type":"Point","coordinates":[44.9604118,34.6801598]}},{"type":"Feature","id":"osm-node-8422687418-beauty_shop","properties":{"id":"osm-node-8422687418-beauty_shop","name":"علی حلاق","kind":"poi","tier":"poi_detail","priority":50.1,"context":"جوانکاری","category":"جوانکاری"},"geometry":{"type":"Point","coordinates":[44.963657,34.6933192]}},{"type":"Feature","id":"osm-node-6700635986-park","properties":{"id":"osm-node-6700635986-park","name":"متنزه والعاب کفری","kind":"poi","tier":"poi_detail","priority":50.1,"context":"پارک","category":"پارک"},"geometry":{"type":"Point","coordinates":[44.957656,34.6958923]}},{"type":"Feature","id":"osm-node-4706393091-drinking_water","properties":{"id":"osm-node-4706393091-drinking_water","name":"مرکز المصطفی لتصفیە و معالجە المیاه","kind":"poi","tier":"poi_detail","priority":50.1,"context":"ئاوی خواردنەوە","category":"ئاوی خواردنەوە"},"geometry":{"type":"Point","coordinates":[44.9641051,34.6962253]}},{"type":"Feature","id":"osm-node-5350799122-beverages","properties":{"id":"osm-node-5350799122-beverages","name":"نادی موظفین کفری قدیم","kind":"poi","tier":"poi_detail","priority":50.1,"context":"فرۆشگای خواردنەوە","category":"فرۆشگای خواردنەوە"},"geometry":{"type":"Point","coordinates":[44.9585234,34.6975416]}},{"type":"Feature","id":"osm-node-7729212185-viewpoint","properties":{"id":"osm-node-7729212185-viewpoint","name":"نقطە فاصلە لجیش عراقی مع اقلیم","kind":"poi","tier":"poi_detail","priority":50.1,"context":"شوێنی سەیران","category":"شوێنی سەیران"},"geometry":{"type":"Point","coordinates":[44.8066196,34.7221743]}},{"type":"Feature","id":"osm-node-5169030021-fitness_centre","properties":{"id":"osm-node-5169030021-fitness_centre","name":"هولی له ش جوانی","kind":"poi","tier":"poi_detail","priority":50.1,"context":"جیم","category":"جیم"},"geometry":{"type":"Point","coordinates":[44.9613845,34.6868593]}},{"type":"Feature","id":"osm-node-7235493866-artwork","properties":{"id":"osm-node-7235493866-artwork","name":"پەیکەری ابراهیم خانی دەلۆ","kind":"poi","tier":"poi_detail","priority":50.1,"context":"هونەری گشتی","category":"هونەری گشتی"},"geometry":{"type":"Point","coordinates":[44.9637605,34.6859935]}},{"type":"Feature","id":"osm-node-4485645597-veterinary","properties":{"id":"osm-node-4485645597-veterinary","name":"ڤیترنەری","kind":"poi","tier":"poi_detail","priority":50.1,"context":"کلینیکی ڤێتەرنەری","category":"کلینیکی ڤێتەرنەری"},"geometry":{"type":"Point","coordinates":[44.9582221,34.6855428]}},{"type":"Feature","id":"osm-node-5169029922-cafe","properties":{"id":"osm-node-5169029922-cafe","name":"کافتریای شەقام","kind":"poi","tier":"poi_detail","priority":50.1,"context":"کافێ","category":"کافێ"},"geometry":{"type":"Point","coordinates":[44.9613724,34.6868684]}},{"type":"Feature","id":"osm-node-8286288018-cafe","properties":{"id":"osm-node-8286288018-cafe","name":"کافێی شەوانی تەمەن","kind":"poi","tier":"poi_detail","priority":50.1,"context":"کافێ","category":"کافێ"},"geometry":{"type":"Point","coordinates":[44.9641083,34.6954781]}},{"type":"Feature","id":"osm-node-4485653493-library","properties":{"id":"osm-node-4485653493-library","name":"کتێبخانەی گشتی کفری","kind":"poi","tier":"poi_detail","priority":50.1,"context":"کتێبخانە","category":"کتێبخانە"},"geometry":{"type":"Point","coordinates":[44.9570124,34.6920749]}},{"type":"Feature","id":"osm-node-599502064-park","properties":{"id":"osm-node-599502064-park","name":"کفری","kind":"poi","tier":"poi_detail","priority":50.1,"context":"پارک","category":"پارک"},"geometry":{"type":"Point","coordinates":[44.9631614,34.6907616]}},{"type":"Feature","id":"osm-node-4624043389-fast_food","properties":{"id":"osm-node-4624043389-fast_food","name":"کەریبالدی","kind":"poi","tier":"poi_detail","priority":50.1,"context":"خواردنی خێرا","category":"خواردنی خێرا"},"geometry":{"type":"Point","coordinates":[44.9613252,34.68783]}},{"type":"Feature","id":"osm-node-4637153517-muslim","properties":{"id":"osm-node-4637153517-muslim","name":"جامع رشید کاظم","kind":"poi","tier":"poi_detail","priority":50.098,"context":"مزگەوت","category":"مزگەوت"},"geometry":{"type":"Point","coordinates":[44.9636089,34.6886405]}},{"type":"Feature","id":"osm-way-1336908918-park","properties":{"id":"osm-way-1336908918-park","name":"باخچەی مام سابیر","kind":"poi","tier":"poi_detail","priority":50.092,"context":"پارک","category":"پارک"},"geometry":{"type":"Point","coordinates":[44.962098,34.6967598]}},{"type":"Feature","id":"osm-way-326436883-courthouse","properties":{"id":"osm-way-326436883-courthouse","name":"دادگای کفری","kind":"poi","tier":"poi_detail","priority":50.092,"context":"دادگا","category":"دادگا"},"geometry":{"type":"Point","coordinates":[44.9543661,34.6938192]}},{"type":"Feature","id":"osm-way-1268237287-museum","properties":{"id":"osm-way-1268237287-museum","name":"سەرای کفری","kind":"poi","tier":"poi_detail","priority":50.092,"context":"مۆزەخانە","category":"مۆزەخانە"},"geometry":{"type":"Point","coordinates":[44.9630477,34.6965598]}},{"type":"Feature","id":"osm-way-260953554-theme_park","properties":{"id":"osm-way-260953554-theme_park","name":"شاری یاری شەهید قاسم فەقێ عەلی","kind":"poi","tier":"poi_detail","priority":50.092,"context":"پارکی یاری","category":"پارکی یاری"},"geometry":{"type":"Point","coordinates":[44.9628192,34.6897924]}},{"type":"Feature","id":"osm-way-381286705-park","properties":{"id":"osm-way-381286705-park","name":"متنزه کفری","kind":"poi","tier":"poi_detail","priority":50.092,"context":"پارک","category":"پارک"},"geometry":{"type":"Point","coordinates":[44.9569873,34.6963546]}},{"type":"Feature","id":"osm-way-1375076024-museum","properties":{"id":"osm-way-1375076024-museum","name":"مۆزەخانەی کلتوری شار","kind":"poi","tier":"poi_detail","priority":50.092,"context":"مۆزەخانە","category":"مۆزەخانە"},"geometry":{"type":"Point","coordinates":[44.9623739,34.696523]}},{"type":"Feature","id":"osm-way-1311891611-park","properties":{"id":"osm-way-1311891611-park","name":"پارکی ئیمام محمد","kind":"poi","tier":"poi_detail","priority":50.092,"context":"پارک","category":"پارک"},"geometry":{"type":"Point","coordinates":[44.9689387,34.6899639]}},{"type":"Feature","id":"osm-way-1327893406-graveyard","properties":{"id":"osm-way-1327893406-graveyard","name":"گۆرستانی باوەشاسوار","kind":"poi","tier":"poi_detail","priority":50.092,"context":"قەبرستان","category":"قەبرستان"},"geometry":{"type":"Point","coordinates":[44.963164,34.7022805]}},{"type":"Feature","id":"osm-way-1512300501-graveyard","properties":{"id":"osm-way-1512300501-graveyard","name":"گۆڕستانی قۆڕی چای","kind":"poi","tier":"poi_detail","priority":50.092,"context":"قەبرستان","category":"قەبرستان"},"geometry":{"type":"Point","coordinates":[44.8475295,34.7433528]}},{"type":"Feature","id":"osm-way-1328590574-graveyard","properties":{"id":"osm-way-1328590574-graveyard","name":"گۆڕستانی کارێزی مەجید پاشا","kind":"poi","tier":"poi_detail","priority":50.092,"context":"قەبرستان","category":"قەبرستان"},"geometry":{"type":"Point","coordinates":[44.9242956,34.6570077]}},{"type":"Feature","id":"osm-way-381286699-pitch","properties":{"id":"osm-way-381286699-pitch","name":"یاریگای میر","kind":"poi","tier":"poi_detail","priority":50.092,"context":"ناوەندی وەرزش","category":"ناوەندی وەرزش"},"geometry":{"type":"Point","coordinates":[44.9509649,34.6841925]}},{"type":"Feature","id":"osm-way-327832882-muslim","properties":{"id":"osm-way-327832882-muslim","name":"جامع الروضە","kind":"poi","tier":"poi_detail","priority":50.09,"context":"مزگەوت","category":"مزگەوت"},"geometry":{"type":"Point","coordinates":[44.9522184,34.6819395]}},{"type":"Feature","id":"osm-way-381286759-muslim","properties":{"id":"osm-way-381286759-muslim","name":"مزگەوتی مەدحەت","kind":"poi","tier":"poi_detail","priority":50.09,"context":"مزگەوت","category":"مزگەوت"},"geometry":{"type":"Point","coordinates":[44.9566552,34.6862175]}},{"type":"Feature","id":"osm-way-790978869-dam","properties":{"id":"osm-way-790978869-dam","name":"بەنداوی باوە شاسوار","kind":"poi","tier":"poi_detail","priority":50.086,"context":"بەنداوی ئاو","category":"بەنداوی ئاو"},"geometry":{"type":"Point","coordinates":[44.9736771,34.7201614]}},{"type":"Feature","id":"osm-way-328489936-landfill","properties":{"id":"osm-way-328489936-landfill","name":"Kifri Landfill","kind":"poi","tier":"poi_detail","priority":50.045,"context":"شوێنی پاشماوە","category":"شوێنی پاشماوە"},"geometry":{"type":"Point","coordinates":[44.9437363,34.678124]}},{"type":"Feature","id":"osm-way-328490239-landfill","properties":{"id":"osm-way-328490239-landfill","name":"Kifri Landfill","kind":"poi","tier":"poi_detail","priority":50.045,"context":"شوێنی پاشماوە","category":"شوێنی پاشماوە"},"geometry":{"type":"Point","coordinates":[44.9566714,34.6766162]}},{"type":"Feature","id":"osm-way-328490400-landfill","properties":{"id":"osm-way-328490400-landfill","name":"Kifri Landfill","kind":"poi","tier":"poi_detail","priority":50.045,"context":"شوێنی پاشماوە","category":"شوێنی پاشماوە"},"geometry":{"type":"Point","coordinates":[44.9555781,34.669162]}},{"type":"Feature","id":"osm-way-21072110-landfill","properties":{"id":"osm-way-21072110-landfill","name":"منطقە طمر صحی","kind":"poi","tier":"poi_detail","priority":50.045,"context":"شوێنی پاشماوە","category":"شوێنی پاشماوە"},"geometry":{"type":"Point","coordinates":[44.9587062,34.704758]}},{"type":"Feature","id":"osm-way-775529271-building","properties":{"id":"osm-way-775529271-building","name":"شیروان شیرکۆ","kind":"poi","tier":"poi_detail","priority":50.055,"context":"ماڵ","category":"ماڵ"},"geometry":{"type":"Point","coordinates":[44.9621095,34.6858017]}},{"type":"Feature","id":"osm-way-775529269-building","properties":{"id":"osm-way-775529269-building","name":"مال شیرکۆ علی","kind":"poi","tier":"poi_detail","priority":50.055,"context":"ماڵ","category":"ماڵ"},"geometry":{"type":"Point","coordinates":[44.9677229,34.6757892]}}]}