{"type":"FeatureCollection","features":[{"type":"Feature","id":"osm-node-11233376841","properties":{"id":"osm-node-11233376841","name":"ئالیاوە","kind":"village","tier":"locality","priority":300,"context":"چەمچەماڵ · سلێمانی","category":"گوند"},"geometry":{"type":"Point","coordinates":[44.8585658,35.2170404]}},{"type":"Feature","id":"osm-node-9369459868","properties":{"id":"osm-node-9369459868","name":"ئاوایی جەلال","kind":"village","tier":"locality","priority":300,"context":"چەمچەماڵ · سلێمانی","category":"گوند"},"geometry":{"type":"Point","coordinates":[44.8185309,35.108082]}},{"type":"Feature","id":"osm-node-8038748906","properties":{"id":"osm-node-8038748906","name":"ئاوباریک","kind":"village","tier":"locality","priority":300,"context":"چەمچەماڵ · سلێمانی","category":"گوند"},"geometry":{"type":"Point","coordinates":[44.938298,35.015571]}},{"type":"Feature","id":"osm-node-11237719923","properties":{"id":"osm-node-11237719923","name":"ئیبراهیم غوڵام","kind":"village","tier":"locality","priority":300,"context":"چەمچەماڵ · سلێمانی","category":"گوند"},"geometry":{"type":"Point","coordinates":[44.9148737,35.1305669]}},{"type":"Feature","id":"osm-node-2489302663","properties":{"id":"osm-node-2489302663","name":"بەهرام بەگی شێخ حەمید","kind":"village","tier":"locality","priority":300,"context":"چەمچەماڵ · سلێمانی","category":"گوند"},"geometry":{"type":"Point","coordinates":[44.8528533,35.0783363]}},{"type":"Feature","id":"osm-node-9369474234","properties":{"id":"osm-node-9369474234","name":"تازەشار","kind":"village","tier":"locality","priority":300,"context":"چەمچەماڵ · سلێمانی","category":"گوند"},"geometry":{"type":"Point","coordinates":[44.8404569,35.0897861]}},{"type":"Feature","id":"osm-node-9369788952","properties":{"id":"osm-node-9369788952","name":"تاڵاو","kind":"village","tier":"locality","priority":300,"context":"دووزخورماتوو · سەڵاحەدین","category":"گوند"},"geometry":{"type":"Point","coordinates":[44.7656668,35.0209705]}},{"type":"Feature","id":"osm-node-2489303728","properties":{"id":"osm-node-2489303728","name":"تەختە مینەی سەروو","kind":"village","tier":"locality","priority":300,"context":"چەمچەماڵ · سلێمانی","category":"گوند"},"geometry":{"type":"Point","coordinates":[44.8289205,35.0400607]}},{"type":"Feature","id":"osm-node-2489303742","properties":{"id":"osm-node-2489303742","name":"تەختەمینە","kind":"village","tier":"locality","priority":300,"context":"چەمچەماڵ · سلێمانی","category":"گوند"},"geometry":{"type":"Point","coordinates":[44.8208007,35.0374441]}},{"type":"Feature","id":"osm-node-11174701564","properties":{"id":"osm-node-11174701564","name":"تەختەمینەی خواروو","kind":"village","tier":"locality","priority":300,"context":"چەمچەماڵ · سلێمانی","category":"گوند"},"geometry":{"type":"Point","coordinates":[44.8076485,35.0270269]}},{"type":"Feature","id":"osm-node-11178369962","properties":{"id":"osm-node-11178369962","name":"تەلەبی","kind":"village","tier":"locality","priority":300,"context":"چەمچەماڵ · سلێمانی","category":"گوند"},"geometry":{"type":"Point","coordinates":[44.9738798,35.0537094]}},{"type":"Feature","id":"osm-node-11285489744","properties":{"id":"osm-node-11285489744","name":"حەیدەرەسوورە","kind":"village","tier":"locality","priority":300,"context":"چەمچەماڵ · سلێمانی","category":"گوند"},"geometry":{"type":"Point","coordinates":[44.8631929,35.0019616]}},{"type":"Feature","id":"osm-node-2489372131","properties":{"id":"osm-node-2489372131","name":"خدرڕیحان","kind":"village","tier":"locality","priority":300,"context":"چەمچەماڵ · سلێمانی","category":"گوند"},"geometry":{"type":"Point","coordinates":[44.9978931,35.2360876]}},{"type":"Feature","id":"osm-node-11174642311","properties":{"id":"osm-node-11174642311","name":"دارەتوو","kind":"village","tier":"locality","priority":300,"context":"چەمچەماڵ · سلێمانی","category":"گوند"},"geometry":{"type":"Point","coordinates":[44.9465215,35.0017125]}},{"type":"Feature","id":"osm-node-11237737090","properties":{"id":"osm-node-11237737090","name":"دارەتوی زەنگنە","kind":"village","tier":"locality","priority":300,"context":"چەمچەماڵ · سلێمانی","category":"گوند"},"geometry":{"type":"Point","coordinates":[44.9575698,35.234577]}},{"type":"Feature","id":"osm-way-1215383626","properties":{"id":"osm-way-1215383626","name":"دێ","kind":"village","tier":"locality","priority":300,"context":"چەمچەماڵ · سلێمانی","category":"گوند"},"geometry":{"type":"Point","coordinates":[44.9514612731396,35.11480175]}},{"type":"Feature","id":"osm-node-2489371443","properties":{"id":"osm-node-2489371443","name":"زۆراب بەگزادە","kind":"village","tier":"locality","priority":300,"context":"چەمچەماڵ · سلێمانی","category":"گوند"},"geometry":{"type":"Point","coordinates":[44.9933607,35.0887722]}},{"type":"Feature","id":"osm-node-11171318601","properties":{"id":"osm-node-11171318601","name":"زەردە","kind":"village","tier":"locality","priority":300,"context":"چەمچەماڵ · سلێمانی","category":"گوند"},"geometry":{"type":"Point","coordinates":[44.7785142,35.217908]}},{"type":"Feature","id":"osm-node-11174647162","properties":{"id":"osm-node-11174647162","name":"سۆفی ڕەزا","kind":"village","tier":"locality","priority":300,"context":"چەمچەماڵ · سلێمانی","category":"گوند"},"geometry":{"type":"Point","coordinates":[44.9332114,35.0296736]}},{"type":"Feature","id":"osm-node-9388914488","properties":{"id":"osm-node-9388914488","name":"شاوک","kind":"village","tier":"locality","priority":300,"context":"چەمچەماڵ · سلێمانی","category":"گوند"},"geometry":{"type":"Point","coordinates":[44.9153113,35.2187403]}},{"type":"Feature","id":"osm-node-11178383397","properties":{"id":"osm-node-11178383397","name":"عەبدوڵاهۆری","kind":"village","tier":"locality","priority":300,"context":"چەمچەماڵ · سلێمانی","category":"گوند"},"geometry":{"type":"Point","coordinates":[44.9559936,35.0765985]}},{"type":"Feature","id":"osm-node-9369463509","properties":{"id":"osm-node-9369463509","name":"عەزیز بەگ","kind":"village","tier":"locality","priority":300,"context":"چەمچەماڵ · سلێمانی","category":"گوند"},"geometry":{"type":"Point","coordinates":[44.8126331,35.0686572]}},{"type":"Feature","id":"osm-node-9370141503","properties":{"id":"osm-node-9370141503","name":"عەلی مستەفا","kind":"village","tier":"locality","priority":300,"context":"چەمچەماڵ · سلێمانی","category":"گوند"},"geometry":{"type":"Point","coordinates":[44.7927047,35.1960005]}},{"type":"Feature","id":"osm-node-9424460212","properties":{"id":"osm-node-9424460212","name":"قەرەچێوار","kind":"village","tier":"locality","priority":300,"context":"چەمچەماڵ · سلێمانی","category":"گوند"},"geometry":{"type":"Point","coordinates":[44.8315531,35.1919754]}},{"type":"Feature","id":"osm-node-2489322571","properties":{"id":"osm-node-2489322571","name":"قەڵامیکائیلی بچوک","kind":"village","tier":"locality","priority":300,"context":"چەمچەماڵ · سلێمانی","category":"گوند"},"geometry":{"type":"Point","coordinates":[44.9096685,35.2406392]}},{"type":"Feature","id":"osm-node-11237782475","properties":{"id":"osm-node-11237782475","name":"قەڵامیکائیلی گەورە","kind":"village","tier":"locality","priority":300,"context":"چەمچەماڵ · سلێمانی","category":"گوند"},"geometry":{"type":"Point","coordinates":[44.9318075,35.2464474]}},{"type":"Feature","id":"osm-node-11237692369","properties":{"id":"osm-node-11237692369","name":"لەک هیدایەت","kind":"village","tier":"locality","priority":300,"context":"چەمچەماڵ · سلێمانی","category":"گوند"},"geometry":{"type":"Point","coordinates":[44.9614056,35.2152904]}},{"type":"Feature","id":"osm-node-7643769261","properties":{"id":"osm-node-7643769261","name":"مام یوسک","kind":"village","tier":"locality","priority":300,"context":"چەمچەماڵ · سلێمانی","category":"گوند"},"geometry":{"type":"Point","coordinates":[44.8659165,35.1207801]}},{"type":"Feature","id":"osm-node-9369516806","properties":{"id":"osm-node-9369516806","name":"چاڵەودوانە","kind":"village","tier":"locality","priority":300,"context":"چەمچەماڵ · سلێمانی","category":"گوند"},"geometry":{"type":"Point","coordinates":[44.7622231,35.0742496]}},{"type":"Feature","id":"osm-node-2489302899","properties":{"id":"osm-node-2489302899","name":"چەم سوورخاو","kind":"village","tier":"locality","priority":300,"context":"چەمچەماڵ · سلێمانی","category":"گوند"},"geometry":{"type":"Point","coordinates":[44.8797151,35.2030509]}},{"type":"Feature","id":"osm-node-11174570219","properties":{"id":"osm-node-11174570219","name":"ژاژ","kind":"village","tier":"locality","priority":300,"context":"چەمچەماڵ · سلێمانی","category":"گوند"},"geometry":{"type":"Point","coordinates":[44.7590724,35.1474228]}},{"type":"Feature","id":"osm-node-11174645929","properties":{"id":"osm-node-11174645929","name":"کانی قادری سەعدوون","kind":"village","tier":"locality","priority":300,"context":"چەمچەماڵ · سلێمانی","category":"گوند"},"geometry":{"type":"Point","coordinates":[44.8978608,35.0276747]}},{"type":"Feature","id":"osm-way-791091747","properties":{"id":"osm-way-791091747","name":"کانی قادری شێخ محەمەد","kind":"village","tier":"locality","priority":300,"context":"چەمچەماڵ · سلێمانی","category":"گوند"},"geometry":{"type":"Point","coordinates":[44.883935955362844,35.0422578]}},{"type":"Feature","id":"osm-node-11174646903","properties":{"id":"osm-node-11174646903","name":"کانی قادری شێخ موحەمەد","kind":"village","tier":"locality","priority":300,"context":"چەمچەماڵ · سلێمانی","category":"گوند"},"geometry":{"type":"Point","coordinates":[44.8833948,35.0419963]}},{"type":"Feature","id":"osm-node-11174639396","properties":{"id":"osm-node-11174639396","name":"کانی قادری مەجید","kind":"village","tier":"locality","priority":300,"context":"چەمچەماڵ · سلێمانی","category":"گوند"},"geometry":{"type":"Point","coordinates":[44.9010151,35.03588]}},{"type":"Feature","id":"osm-node-11174617653","properties":{"id":"osm-node-11174617653","name":"کۆرمۆری بچووک","kind":"village","tier":"locality","priority":300,"context":"چەمچەماڵ · سلێمانی","category":"گوند"},"geometry":{"type":"Point","coordinates":[44.8001402,35.1182412]}},{"type":"Feature","id":"osm-node-11174575169","properties":{"id":"osm-node-11174575169","name":"کۆرمۆری گەورە","kind":"village","tier":"locality","priority":300,"context":"چەمچەماڵ · سلێمانی","category":"گوند"},"geometry":{"type":"Point","coordinates":[44.7890584,35.1258821]}},{"type":"Feature","id":"osm-node-11178380318","properties":{"id":"osm-node-11178380318","name":"کەریم باسام","kind":"village","tier":"locality","priority":300,"context":"چەمچەماڵ · سلێمانی","category":"گوند"},"geometry":{"type":"Point","coordinates":[44.9832053,35.0136426]}},{"type":"Feature","id":"osm-node-7412919085","properties":{"id":"osm-node-7412919085","name":"بان بایەفە سەرە","kind":"locality","tier":"locality","priority":200,"context":"چەمچەماڵ · سلێمانی","category":"شوێنی ناوخۆیی"},"geometry":{"type":"Point","coordinates":[44.986453,35.1536902]}},{"type":"Feature","id":"osm-node-7412919086","properties":{"id":"osm-node-7412919086","name":"بان چوار دارە","kind":"locality","tier":"locality","priority":200,"context":"چەمچەماڵ · سلێمانی","category":"شوێنی ناوخۆیی"},"geometry":{"type":"Point","coordinates":[44.9992584,35.1433957]}},{"type":"Feature","id":"osm-node-6960449394","properties":{"id":"osm-node-6960449394","name":"بایەمە سەرە","kind":"locality","tier":"locality","priority":200,"context":"چەمچەماڵ · سلێمانی","category":"شوێنی ناوخۆیی"},"geometry":{"type":"Point","coordinates":[44.9833906,35.1499195]}},{"type":"Feature","id":"osm-node-6960445206","properties":{"id":"osm-node-6960445206","name":"دەساڕناو کویتاڵ دزیاو","kind":"locality","tier":"locality","priority":200,"context":"چەمچەماڵ · سلێمانی","category":"شوێنی ناوخۆیی"},"geometry":{"type":"Point","coordinates":[44.9925503,35.1572454]}},{"type":"Feature","id":"osm-node-6960445112","properties":{"id":"osm-node-6960445112","name":"زەوییەکەی حەسەن","kind":"locality","tier":"locality","priority":200,"context":"چەمچەماڵ · سلێمانی","category":"شوێنی ناوخۆیی"},"geometry":{"type":"Point","coordinates":[44.9894344,35.1676294]}},{"type":"Feature","id":"osm-node-6960445205","properties":{"id":"osm-node-6960445205","name":"عەرزەکەی حەمەی ڕەحیم فەتاح","kind":"locality","tier":"locality","priority":200,"context":"چەمچەماڵ · سلێمانی","category":"شوێنی ناوخۆیی"},"geometry":{"type":"Point","coordinates":[44.9933757,35.1600675]}},{"type":"Feature","id":"osm-node-2489304307","properties":{"id":"osm-node-2489304307","name":"چەم سێ گڵاڵ","kind":"locality","tier":"locality","priority":200,"context":"چەمچەماڵ · سلێمانی","category":"شوێنی ناوخۆیی"},"geometry":{"type":"Point","coordinates":[44.81835,35.169757]}},{"type":"Feature","id":"osm-natural-mountain-bdf8d36d8fe994","properties":{"id":"osm-natural-mountain-bdf8d36d8fe994","name":"Bait Sarah","kind":"natural","tier":"natural","priority":180,"context":"شاخ · جمجمال · سلێمانی","category":"شاخ"},"geometry":{"type":"Point","coordinates":[44.98333,35.15]}},{"type":"Feature","id":"osm-natural-valley-102e2ed30b2e3d","properties":{"id":"osm-natural-valley-102e2ed30b2e3d","name":"Cham Dar Xurmaka","kind":"natural","tier":"natural","priority":180,"context":"دۆڵ · جمجمال · سلێمانی","category":"دۆڵ"},"geometry":{"type":"Point","coordinates":[44.9971162,35.1545437]}},{"type":"Feature","id":"osm-natural-stream-3abf145d5e16d3","properties":{"id":"osm-natural-stream-3abf145d5e16d3","name":"Cham Hinarah","kind":"natural","tier":"natural","priority":180,"context":"جۆگە · جمجمال · سلێمانی","category":"جۆگە"},"geometry":{"type":"Point","coordinates":[44.8,35.15]}},{"type":"Feature","id":"osm-natural-valley-85c84e49428de3","properties":{"id":"osm-natural-valley-85c84e49428de3","name":"Girdi Tanah Khasan","kind":"natural","tier":"natural","priority":180,"context":"دۆڵ · جمجمال · سلێمانی","category":"دۆڵ"},"geometry":{"type":"Point","coordinates":[44.87729,35.11677]}},{"type":"Feature","id":"osm-natural-stream-d826a5df2506be","properties":{"id":"osm-natural-stream-d826a5df2506be","name":"Khirr `Allawah","kind":"natural","tier":"natural","priority":180,"context":"جۆگە · جمجمال · سلێمانی","category":"جۆگە"},"geometry":{"type":"Point","coordinates":[44.85,35.18333]}},{"type":"Feature","id":"osm-natural-river-34a04bb82aec6d","properties":{"id":"osm-natural-river-34a04bb82aec6d","name":"باسەڕە","kind":"natural","tier":"natural","priority":180,"context":"ڕووبار · جمجمال · سلێمانی","category":"ڕووبار"},"geometry":{"type":"Point","coordinates":[44.8971788,35.2291244]}},{"type":"Feature","id":"osm-natural-lake-77a7d9ccd297b5","properties":{"id":"osm-natural-lake-77a7d9ccd297b5","name":"بەنداوی قادر کەرەم","kind":"natural","tier":"natural","priority":180,"context":"دەریاچە · جمجمال · سلێمانی","category":"دەریاچە"},"geometry":{"type":"Point","coordinates":[44.9331447,35.1850291]}},{"type":"Feature","id":"osm-natural-hill-26dfb5608011ad","properties":{"id":"osm-natural-hill-26dfb5608011ad","name":"تبة قرني","kind":"natural","tier":"natural","priority":180,"context":"گرد · جمجمال · سلێمانی","category":"گرد"},"geometry":{"type":"Point","coordinates":[44.82573,35.07109]}},{"type":"Feature","id":"osm-natural-hill-18ce83d3eb8760","properties":{"id":"osm-natural-hill-18ce83d3eb8760","name":"تل آوة شوركة","kind":"natural","tier":"natural","priority":180,"context":"گرد · جمجمال · سلێمانی","category":"گرد"},"geometry":{"type":"Point","coordinates":[44.90388,35.18397]}},{"type":"Feature","id":"osm-natural-hill-13b8a4d1bb12c8","properties":{"id":"osm-natural-hill-13b8a4d1bb12c8","name":"تل تبة قد","kind":"natural","tier":"natural","priority":180,"context":"گرد · جمجمال · سلێمانی","category":"گرد"},"geometry":{"type":"Point","coordinates":[44.99379,35.09443]}},{"type":"Feature","id":"osm-natural-hill-de3cb3b7443401","properties":{"id":"osm-natural-hill-de3cb3b7443401","name":"تل جوار","kind":"natural","tier":"natural","priority":180,"context":"گرد · جمجمال · سلێمانی","category":"گرد"},"geometry":{"type":"Point","coordinates":[44.99887,35.14307]}},{"type":"Feature","id":"osm-natural-hill-012b750fe44bef","properties":{"id":"osm-natural-hill-012b750fe44bef","name":"تل جولك","kind":"natural","tier":"natural","priority":180,"context":"گرد · جمجمال · سلێمانی","category":"گرد"},"geometry":{"type":"Point","coordinates":[44.89972,35.19815]}},{"type":"Feature","id":"osm-natural-hill-910084d940cb33","properties":{"id":"osm-natural-hill-910084d940cb33","name":"تل داره خورما","kind":"natural","tier":"natural","priority":180,"context":"گرد · جمجمال · سلێمانی","category":"گرد"},"geometry":{"type":"Point","coordinates":[44.89664,35.18963]}},{"type":"Feature","id":"osm-natural-hill-ee1a13530c6879","properties":{"id":"osm-natural-hill-ee1a13530c6879","name":"تل كاني ثور","kind":"natural","tier":"natural","priority":180,"context":"گرد · جمجمال · سلێمانی","category":"گرد"},"geometry":{"type":"Point","coordinates":[44.95871,35.22826]}},{"type":"Feature","id":"osm-natural-mountain-7954d286ede70c","properties":{"id":"osm-natural-mountain-7954d286ede70c","name":"جبل قجر","kind":"natural","tier":"natural","priority":180,"context":"شاخ · جمجمال · سلێمانی","category":"شاخ"},"geometry":{"type":"Point","coordinates":[44.86482,35.02803]}},{"type":"Feature","id":"osm-natural-stream-078c8de7801323","properties":{"id":"osm-natural-stream-078c8de7801323","name":"خڕ دارەتوو","kind":"natural","tier":"natural","priority":180,"context":"جۆگە · جمجمال · سلێمانی","category":"جۆگە"},"geometry":{"type":"Point","coordinates":[44.9619985,35.1742703]}},{"type":"Feature","id":"osm-natural-valley-db6bcc34ec3203","properties":{"id":"osm-natural-valley-db6bcc34ec3203","name":"شيوي بلزركلة","kind":"natural","tier":"natural","priority":180,"context":"دۆڵ · جمجمال · سلێمانی","category":"دۆڵ"},"geometry":{"type":"Point","coordinates":[44.886,35.12686]}},{"type":"Feature","id":"osm-natural-valley-29e59236848ba1","properties":{"id":"osm-natural-valley-29e59236848ba1","name":"شيوي خسرو","kind":"natural","tier":"natural","priority":180,"context":"دۆڵ · جمجمال · سلێمانی","category":"دۆڵ"},"geometry":{"type":"Point","coordinates":[44.790986,35.154472]}},{"type":"Feature","id":"osm-natural-valley-104bd2d9d7e944","properties":{"id":"osm-natural-valley-104bd2d9d7e944","name":"شيوي علي كجل","kind":"natural","tier":"natural","priority":180,"context":"دۆڵ · جمجمال · سلێمانی","category":"دۆڵ"},"geometry":{"type":"Point","coordinates":[44.8835,35.12605]}},{"type":"Feature","id":"osm-natural-peak-7c0b631e9203f3","properties":{"id":"osm-natural-peak-7c0b631e9203f3","name":"قمة كرونك","kind":"natural","tier":"natural","priority":180,"context":"لوتکە · جمجمال · سلێمانی","category":"لوتکە"},"geometry":{"type":"Point","coordinates":[44.90622,35.16636]}},{"type":"Feature","id":"osm-natural-valley-f4b0218a5fcb8d","properties":{"id":"osm-natural-valley-f4b0218a5fcb8d","name":"وادي إمام محمد","kind":"natural","tier":"natural","priority":180,"context":"دۆڵ · جمجمال · سلێمانی","category":"دۆڵ"},"geometry":{"type":"Point","coordinates":[44.98018,35.194651]}},{"type":"Feature","id":"osm-natural-valley-82c98d5e0c8cda","properties":{"id":"osm-natural-valley-82c98d5e0c8cda","name":"وادي تلان كويك","kind":"natural","tier":"natural","priority":180,"context":"دۆڵ · دووزخورماتوو · سەڵاحەدین","category":"دۆڵ"},"geometry":{"type":"Point","coordinates":[44.757109,35.038898]}},{"type":"Feature","id":"osm-natural-valley-ba206dc56f2564","properties":{"id":"osm-natural-valley-ba206dc56f2564","name":"وادي حجي رزيان","kind":"natural","tier":"natural","priority":180,"context":"دۆڵ · جمجمال · سلێمانی","category":"دۆڵ"},"geometry":{"type":"Point","coordinates":[44.96402,35.09543]}},{"type":"Feature","id":"osm-natural-valley-03c718431e7185","properties":{"id":"osm-natural-valley-03c718431e7185","name":"وادي دارتو","kind":"natural","tier":"natural","priority":180,"context":"دۆڵ · جمجمال · سلێمانی","category":"دۆڵ"},"geometry":{"type":"Point","coordinates":[44.918125,35.18817]}},{"type":"Feature","id":"osm-natural-valley-339b1f1200872e","properties":{"id":"osm-natural-valley-339b1f1200872e","name":"وادي دولة تبه","kind":"natural","tier":"natural","priority":180,"context":"دۆڵ · جمجمال · سلێمانی","category":"دۆڵ"},"geometry":{"type":"Point","coordinates":[44.97185,35.00659]}},{"type":"Feature","id":"osm-natural-valley-ad680d1931153c","properties":{"id":"osm-natural-valley-ad680d1931153c","name":"وادي سي كلال","kind":"natural","tier":"natural","priority":180,"context":"دۆڵ · جمجمال · سلێمانی","category":"دۆڵ"},"geometry":{"type":"Point","coordinates":[44.819,35.16855]}},{"type":"Feature","id":"osm-natural-valley-9bdd331b5132a8","properties":{"id":"osm-natural-valley-9bdd331b5132a8","name":"وادي شوك","kind":"natural","tier":"natural","priority":180,"context":"دۆڵ · جمجمال · سلێمانی","category":"دۆڵ"},"geometry":{"type":"Point","coordinates":[44.9133,35.21885]}},{"type":"Feature","id":"osm-natural-valley-3b9b14c9227ff4","properties":{"id":"osm-natural-valley-3b9b14c9227ff4","name":"وادي شيوي كوجة بنجة","kind":"natural","tier":"natural","priority":180,"context":"دۆڵ · جمجمال · سلێمانی","category":"دۆڵ"},"geometry":{"type":"Point","coordinates":[44.94199,35.12243]}},{"type":"Feature","id":"osm-natural-valley-613113334934e4","properties":{"id":"osm-natural-valley-613113334934e4","name":"وادي غناغ","kind":"natural","tier":"natural","priority":180,"context":"دۆڵ · جمجمال · سلێمانی","category":"دۆڵ"},"geometry":{"type":"Point","coordinates":[44.75452,35.05337]}},{"type":"Feature","id":"osm-natural-valley-0aa75e74f20c1e","properties":{"id":"osm-natural-valley-0aa75e74f20c1e","name":"وادي قادر كرم","kind":"natural","tier":"natural","priority":180,"context":"دۆڵ · جمجمال · سلێمانی","category":"دۆڵ"},"geometry":{"type":"Point","coordinates":[44.973587,35.174458]}},{"type":"Feature","id":"osm-natural-valley-0020b7fa0a8787","properties":{"id":"osm-natural-valley-0020b7fa0a8787","name":"وادي قم","kind":"natural","tier":"natural","priority":180,"context":"دۆڵ · جمجمال · سلێمانی","category":"دۆڵ"},"geometry":{"type":"Point","coordinates":[44.94662,35.00325]}},{"type":"Feature","id":"osm-natural-valley-1be48266fa0197","properties":{"id":"osm-natural-valley-1be48266fa0197","name":"چەم قوم","kind":"natural","tier":"natural","priority":180,"context":"دۆڵ · جمجمال · سلێمانی","category":"دۆڵ"},"geometry":{"type":"Point","coordinates":[44.9465,35.004505]}},{"type":"Feature","id":"osm-natural-stream-78686f66411219","properties":{"id":"osm-natural-stream-78686f66411219","name":"چەم هەنارە","kind":"natural","tier":"natural","priority":180,"context":"جۆگە · جمجمال · سلێمانی","category":"جۆگە"},"geometry":{"type":"Point","coordinates":[44.7922691,35.1292707]}},{"type":"Feature","id":"osm-natural-stream-414cf739188a01","properties":{"id":"osm-natural-stream-414cf739188a01","name":"چەمی عەلی کەچەڵ","kind":"natural","tier":"natural","priority":180,"context":"جۆگە · جمجمال · سلێمانی","category":"جۆگە"},"geometry":{"type":"Point","coordinates":[44.8845247,35.1190339]}},{"type":"Feature","id":"road-label-osm-way-46820952","properties":{"id":"road-label-osm-way-46820952","name":"ڕێگای قادرکرم","kind":"road","tier":"road","priority":72,"context":"secondary · جمجمال · سلێمانی","category":"ڕێگا"},"geometry":{"type":"Point","coordinates":[44.894877,35.230822]}},{"type":"Feature","id":"osm-way-790960661-military","properties":{"id":"osm-way-790960661-military","name":"بەرگری و فریاکەوتن","kind":"poi","tier":"poi_regional","priority":80.045,"context":"بنکەی سەربازی","category":"بنکەی سەربازی"},"geometry":{"type":"Point","coordinates":[44.8626538,35.2173684]}},{"type":"Feature","id":"osm-way-773097881-police","properties":{"id":"osm-way-773097881-police","name":"بنکەی ئاسایشی قادرکەرەم","kind":"poi","tier":"poi_regional","priority":77.092,"context":"بنکەی پۆلیس","category":"بنکەی پۆلیس"},"geometry":{"type":"Point","coordinates":[44.8820316,35.1982766]}},{"type":"Feature","id":"osm-way-784229104-residential","properties":{"id":"osm-way-784229104-residential","name":"ئالیاوە","kind":"poi","tier":"poi_local","priority":68.045,"context":"کۆمپاوندی نیشتەجێبوون","category":"کۆمپاوندی نیشتەجێبوون"},"geometry":{"type":"Point","coordinates":[44.8586525,35.2169741]}},{"type":"Feature","id":"osm-way-733840633-residential","properties":{"id":"osm-way-733840633-residential","name":"ئاوایی جەلال","kind":"poi","tier":"poi_local","priority":68.045,"context":"کۆمپاوندی نیشتەجێبوون","category":"کۆمپاوندی نیشتەجێبوون"},"geometry":{"type":"Point","coordinates":[44.8187548,35.1084311]}},{"type":"Feature","id":"osm-way-727026709-residential","properties":{"id":"osm-way-727026709-residential","name":"ئاوایی عەلی مستەفا","kind":"poi","tier":"poi_local","priority":68.045,"context":"کۆمپاوندی نیشتەجێبوون","category":"کۆمپاوندی نیشتەجێبوون"},"geometry":{"type":"Point","coordinates":[44.7930238,35.1958696]}},{"type":"Feature","id":"osm-way-1212961982-residential","properties":{"id":"osm-way-1212961982-residential","name":"ئیبراهیم غوڵام","kind":"poi","tier":"poi_local","priority":68.045,"context":"کۆمپاوندی نیشتەجێبوون","category":"کۆمپاوندی نیشتەجێبوون"},"geometry":{"type":"Point","coordinates":[44.9149718,35.130501]}},{"type":"Feature","id":"osm-way-786365687-residential","properties":{"id":"osm-way-786365687-residential","name":"تاڵاو","kind":"poi","tier":"poi_local","priority":68.045,"context":"کۆمپاوندی نیشتەجێبوون","category":"کۆمپاوندی نیشتەجێبوون"},"geometry":{"type":"Point","coordinates":[44.7656705,35.0211958]}},{"type":"Feature","id":"osm-way-1205895950-residential","properties":{"id":"osm-way-1205895950-residential","name":"تەختەمینە","kind":"poi","tier":"poi_local","priority":68.045,"context":"کۆمپاوندی نیشتەجێبوون","category":"کۆمپاوندی نیشتەجێبوون"},"geometry":{"type":"Point","coordinates":[44.8207754,35.0372384]}},{"type":"Feature","id":"osm-way-793573045-residential","properties":{"id":"osm-way-793573045-residential","name":"تەختەمینەی خواروو","kind":"poi","tier":"poi_local","priority":68.045,"context":"کۆمپاوندی نیشتەجێبوون","category":"کۆمپاوندی نیشتەجێبوون"},"geometry":{"type":"Point","coordinates":[44.8075523,35.0269419]}},{"type":"Feature","id":"osm-way-1205896742-residential","properties":{"id":"osm-way-1205896742-residential","name":"تەختەمینەی سەروو","kind":"poi","tier":"poi_local","priority":68.045,"context":"کۆمپاوندی نیشتەجێبوون","category":"کۆمپاوندی نیشتەجێبوون"},"geometry":{"type":"Point","coordinates":[44.8290089,35.0400212]}},{"type":"Feature","id":"osm-way-786270193-residential","properties":{"id":"osm-way-786270193-residential","name":"تەڵەبی","kind":"poi","tier":"poi_local","priority":68.045,"context":"کۆمپاوندی نیشتەجێبوون","category":"کۆمپاوندی نیشتەجێبوون"},"geometry":{"type":"Point","coordinates":[44.973959,35.0537924]}},{"type":"Feature","id":"osm-way-1212966976-residential","properties":{"id":"osm-way-1212966976-residential","name":"خدرڕیحان","kind":"poi","tier":"poi_local","priority":68.045,"context":"کۆمپاوندی نیشتەجێبوون","category":"کۆمپاوندی نیشتەجێبوون"},"geometry":{"type":"Point","coordinates":[44.997345,35.235923]}},{"type":"Feature","id":"osm-way-791107497-residential","properties":{"id":"osm-way-791107497-residential","name":"دارەتوو","kind":"poi","tier":"poi_local","priority":68.045,"context":"کۆمپاوندی نیشتەجێبوون","category":"کۆمپاوندی نیشتەجێبوون"},"geometry":{"type":"Point","coordinates":[44.9464352,35.0015133]}},{"type":"Feature","id":"osm-way-783296263-residential","properties":{"id":"osm-way-783296263-residential","name":"دارەتووی زەنگەنە","kind":"poi","tier":"poi_local","priority":68.045,"context":"کۆمپاوندی نیشتەجێبوون","category":"کۆمپاوندی نیشتەجێبوون"},"geometry":{"type":"Point","coordinates":[44.9575879,35.2348197]}},{"type":"Feature","id":"osm-way-727044953-residential","properties":{"id":"osm-way-727044953-residential","name":"زەردە","kind":"poi","tier":"poi_local","priority":68.045,"context":"کۆمپاوندی نیشتەجێبوون","category":"کۆمپاوندی نیشتەجێبوون"},"geometry":{"type":"Point","coordinates":[44.7788001,35.2186581]}},{"type":"Feature","id":"osm-way-790964263-residential","properties":{"id":"osm-way-790964263-residential","name":"شاوک","kind":"poi","tier":"poi_local","priority":68.045,"context":"کۆمپاوندی نیشتەجێبوون","category":"کۆمپاوندی نیشتەجێبوون"},"geometry":{"type":"Point","coordinates":[44.9153251,35.2186619]}},{"type":"Feature","id":"osm-way-1206333520-residential","properties":{"id":"osm-way-1206333520-residential","name":"عەبدوڵڵا هۆری","kind":"poi","tier":"poi_local","priority":68.045,"context":"کۆمپاوندی نیشتەجێبوون","category":"کۆمپاوندی نیشتەجێبوون"},"geometry":{"type":"Point","coordinates":[44.9560543,35.0765006]}},{"type":"Feature","id":"osm-way-783289557-residential","properties":{"id":"osm-way-783289557-residential","name":"عەزیز بەگ","kind":"poi","tier":"poi_local","priority":68.045,"context":"کۆمپاوندی نیشتەجێبوون","category":"کۆمپاوندی نیشتەجێبوون"},"geometry":{"type":"Point","coordinates":[44.8120098,35.0688908]}},{"type":"Feature","id":"osm-way-1212964191-residential","properties":{"id":"osm-way-1212964191-residential","name":"قادرکەرەم","kind":"poi","tier":"poi_local","priority":68.045,"context":"کۆمپاوندی نیشتەجێبوون","category":"کۆمپاوندی نیشتەجێبوون"},"geometry":{"type":"Point","coordinates":[44.8894341,35.1975044]}},{"type":"Feature","id":"osm-way-1212550125-residential","properties":{"id":"osm-way-1212550125-residential","name":"قەڵامیکائیلی بچوک","kind":"poi","tier":"poi_local","priority":68.045,"context":"کۆمپاوندی نیشتەجێبوون","category":"کۆمپاوندی نیشتەجێبوون"},"geometry":{"type":"Point","coordinates":[44.9096528,35.2409422]}},{"type":"Feature","id":"osm-way-783291152-residential","properties":{"id":"osm-way-783291152-residential","name":"قەڵامیکائیلی گەورە","kind":"poi","tier":"poi_local","priority":68.045,"context":"کۆمپاوندی نیشتەجێبوون","category":"کۆمپاوندی نیشتەجێبوون"},"geometry":{"type":"Point","coordinates":[44.9318291,35.24669]}},{"type":"Feature","id":"osm-way-790966674-residential","properties":{"id":"osm-way-790966674-residential","name":"لەک هیدایەت","kind":"poi","tier":"poi_local","priority":68.045,"context":"کۆمپاوندی نیشتەجێبوون","category":"کۆمپاوندی نیشتەجێبوون"},"geometry":{"type":"Point","coordinates":[44.9612136,35.215496]}},{"type":"Feature","id":"osm-way-1205879648-residential","properties":{"id":"osm-way-1205879648-residential","name":"مامیسک","kind":"poi","tier":"poi_local","priority":68.045,"context":"کۆمپاوندی نیشتەجێبوون","category":"کۆمپاوندی نیشتەجێبوون"},"geometry":{"type":"Point","coordinates":[44.8671313,35.1211052]}},{"type":"Feature","id":"osm-way-1212472899-residential","properties":{"id":"osm-way-1212472899-residential","name":"چەم سورخاو","kind":"poi","tier":"poi_local","priority":68.045,"context":"کۆمپاوندی نیشتەجێبوون","category":"کۆمپاوندی نیشتەجێبوون"},"geometry":{"type":"Point","coordinates":[44.8793727,35.2033879]}},{"type":"Feature","id":"osm-way-1205877654-residential","properties":{"id":"osm-way-1205877654-residential","name":"ژاژ","kind":"poi","tier":"poi_local","priority":68.045,"context":"کۆمپاوندی نیشتەجێبوون","category":"کۆمپاوندی نیشتەجێبوون"},"geometry":{"type":"Point","coordinates":[44.7585804,35.1479101]}},{"type":"Feature","id":"osm-way-734112411-residential","properties":{"id":"osm-way-734112411-residential","name":"کۆرمۆری بچووک","kind":"poi","tier":"poi_local","priority":68.045,"context":"کۆمپاوندی نیشتەجێبوون","category":"کۆمپاوندی نیشتەجێبوون"},"geometry":{"type":"Point","coordinates":[44.8000438,35.1184488]}},{"type":"Feature","id":"osm-way-734110866-residential","properties":{"id":"osm-way-734110866-residential","name":"کۆرمۆری گەورە","kind":"poi","tier":"poi_local","priority":68.045,"context":"کۆمپاوندی نیشتەجێبوون","category":"کۆمپاوندی نیشتەجێبوون"},"geometry":{"type":"Point","coordinates":[44.7889903,35.1262349]}},{"type":"Feature","id":"osm-way-1206335833-residential","properties":{"id":"osm-way-1206335833-residential","name":"کەریم باسام","kind":"poi","tier":"poi_local","priority":68.045,"context":"کۆمپاوندی نیشتەجێبوون","category":"کۆمپاوندی نیشتەجێبوون"},"geometry":{"type":"Point","coordinates":[44.9835984,35.0136992]}},{"type":"Feature","id":"osm-way-220224564-industrial","properties":{"id":"osm-way-220224564-industrial","name":"پاڵاوگەی غازی کۆرمۆر","kind":"poi","tier":"poi_local","priority":66.045,"context":"ناوچەی پیشەسازی","category":"ناوچەی پیشەسازی"},"geometry":{"type":"Point","coordinates":[44.8197836,35.1320494]}},{"type":"Feature","id":"osm-way-480231875-building","properties":{"id":"osm-way-480231875-building","name":"خوێندنگەی سەرەتایی ڕۆخانە - تێکەڵ","kind":"poi","tier":"poi_detail","priority":50.055,"context":"قوتابخانە","category":"قوتابخانە"},"geometry":{"type":"Point","coordinates":[44.8836564,35.1971259]}},{"type":"Feature","id":"osm-node-8775541580-water_well","properties":{"id":"osm-node-8775541580-water_well","name":"بیر ئاو","kind":"poi","tier":"poi_detail","priority":50.1,"context":"بیری ئاو","category":"بیری ئاو"},"geometry":{"type":"Point","coordinates":[44.7788107,35.2183394]}},{"type":"Feature","id":"osm-node-8832790004-water_well","properties":{"id":"osm-node-8832790004-water_well","name":"بیر ئاو","kind":"poi","tier":"poi_detail","priority":50.1,"context":"بیری ئاو","category":"بیری ئاو"},"geometry":{"type":"Point","coordinates":[44.7788815,35.2189789]}},{"type":"Feature","id":"osm-node-8832790005-water_well","properties":{"id":"osm-node-8832790005-water_well","name":"بیر ئاو","kind":"poi","tier":"poi_detail","priority":50.1,"context":"بیری ئاو","category":"بیری ئاو"},"geometry":{"type":"Point","coordinates":[44.7786077,35.2170925]}},{"type":"Feature","id":"osm-node-8832792688-water_well","properties":{"id":"osm-node-8832792688-water_well","name":"بیر ئاو","kind":"poi","tier":"poi_detail","priority":50.1,"context":"بیری ئاو","category":"بیری ئاو"},"geometry":{"type":"Point","coordinates":[44.7789472,35.2187455]}},{"type":"Feature","id":"osm-node-8832807419-water_well","properties":{"id":"osm-node-8832807419-water_well","name":"بیر ئاو","kind":"poi","tier":"poi_detail","priority":50.1,"context":"بیری ئاو","category":"بیری ئاو"},"geometry":{"type":"Point","coordinates":[44.7790275,35.2168767]}},{"type":"Feature","id":"osm-node-8832807421-water_well","properties":{"id":"osm-node-8832807421-water_well","name":"بیر ئاو","kind":"poi","tier":"poi_detail","priority":50.1,"context":"بیری ئاو","category":"بیری ئاو"},"geometry":{"type":"Point","coordinates":[44.7787139,35.2186113]}},{"type":"Feature","id":"osm-node-8832808516-water_well","properties":{"id":"osm-node-8832808516-water_well","name":"بیر ئاو","kind":"poi","tier":"poi_detail","priority":50.1,"context":"بیری ئاو","category":"بیری ئاو"},"geometry":{"type":"Point","coordinates":[44.7782608,35.2185482]}},{"type":"Feature","id":"osm-node-5807901253-water_works","properties":{"id":"osm-node-5807901253-water_works","name":"حەماراو","kind":"poi","tier":"poi_detail","priority":50.1,"context":"پاڵاوتنەوەی ئاو","category":"پاڵاوتنەوەی ئاو"},"geometry":{"type":"Point","coordinates":[44.9559048,35.1606162]}},{"type":"Feature","id":"osm-node-9645978617-camp_site","properties":{"id":"osm-node-9645978617-camp_site","name":"پایۆنییر","kind":"poi","tier":"poi_detail","priority":50.1,"context":"کەمپینگ","category":"کەمپینگ"},"geometry":{"type":"Point","coordinates":[44.8166254,35.1228087]}},{"type":"Feature","id":"osm-node-8849838771-muslim_sunni","properties":{"id":"osm-node-8849838771-muslim_sunni","name":"شێخ حەسەنی قەرەچێوار","kind":"poi","tier":"poi_detail","priority":50.098,"context":"مزگەوت","category":"مزگەوت"},"geometry":{"type":"Point","coordinates":[44.8892145,35.1976306]}},{"type":"Feature","id":"osm-way-1481464867-graveyard","properties":{"id":"osm-way-1481464867-graveyard","name":"سەلیمە خان","kind":"poi","tier":"poi_detail","priority":50.092,"context":"قەبرستان","category":"قەبرستان"},"geometry":{"type":"Point","coordinates":[44.8344297,35.1997613]}},{"type":"Feature","id":"osm-way-764537792-pitch","properties":{"id":"osm-way-764537792-pitch","name":"یاریگای ئازادی","kind":"poi","tier":"poi_detail","priority":50.092,"context":"ناوەندی وەرزش","category":"ناوەندی وەرزش"},"geometry":{"type":"Point","coordinates":[44.8816529,35.1987533]}},{"type":"Feature","id":"osm-way-727024908-muslim_sunni","properties":{"id":"osm-way-727024908-muslim_sunni","name":"مزگەوتی زەردە","kind":"poi","tier":"poi_detail","priority":50.09,"context":"مزگەوت","category":"مزگەوت"},"geometry":{"type":"Point","coordinates":[44.7804745,35.2181599]}}]}