{"type":"FeatureCollection","features":[{"type":"Feature","id":"osm-node-2488623916","properties":{"id":"osm-node-2488623916","name":"بانەباخ","kind":"village","tier":"locality","priority":300,"context":"خانەقین · دیالە","category":"گوند"},"geometry":{"type":"Point","coordinates":[45.118209,34.444787]}},{"type":"Feature","id":"osm-node-2488624176","properties":{"id":"osm-node-2488624176","name":"تازەشار","kind":"village","tier":"locality","priority":300,"context":"کفری · دیالە","category":"گوند"},"geometry":{"type":"Point","coordinates":[45.1189176,34.4896563]}},{"type":"Feature","id":"osm-node-2488624159","properties":{"id":"osm-node-2488624159","name":"تەپە سەرای","kind":"village","tier":"locality","priority":300,"context":"کفری · دیالە","category":"گوند"},"geometry":{"type":"Point","coordinates":[45.0621491,34.4944268]}},{"type":"Feature","id":"osm-node-2488624146","properties":{"id":"osm-node-2488624146","name":"تەپە چەرمی","kind":"village","tier":"locality","priority":300,"context":"خانەقین · دیالە","category":"گوند"},"geometry":{"type":"Point","coordinates":[45.136843,34.4261]}},{"type":"Feature","id":"osm-node-2488624139","properties":{"id":"osm-node-2488624139","name":"تەپەعەلی","kind":"village","tier":"locality","priority":300,"context":"کفری · دیالە","category":"گوند"},"geometry":{"type":"Point","coordinates":[45.0315829,34.4874508]}},{"type":"Feature","id":"osm-node-2488631773","properties":{"id":"osm-node-2488631773","name":"تەپەقەوی","kind":"village","tier":"locality","priority":300,"context":"کفری · دیالە","category":"گوند"},"geometry":{"type":"Point","coordinates":[45.0035611,34.4855451]}},{"type":"Feature","id":"osm-node-2488624152","properties":{"id":"osm-node-2488624152","name":"تەپەگزن","kind":"village","tier":"locality","priority":300,"context":"خانەقین · دیالە","category":"گوند"},"geometry":{"type":"Point","coordinates":[45.0694571,34.4740431]}},{"type":"Feature","id":"osm-node-2488623966","properties":{"id":"osm-node-2488623966","name":"حاجیلەر","kind":"village","tier":"locality","priority":300,"context":"کفری · دیالە","category":"گوند"},"geometry":{"type":"Point","coordinates":[45.0980139,34.4875042]}},{"type":"Feature","id":"osm-node-2488629681","properties":{"id":"osm-node-2488629681","name":"دەکە","kind":"village","tier":"locality","priority":300,"context":"خانەقین · دیالە","category":"گوند"},"geometry":{"type":"Point","coordinates":[45.2,34.45]}},{"type":"Feature","id":"osm-node-7682149054","properties":{"id":"osm-node-7682149054","name":"دەکە براهیم بەگ","kind":"village","tier":"locality","priority":300,"context":"خانەقین · دیالە","category":"گوند"},"geometry":{"type":"Point","coordinates":[45.2469221,34.4385234]}},{"type":"Feature","id":"osm-node-2488629671","properties":{"id":"osm-node-2488629671","name":"دەکە سەرچەم","kind":"village","tier":"locality","priority":300,"context":"خانەقین · دیالە","category":"گوند"},"geometry":{"type":"Point","coordinates":[45.2164041,34.466458]}},{"type":"Feature","id":"osm-node-2488624234","properties":{"id":"osm-node-2488624234","name":"زەنگاباد","kind":"village","tier":"locality","priority":300,"context":"کفری · دیالە","category":"گوند"},"geometry":{"type":"Point","coordinates":[45.0226375,34.4594002]}},{"type":"Feature","id":"osm-node-2488624136","properties":{"id":"osm-node-2488624136","name":"سێتەپان","kind":"village","tier":"locality","priority":300,"context":"خانەقین · دیالە","category":"گوند"},"geometry":{"type":"Point","coordinates":[45.1262999,34.4661737]}},{"type":"Feature","id":"osm-node-2488624106","properties":{"id":"osm-node-2488624106","name":"شێخ باوە","kind":"village","tier":"locality","priority":300,"context":"خانەقین · دیالە","category":"گوند"},"geometry":{"type":"Point","coordinates":[45.143017,34.398464]}},{"type":"Feature","id":"osm-node-2488631730","properties":{"id":"osm-node-2488631730","name":"شێرک","kind":"village","tier":"locality","priority":300,"context":"خانەقین · دیالە","category":"گوند"},"geometry":{"type":"Point","coordinates":[45.2141449,34.4200863]}},{"type":"Feature","id":"geonames-6928380","properties":{"id":"geonames-6928380","name":"قرەبولاغ","kind":"village","tier":"locality","priority":300,"context":"کفری · دیالە","category":"گوند"},"geometry":{"type":"Point","coordinates":[45.19361,34.49426]}},{"type":"Feature","id":"osm-node-2488624079","properties":{"id":"osm-node-2488624079","name":"قوبە","kind":"village","tier":"locality","priority":300,"context":"خانەقین · دیالە","category":"گوند"},"geometry":{"type":"Point","coordinates":[45.0999982,34.448507]}},{"type":"Feature","id":"osm-node-2488624040","properties":{"id":"osm-node-2488624040","name":"قچ قرخ","kind":"village","tier":"locality","priority":300,"context":"خانەقین · دیالە","category":"گوند"},"geometry":{"type":"Point","coordinates":[45.0940326,34.4649389]}},{"type":"Feature","id":"osm-node-2488629861","properties":{"id":"osm-node-2488629861","name":"قەرەبوڵاغی براحەمە","kind":"village","tier":"locality","priority":300,"context":"کفری · دیالە","category":"گوند"},"geometry":{"type":"Point","coordinates":[45.1939713,34.4949583]}},{"type":"Feature","id":"osm-node-2488623911","properties":{"id":"osm-node-2488623911","name":"قەڵا","kind":"village","tier":"locality","priority":300,"context":"خانەقین · دیالە","category":"گوند"},"geometry":{"type":"Point","coordinates":[45.145525,34.438137]}},{"type":"Feature","id":"osm-node-2488624053","properties":{"id":"osm-node-2488624053","name":"لەلبن","kind":"village","tier":"locality","priority":300,"context":"خانەقین · دیالە","category":"گوند"},"geometry":{"type":"Point","coordinates":[45.1229925,34.4530259]}},{"type":"Feature","id":"osm-node-11299373956","properties":{"id":"osm-node-11299373956","name":"محەمەدسەلیم","kind":"village","tier":"locality","priority":300,"context":"خانەقین · دیالە","category":"گوند"},"geometry":{"type":"Point","coordinates":[45.1250004,34.4572057]}},{"type":"Feature","id":"osm-node-2488629857","properties":{"id":"osm-node-2488629857","name":"مەلا تەیب","kind":"village","tier":"locality","priority":300,"context":"خانەقین · دیالە","category":"گوند"},"geometry":{"type":"Point","coordinates":[45.2082,34.435236]}},{"type":"Feature","id":"osm-node-2488629858","properties":{"id":"osm-node-2488629858","name":"نووری مکایل","kind":"village","tier":"locality","priority":300,"context":"خانەقین · دیالە","category":"گوند"},"geometry":{"type":"Point","coordinates":[45.2332063,34.4346447]}},{"type":"Feature","id":"osm-node-7732279120","properties":{"id":"osm-node-7732279120","name":"هەنار شرین","kind":"village","tier":"locality","priority":300,"context":"خانەقین · دیالە","category":"گوند"},"geometry":{"type":"Point","coordinates":[45.0530352,34.3288827]}},{"type":"Feature","id":"osm-way-1219275774","properties":{"id":"osm-way-1219275774","name":"کۆکس","kind":"village","tier":"locality","priority":300,"context":"کفری · دیالە","category":"گوند"},"geometry":{"type":"Point","coordinates":[45.10849685751556,34.495531400000004]}},{"type":"Feature","id":"osm-node-2488624022","properties":{"id":"osm-node-2488624022","name":"کۆکەز","kind":"village","tier":"locality","priority":300,"context":"کفری · دیالە","category":"گوند"},"geometry":{"type":"Point","coordinates":[45.1077588,34.4952246]}},{"type":"Feature","id":"osm-node-2488631233","properties":{"id":"osm-node-2488631233","name":"کەشکۆڵ تازە - جەمیل بەگ","kind":"village","tier":"locality","priority":300,"context":"کفری · دیالە","category":"گوند"},"geometry":{"type":"Point","coordinates":[45.0040852,34.3947049]}},{"type":"Feature","id":"osm-node-2488624016","properties":{"id":"osm-node-2488624016","name":"کەند سوور","kind":"village","tier":"locality","priority":300,"context":"خانەقین · دیالە","category":"گوند"},"geometry":{"type":"Point","coordinates":[45.139499,34.413653]}},{"type":"Feature","id":"osm-node-2480140134","properties":{"id":"osm-node-2480140134","name":"که رکی یه کیتی","kind":"hamlet","tier":"locality","priority":250,"context":"خانەقین · دیالە","category":"گوندۆکە"},"geometry":{"type":"Point","coordinates":[45.165331,34.269999]}},{"type":"Feature","id":"osm-node-2488631871","properties":{"id":"osm-node-2488631871","name":"چەم سیسەبانە","kind":"locality","tier":"locality","priority":200,"context":"کفری · دیالە","category":"شوێنی ناوخۆیی"},"geometry":{"type":"Point","coordinates":[45.0023308,34.4010348]}},{"type":"Feature","id":"osm-natural-stream-791a04929b888b","properties":{"id":"osm-natural-stream-791a04929b888b","name":"Kordava Qara Bulan","kind":"natural","tier":"natural","priority":180,"context":"جۆگە · خانەقین · دیالە","category":"جۆگە"},"geometry":{"type":"Point","coordinates":[45.19639,34.49472]}},{"type":"Feature","id":"osm-natural-water_well-03729eafe48a73","properties":{"id":"osm-natural-water_well-03729eafe48a73","name":"Saddah","kind":"natural","tier":"natural","priority":180,"context":"بیری ئاو · خانەقین · دیالە","category":"بیری ئاو"},"geometry":{"type":"Point","coordinates":[45.04861,34.325]}},{"type":"Feature","id":"osm-natural-hill-4bc4c63f2e488a","properties":{"id":"osm-natural-hill-4bc4c63f2e488a","name":"Tall al Mansur","kind":"natural","tier":"natural","priority":180,"context":"گرد · خانەقین · دیالە","category":"گرد"},"geometry":{"type":"Point","coordinates":[45.18333,34.3]}},{"type":"Feature","id":"osm-natural-stream-f496c07af90fb2","properties":{"id":"osm-natural-stream-f496c07af90fb2","name":"culvert","kind":"natural","tier":"natural","priority":180,"context":"جۆگە · خانەقین · دیالە","category":"جۆگە"},"geometry":{"type":"Point","coordinates":[45.2135832,34.4930696]}},{"type":"Feature","id":"osm-natural-hill-02ac96fccd6e2c","properties":{"id":"osm-natural-hill-02ac96fccd6e2c","name":"تل ابيض","kind":"natural","tier":"natural","priority":180,"context":"گرد · خانەقین · دیالە","category":"گرد"},"geometry":{"type":"Point","coordinates":[45.11037,34.28805]}},{"type":"Feature","id":"osm-natural-hill-9f3a7e1b87fad2","properties":{"id":"osm-natural-hill-9f3a7e1b87fad2","name":"تل الغزال","kind":"natural","tier":"natural","priority":180,"context":"گرد · خانەقین · دیالە","category":"گرد"},"geometry":{"type":"Point","coordinates":[45.24928,34.27203]}},{"type":"Feature","id":"osm-natural-hill-9aecebfd507d19","properties":{"id":"osm-natural-hill-9aecebfd507d19","name":"تل تيلانه","kind":"natural","tier":"natural","priority":180,"context":"گرد · کفری · دیالە","category":"گرد"},"geometry":{"type":"Point","coordinates":[45.08057,34.43135]}},{"type":"Feature","id":"osm-natural-hill-c0b0f965c1435e","properties":{"id":"osm-natural-hill-c0b0f965c1435e","name":"تل سحر","kind":"natural","tier":"natural","priority":180,"context":"گرد · خانەقین · دیالە","category":"گرد"},"geometry":{"type":"Point","coordinates":[45.07147,34.30152]}},{"type":"Feature","id":"osm-natural-hill-d4e0ab04610857","properties":{"id":"osm-natural-hill-d4e0ab04610857","name":"تل منجل","kind":"natural","tier":"natural","priority":180,"context":"گرد · خانەقین · دیالە","category":"گرد"},"geometry":{"type":"Point","coordinates":[45.21573,34.37205]}},{"type":"Feature","id":"osm-natural-mountain-df5c41a5518351","properties":{"id":"osm-natural-mountain-df5c41a5518351","name":"جبل جبه","kind":"natural","tier":"natural","priority":180,"context":"شاخ · خانەقین · دیالە","category":"شاخ"},"geometry":{"type":"Point","coordinates":[45.11978,34.37629]}},{"type":"Feature","id":"osm-natural-mountain-6744ceda82ad56","properties":{"id":"osm-natural-mountain-6744ceda82ad56","name":"جبل جبه داغ","kind":"natural","tier":"natural","priority":180,"context":"شاخ · خانەقین · دیالە","category":"شاخ"},"geometry":{"type":"Point","coordinates":[45.07811,34.37743]}},{"type":"Feature","id":"osm-natural-hill-53b2462a6c121a","properties":{"id":"osm-natural-hill-53b2462a6c121a","name":"جبل حسبة","kind":"natural","tier":"natural","priority":180,"context":"گرد · خانەقین · دیالە","category":"گرد"},"geometry":{"type":"Point","coordinates":[45.13574,34.3425]}},{"type":"Feature","id":"osm-natural-hill-e95f9790fc308f","properties":{"id":"osm-natural-hill-e95f9790fc308f","name":"جبل حلوان","kind":"natural","tier":"natural","priority":180,"context":"گرد · خانەقین · دیالە","category":"گرد"},"geometry":{"type":"Point","coordinates":[45.19411,34.34127]}},{"type":"Feature","id":"osm-natural-stream-bc39aeaeedb483","properties":{"id":"osm-natural-stream-bc39aeaeedb483","name":"جدول قرة بتاع","kind":"natural","tier":"natural","priority":180,"context":"جۆگە · خانەقین · دیالە","category":"جۆگە"},"geometry":{"type":"Point","coordinates":[45.0995183,34.4455328]}},{"type":"Feature","id":"osm-natural-stream-0851774520c6ff","properties":{"id":"osm-natural-stream-0851774520c6ff","name":"جدول كوردرة","kind":"natural","tier":"natural","priority":180,"context":"جۆگە · خانەقین · دیالە","category":"جۆگە"},"geometry":{"type":"Point","coordinates":[45.2284251,34.416637]}},{"type":"Feature","id":"osm-natural-stream-7c1a4d99798b29","properties":{"id":"osm-natural-stream-7c1a4d99798b29","name":"كرد علي كومر","kind":"natural","tier":"natural","priority":180,"context":"جۆگە · خانەقین · دیالە","category":"جۆگە"},"geometry":{"type":"Point","coordinates":[45.2138692,34.4961738]}},{"type":"Feature","id":"osm-natural-stream-fb2870868f1ad1","properties":{"id":"osm-natural-stream-fb2870868f1ad1","name":"نهر الوند","kind":"natural","tier":"natural","priority":180,"context":"جۆگە · خانەقین · دیالە","category":"جۆگە"},"geometry":{"type":"Point","coordinates":[45.1775032,34.3231986]}},{"type":"Feature","id":"osm-natural-stream-3db8a526ad768a","properties":{"id":"osm-natural-stream-3db8a526ad768a","name":"نهر قره يتاغ","kind":"natural","tier":"natural","priority":180,"context":"جۆگە · کفری · دیالە","category":"جۆگە"},"geometry":{"type":"Point","coordinates":[45.01097,34.44825]}},{"type":"Feature","id":"osm-natural-wetland-ffb51e1dfcbb5f","properties":{"id":"osm-natural-wetland-ffb51e1dfcbb5f","name":"هور ابراهيم السمين","kind":"natural","tier":"natural","priority":180,"context":"زەوی تەڕ · کفری · دیالە","category":"زەوی تەڕ"},"geometry":{"type":"Point","coordinates":[45.02506,34.49784]}},{"type":"Feature","id":"osm-natural-valley-671a702c1abd9f","properties":{"id":"osm-natural-valley-671a702c1abd9f","name":"وادي الشوك","kind":"natural","tier":"natural","priority":180,"context":"دۆڵ · کفری · دیالە","category":"دۆڵ"},"geometry":{"type":"Point","coordinates":[45.03028,34.35781]}},{"type":"Feature","id":"osm-natural-valley-2ec87b38a18805","properties":{"id":"osm-natural-valley-2ec87b38a18805","name":"وادي بزل","kind":"natural","tier":"natural","priority":180,"context":"دۆڵ · خانەقین · دیالە","category":"دۆڵ"},"geometry":{"type":"Point","coordinates":[45.07514,34.48174]}},{"type":"Feature","id":"osm-natural-stream-7e9c246a058a8d","properties":{"id":"osm-natural-stream-7e9c246a058a8d","name":"وادي بيانلو","kind":"natural","tier":"natural","priority":180,"context":"جۆگە · خانەقین · دیالە","category":"جۆگە"},"geometry":{"type":"Point","coordinates":[45.1741404,34.4402842]}},{"type":"Feature","id":"osm-natural-stream-e60d07af50433d","properties":{"id":"osm-natural-stream-e60d07af50433d","name":"وادي حاجي سمين","kind":"natural","tier":"natural","priority":180,"context":"جۆگە · خانەقین · دیالە","category":"جۆگە"},"geometry":{"type":"Point","coordinates":[45.1668931,34.436653]}},{"type":"Feature","id":"osm-natural-valley-adff1bc2f84fc2","properties":{"id":"osm-natural-valley-adff1bc2f84fc2","name":"وادي سيسبانه","kind":"natural","tier":"natural","priority":180,"context":"دۆڵ · کفری · دیالە","category":"دۆڵ"},"geometry":{"type":"Point","coordinates":[45.00246,34.401]}},{"type":"Feature","id":"osm-natural-stream-75fbae0c9cb8c6","properties":{"id":"osm-natural-stream-75fbae0c9cb8c6","name":"وادي فدهم","kind":"natural","tier":"natural","priority":180,"context":"جۆگە · خانەقین · دیالە","category":"جۆگە"},"geometry":{"type":"Point","coordinates":[45.17729,34.35992]}},{"type":"Feature","id":"road-label-osm-way-26356275","properties":{"id":"road-label-osm-way-26356275","name":"پردی گوڵاڵە","kind":"road","tier":"road","priority":95,"context":"trunk · خانەقین · دیالە","category":"ڕێگا"},"geometry":{"type":"Point","coordinates":[45.155924,34.286145]}},{"type":"Feature","id":"road-label-osm-way-750624427","properties":{"id":"road-label-osm-way-750624427","name":"ڕێگای گوڵاڵە - کەلار","kind":"road","tier":"road","priority":95,"context":"trunk · خانەقین · دیالە","category":"ڕێگا"},"geometry":{"type":"Point","coordinates":[45.164419,34.367698]}},{"type":"Feature","id":"road-label-osm-way-1329813900","properties":{"id":"road-label-osm-way-1329813900","name":"ڕێگای گوڵاڵە - قەرەتەپە","kind":"road","tier":"road","priority":88,"context":"primary · خانەقین · دیالە","category":"ڕێگا"},"geometry":{"type":"Point","coordinates":[45.077895,34.341895]}},{"type":"Feature","id":"osm-node-4397752891-hospital","properties":{"id":"osm-node-4397752891-hospital","name":"مستشفی جلولاء","kind":"poi","tier":"poi_landmark","priority":95.1,"context":"نەخۆشخانە","category":"نەخۆشخانە"},"geometry":{"type":"Point","coordinates":[45.1592816,34.2648382]}},{"type":"Feature","id":"osm-node-11949532669-bank","properties":{"id":"osm-node-11949532669-bank","name":"برج جلولاء","kind":"poi","tier":"poi_landmark","priority":92.1,"context":"بانک","category":"بانک"},"geometry":{"type":"Point","coordinates":[45.1647981,34.2642227]}},{"type":"Feature","id":"osm-node-11778541385-attraction","properties":{"id":"osm-node-11778541385-attraction","name":"Jalawla Junction","kind":"poi","tier":"poi_detail","priority":50.1,"context":"شوێنی گەشتیاری","category":"شوێنی گەشتیاری"},"geometry":{"type":"Point","coordinates":[45.1663807,34.286655]}},{"type":"Feature","id":"osm-node-9481736917-attraction","properties":{"id":"osm-node-9481736917-attraction","name":"ئوم حومطه","kind":"poi","tier":"poi_detail","priority":50.1,"context":"شوێنی گەشتیاری","category":"شوێنی گەشتیاری"},"geometry":{"type":"Point","coordinates":[45.1624071,34.4153954]}},{"type":"Feature","id":"osm-node-4398135890-attraction","properties":{"id":"osm-node-4398135890-attraction","name":"حی الخضراء","kind":"poi","tier":"poi_detail","priority":50.1,"context":"شوێنی گەشتیاری","category":"شوێنی گەشتیاری"},"geometry":{"type":"Point","coordinates":[45.1610266,34.2908668]}},{"type":"Feature","id":"osm-node-4397752695-attraction","properties":{"id":"osm-node-4397752695-attraction","name":"حی الشهداء","kind":"poi","tier":"poi_detail","priority":50.1,"context":"شوێنی گەشتیاری","category":"شوێنی گەشتیاری"},"geometry":{"type":"Point","coordinates":[45.1690818,34.2810306]}},{"type":"Feature","id":"osm-node-4512548189-attraction","properties":{"id":"osm-node-4512548189-attraction","name":"حی الشهداء","kind":"poi","tier":"poi_detail","priority":50.1,"context":"شوێنی گەشتیاری","category":"شوێنی گەشتیاری"},"geometry":{"type":"Point","coordinates":[45.1739375,34.2776775]}},{"type":"Feature","id":"osm-node-4398103891-attraction","properties":{"id":"osm-node-4398103891-attraction","name":"حی العروبە","kind":"poi","tier":"poi_detail","priority":50.1,"context":"شوێنی گەشتیاری","category":"شوێنی گەشتیاری"},"geometry":{"type":"Point","coordinates":[45.1675447,34.277513]}},{"type":"Feature","id":"osm-node-4409264191-attraction","properties":{"id":"osm-node-4409264191-attraction","name":"دور الضباط","kind":"poi","tier":"poi_detail","priority":50.1,"context":"شوێنی گەشتیاری","category":"شوێنی گەشتیاری"},"geometry":{"type":"Point","coordinates":[45.1624331,34.2829115]}},{"type":"Feature","id":"osm-node-7101102385-attraction","properties":{"id":"osm-node-7101102385-attraction","name":"سفرتنا","kind":"poi","tier":"poi_detail","priority":50.1,"context":"شوێنی گەشتیاری","category":"شوێنی گەشتیاری"},"geometry":{"type":"Point","coordinates":[45.2112136,34.3260056]}},{"type":"Feature","id":"osm-node-6412676586-attraction","properties":{"id":"osm-node-6412676586-attraction","name":"سفرە خانقین","kind":"poi","tier":"poi_detail","priority":50.1,"context":"شوێنی گەشتیاری","category":"شوێنی گەشتیاری"},"geometry":{"type":"Point","coordinates":[45.2065467,34.3191397]}},{"type":"Feature","id":"osm-node-4761656826-attraction","properties":{"id":"osm-node-4761656826-attraction","name":"قریە حصینی","kind":"poi","tier":"poi_detail","priority":50.1,"context":"شوێنی گەشتیاری","category":"شوێنی گەشتیاری"},"geometry":{"type":"Point","coordinates":[45.1608754,34.3077235]}},{"type":"Feature","id":"osm-node-4942371421-attraction","properties":{"id":"osm-node-4942371421-attraction","name":"قرە غان","kind":"poi","tier":"poi_detail","priority":50.1,"context":"شوێنی گەشتیاری","category":"شوێنی گەشتیاری"},"geometry":{"type":"Point","coordinates":[45.1692503,34.2736065]}},{"type":"Feature","id":"osm-node-7791143686-attraction","properties":{"id":"osm-node-7791143686-attraction","name":"هناسە که م","kind":"poi","tier":"poi_detail","priority":50.1,"context":"شوێنی گەشتیاری","category":"شوێنی گەشتیاری"},"geometry":{"type":"Point","coordinates":[45.1623835,34.2704887]}},{"type":"Feature","id":"osm-way-1419406643-archaeological","properties":{"id":"osm-way-1419406643-archaeological","name":"Tell Yelkhi","kind":"poi","tier":"poi_detail","priority":50.092,"context":"شوێنی شوێنەوار","category":"شوێنی شوێنەوار"},"geometry":{"type":"Point","coordinates":[45.0016583,34.2856652]}},{"type":"Feature","id":"osm-node-4409324989-fuel","properties":{"id":"osm-node-4409324989-fuel","name":"بانزیخانه العسکری","kind":"poi","tier":"poi_regional","priority":82.094,"context":"وێستگەی سووتەمەنی","category":"وێستگەی سووتەمەنی"},"geometry":{"type":"Point","coordinates":[45.1662796,34.2888058]}},{"type":"Feature","id":"osm-node-4684758989-fuel","properties":{"id":"osm-node-4684758989-fuel","name":"محطە وقود مفرق قرەتبە","kind":"poi","tier":"poi_regional","priority":82.094,"context":"وێستگەی سووتەمەنی","category":"وێستگەی سووتەمەنی"},"geometry":{"type":"Point","coordinates":[45.0117,34.4515137]}},{"type":"Feature","id":"osm-way-1516187086-fuel","properties":{"id":"osm-way-1516187086-fuel","name":"محطە وقود الشمالیە","kind":"poi","tier":"poi_regional","priority":82.086,"context":"وێستگەی سووتەمەنی","category":"وێستگەی سووتەمەنی"},"geometry":{"type":"Point","coordinates":[45.0150603,34.4399596]}},{"type":"Feature","id":"osm-node-5345595723-bus_station","properties":{"id":"osm-node-5345595723-bus_station","name":"گراج کلار","kind":"poi","tier":"poi_regional","priority":80.096,"context":"وێستگەی پاس","category":"وێستگەی پاس"},"geometry":{"type":"Point","coordinates":[45.1693034,34.2755601]}},{"type":"Feature","id":"osm-node-5500564023-police","properties":{"id":"osm-node-5500564023-police","name":"سیطرە جسر جلولاء","kind":"poi","tier":"poi_regional","priority":77.1,"context":"بنکەی پۆلیس","category":"بنکەی پۆلیس"},"geometry":{"type":"Point","coordinates":[45.1616745,34.2878211]}},{"type":"Feature","id":"osm-way-822690303-residential","properties":{"id":"osm-way-822690303-residential","name":"بان سندوق","kind":"poi","tier":"poi_local","priority":68.045,"context":"کۆمپاوندی نیشتەجێبوون","category":"کۆمپاوندی نیشتەجێبوون"},"geometry":{"type":"Point","coordinates":[45.1458323,34.4767025]}},{"type":"Feature","id":"osm-way-1217728808-residential","properties":{"id":"osm-way-1217728808-residential","name":"تەپەقەوی","kind":"poi","tier":"poi_local","priority":68.045,"context":"کۆمپاوندی نیشتەجێبوون","category":"کۆمپاوندی نیشتەجێبوون"},"geometry":{"type":"Point","coordinates":[45.0034039,34.4855277]}},{"type":"Feature","id":"osm-way-1217726546-residential","properties":{"id":"osm-way-1217726546-residential","name":"سیتەپان","kind":"poi","tier":"poi_local","priority":68.045,"context":"کۆمپاوندی نیشتەجێبوون","category":"کۆمپاوندی نیشتەجێبوون"},"geometry":{"type":"Point","coordinates":[45.1264618,34.4650671]}},{"type":"Feature","id":"osm-way-1219461547-residential","properties":{"id":"osm-way-1219461547-residential","name":"قوبە","kind":"poi","tier":"poi_local","priority":68.045,"context":"کۆمپاوندی نیشتەجێبوون","category":"کۆمپاوندی نیشتەجێبوون"},"geometry":{"type":"Point","coordinates":[45.0995331,34.4482625]}},{"type":"Feature","id":"osm-way-1217727229-residential","properties":{"id":"osm-way-1217727229-residential","name":"قچ قرخ","kind":"poi","tier":"poi_local","priority":68.045,"context":"کۆمپاوندی نیشتەجێبوون","category":"کۆمپاوندی نیشتەجێبوون"},"geometry":{"type":"Point","coordinates":[45.0936818,34.465038]}},{"type":"Feature","id":"osm-way-1217724317-residential","properties":{"id":"osm-way-1217724317-residential","name":"قەرەبوڵاغی براحەمە","kind":"poi","tier":"poi_local","priority":68.045,"context":"کۆمپاوندی نیشتەجێبوون","category":"کۆمپاوندی نیشتەجێبوون"},"geometry":{"type":"Point","coordinates":[45.194073,34.494778]}},{"type":"Feature","id":"osm-way-1217725626-residential","properties":{"id":"osm-way-1217725626-residential","name":"لەلبن","kind":"poi","tier":"poi_local","priority":68.045,"context":"کۆمپاوندی نیشتەجێبوون","category":"کۆمپاوندی نیشتەجێبوون"},"geometry":{"type":"Point","coordinates":[45.1233762,34.4532508]}},{"type":"Feature","id":"osm-way-1219460118-residential","properties":{"id":"osm-way-1219460118-residential","name":"محەمەدسەلیم","kind":"poi","tier":"poi_local","priority":68.045,"context":"کۆمپاوندی نیشتەجێبوون","category":"کۆمپاوندی نیشتەجێبوون"},"geometry":{"type":"Point","coordinates":[45.1249783,34.4572256]}},{"type":"Feature","id":"osm-way-827811833-residential","properties":{"id":"osm-way-827811833-residential","name":"کوڵەجۆ","kind":"poi","tier":"poi_local","priority":68.045,"context":"کۆمپاوندی نیشتەجێبوون","category":"کۆمپاوندی نیشتەجێبوون"},"geometry":{"type":"Point","coordinates":[45.1657833,34.4631134]}},{"type":"Feature","id":"osm-way-827811834-residential","properties":{"id":"osm-way-827811834-residential","name":"کوڵەجۆ","kind":"poi","tier":"poi_local","priority":68.045,"context":"کۆمپاوندی نیشتەجێبوون","category":"کۆمپاوندی نیشتەجێبوون"},"geometry":{"type":"Point","coordinates":[45.1626412,34.4651691]}},{"type":"Feature","id":"osm-node-4409324889-supermarket","properties":{"id":"osm-node-4409324889-supermarket","name":"السوق","kind":"poi","tier":"poi_detail","priority":50.1,"context":"سۆپەرمارکێت","category":"سۆپەرمارکێت"},"geometry":{"type":"Point","coordinates":[45.1623439,34.2718701]}},{"type":"Feature","id":"osm-node-4397747797-school","properties":{"id":"osm-node-4397747797-school","name":"خالد بن الولید","kind":"poi","tier":"poi_detail","priority":50.1,"context":"قوتابخانە","category":"قوتابخانە"},"geometry":{"type":"Point","coordinates":[45.1671419,34.2797305]}},{"type":"Feature","id":"osm-node-13822817052-marketplace","properties":{"id":"osm-node-13822817052-marketplace","name":"دکان صغیر فی قریە الجمیلە","kind":"poi","tier":"poi_detail","priority":50.1,"context":"بازاڕ","category":"بازاڕ"},"geometry":{"type":"Point","coordinates":[45.0542008,34.3249415]}},{"type":"Feature","id":"osm-node-4397726297-school","properties":{"id":"osm-node-4397726297-school","name":"روضە الاقحوان","kind":"poi","tier":"poi_detail","priority":50.1,"context":"قوتابخانە","category":"قوتابخانە"},"geometry":{"type":"Point","coordinates":[45.1640516,34.276823]}},{"type":"Feature","id":"osm-node-4585456094-supermarket","properties":{"id":"osm-node-4585456094-supermarket","name":"سوق جلولاء الرئیسی","kind":"poi","tier":"poi_detail","priority":50.1,"context":"سۆپەرمارکێت","category":"سۆپەرمارکێت"},"geometry":{"type":"Point","coordinates":[45.1623637,34.2734446]}},{"type":"Feature","id":"osm-node-4398135689-school","properties":{"id":"osm-node-4398135689-school","name":"مدرسە الثریا","kind":"poi","tier":"poi_detail","priority":50.1,"context":"قوتابخانە","category":"قوتابخانە"},"geometry":{"type":"Point","coordinates":[45.1680225,34.2782712]}},{"type":"Feature","id":"osm-node-8737382619-school","properties":{"id":"osm-node-8737382619-school","name":"مدرسە ریبر الابتدائیە","kind":"poi","tier":"poi_detail","priority":50.1,"context":"قوتابخانە","category":"قوتابخانە"},"geometry":{"type":"Point","coordinates":[45.2426632,34.3653576]}},{"type":"Feature","id":"osm-node-2485249673-school","properties":{"id":"osm-node-2485249673-school","name":"مدرسە میسان","kind":"poi","tier":"poi_detail","priority":50.1,"context":"قوتابخانە","category":"قوتابخانە"},"geometry":{"type":"Point","coordinates":[45.032911,34.349754]}},{"type":"Feature","id":"osm-node-7680989987-restaurant","properties":{"id":"osm-node-7680989987-restaurant","name":"مطعم محمود","kind":"poi","tier":"poi_detail","priority":50.1,"context":"چێشتخانە","category":"چێشتخانە"},"geometry":{"type":"Point","coordinates":[45.1680495,34.281287]}},{"type":"Feature","id":"osm-way-1295989261-school","properties":{"id":"osm-way-1295989261-school","name":"قوتابخانەی گوڵەجۆ","kind":"poi","tier":"poi_detail","priority":50.092,"context":"قوتابخانە","category":"قوتابخانە"},"geometry":{"type":"Point","coordinates":[45.1663899,34.4674322]}},{"type":"Feature","id":"osm-node-3037622697-park","properties":{"id":"osm-node-3037622697-park","name":"Kobashi mountain","kind":"poi","tier":"poi_detail","priority":50.1,"context":"پارک","category":"پارک"},"geometry":{"type":"Point","coordinates":[45.1425851,34.2986129]}},{"type":"Feature","id":"osm-node-5345595722-bakery","properties":{"id":"osm-node-5345595722-bakery","name":"افران صمون الاریاف","kind":"poi","tier":"poi_detail","priority":50.1,"context":"نانەواخانە","category":"نانەواخانە"},"geometry":{"type":"Point","coordinates":[45.1683202,34.2752496]}},{"type":"Feature","id":"osm-node-2488630636-graveyard","properties":{"id":"osm-node-2488630636-graveyard","name":"الامام المقداد","kind":"poi","tier":"poi_detail","priority":50.1,"context":"قەبرستان","category":"قەبرستان"},"geometry":{"type":"Point","coordinates":[45.176151,34.372092]}},{"type":"Feature","id":"osm-node-7855668886-cafe","properties":{"id":"osm-node-7855668886-cafe","name":"اماسی","kind":"poi","tier":"poi_detail","priority":50.1,"context":"کافێ","category":"کافێ"},"geometry":{"type":"Point","coordinates":[45.1644314,34.2713743]}},{"type":"Feature","id":"osm-node-9885372517-viewpoint","properties":{"id":"osm-node-9885372517-viewpoint","name":"بازکەی بیشمەرکە","kind":"poi","tier":"poi_detail","priority":50.1,"context":"شوێنی سەیران","category":"شوێنی سەیران"},"geometry":{"type":"Point","coordinates":[45.1479855,34.4459063]}},{"type":"Feature","id":"osm-node-4936710022-caravan_site","properties":{"id":"osm-node-4936710022-caravan_site","name":"حمید الابرش","kind":"poi","tier":"poi_detail","priority":50.1,"context":"شوێنی کاراڤان","category":"شوێنی کاراڤان"},"geometry":{"type":"Point","coordinates":[45.168219,34.2708342]}},{"type":"Feature","id":"osm-node-4761656827-viewpoint","properties":{"id":"osm-node-4761656827-viewpoint","name":"سیطرە النقشبندی","kind":"poi","tier":"poi_detail","priority":50.1,"context":"شوێنی سەیران","category":"شوێنی سەیران"},"geometry":{"type":"Point","coordinates":[45.1659219,34.3255977]}},{"type":"Feature","id":"osm-node-4397767989-artwork","properties":{"id":"osm-node-4397767989-artwork","name":"شط الصغیر","kind":"poi","tier":"poi_detail","priority":50.1,"context":"هونەری گشتی","category":"هونەری گشتی"},"geometry":{"type":"Point","coordinates":[45.1605005,34.2742764]}},{"type":"Feature","id":"osm-node-4333903090-memorial","properties":{"id":"osm-node-4333903090-memorial","name":"طارق مداد","kind":"poi","tier":"poi_detail","priority":50.1,"context":"یادەوەری","category":"یادەوەری"},"geometry":{"type":"Point","coordinates":[45.1522566,34.2517417]}},{"type":"Feature","id":"osm-node-4775086322-viewpoint","properties":{"id":"osm-node-4775086322-viewpoint","name":"قطعە الجامع ونقطە البیشمرکە","kind":"poi","tier":"poi_detail","priority":50.1,"context":"شوێنی سەیران","category":"شوێنی سەیران"},"geometry":{"type":"Point","coordinates":[45.0480873,34.3662218]}},{"type":"Feature","id":"osm-node-7800634485-courthouse","properties":{"id":"osm-node-7800634485-courthouse","name":"محمکە جلولاء","kind":"poi","tier":"poi_detail","priority":50.1,"context":"دادگا","category":"دادگا"},"geometry":{"type":"Point","coordinates":[45.1584478,34.2669622]}},{"type":"Feature","id":"osm-node-4775091521-viewpoint","properties":{"id":"osm-node-4775091521-viewpoint","name":"مدخل سیف سعد","kind":"poi","tier":"poi_detail","priority":50.1,"context":"شوێنی سەیران","category":"شوێنی سەیران"},"geometry":{"type":"Point","coordinates":[45.0127148,34.4187183]}},{"type":"Feature","id":"osm-node-4398136589-drinking_water","properties":{"id":"osm-node-4398136589-drinking_water","name":"مشروع الماء","kind":"poi","tier":"poi_detail","priority":50.1,"context":"ئاوی خواردنەوە","category":"ئاوی خواردنەوە"},"geometry":{"type":"Point","coordinates":[45.1713437,34.278368]}},{"type":"Feature","id":"osm-node-9673091052-post_office","properties":{"id":"osm-node-9673091052-post_office","name":"مکتب برید جلولاء","kind":"poi","tier":"poi_detail","priority":50.1,"context":"پۆستە","category":"پۆستە"},"geometry":{"type":"Point","coordinates":[45.163744,34.27738]}},{"type":"Feature","id":"osm-node-8284451618-caravan_site","properties":{"id":"osm-node-8284451618-caravan_site","name":"واثف","kind":"poi","tier":"poi_detail","priority":50.1,"context":"شوێنی کاراڤان","category":"شوێنی کاراڤان"},"geometry":{"type":"Point","coordinates":[45.1831225,34.2755773]}},{"type":"Feature","id":"osm-node-5345595724-car_rental","properties":{"id":"osm-node-5345595724-car_rental","name":"کمالیات سید رائد","kind":"poi","tier":"poi_detail","priority":50.1,"context":"کرێی ئۆتۆمبیل","category":"کرێی ئۆتۆمبیل"},"geometry":{"type":"Point","coordinates":[45.1685887,34.2753318]}},{"type":"Feature","id":"osm-way-326407753-pitch","properties":{"id":"osm-way-326407753-pitch","name":"Football ground","kind":"poi","tier":"poi_detail","priority":50.092,"context":"ناوەندی وەرزش","category":"ناوەندی وەرزش"},"geometry":{"type":"Point","coordinates":[45.1642528,34.2810234]}},{"type":"Feature","id":"osm-way-927990742-park","properties":{"id":"osm-way-927990742-park","name":"حدیقە حی الشرطە","kind":"poi","tier":"poi_detail","priority":50.092,"context":"پارک","category":"پارک"},"geometry":{"type":"Point","coordinates":[45.1796624,34.2776207]}},{"type":"Feature","id":"osm-way-1516077965-graveyard","properties":{"id":"osm-way-1516077965-graveyard","name":"مقبرە الرحمە فی کشکول","kind":"poi","tier":"poi_detail","priority":50.092,"context":"قەبرستان","category":"قەبرستان"},"geometry":{"type":"Point","coordinates":[45.0378327,34.3718232]}},{"type":"Feature","id":"osm-way-332684014-parking","properties":{"id":"osm-way-332684014-parking","name":"Car park","kind":"poi","tier":"poi_detail","priority":50.086,"context":"پارکینگ","category":"پارکینگ"},"geometry":{"type":"Point","coordinates":[45.1672944,34.284234]}}]}