{"type":"FeatureCollection","features":[{"type":"Feature","id":"osm-node-2488623906","properties":{"id":"osm-node-2488623906","name":"ئاوبارە","kind":"village","tier":"locality","priority":300,"context":"کفری · دیالە","category":"گوند"},"geometry":{"type":"Point","coordinates":[45.1563281,34.5197727]}},{"type":"Feature","id":"osm-node-11269943087","properties":{"id":"osm-node-11269943087","name":"ئەوڵاقوت","kind":"village","tier":"locality","priority":300,"context":"کفری · دیالە","category":"گوند"},"geometry":{"type":"Point","coordinates":[45.1519343,34.6908883]}},{"type":"Feature","id":"osm-node-13822860118","properties":{"id":"osm-node-13822860118","name":"الدهلکیە - دەهلەکی","kind":"village","tier":"locality","priority":300,"context":"کفری · دیالە","category":"گوند"},"geometry":{"type":"Point","coordinates":[45.0501629,34.5339242]}},{"type":"Feature","id":"osm-node-11299336697","properties":{"id":"osm-node-11299336697","name":"جەدیدە","kind":"village","tier":"locality","priority":300,"context":"کفری · دیالە","category":"گوند"},"geometry":{"type":"Point","coordinates":[45.0861044,34.5085755]}},{"type":"Feature","id":"osm-node-2488631329","properties":{"id":"osm-node-2488631329","name":"حاجی حەسەن","kind":"village","tier":"locality","priority":300,"context":"کفری · دیالە","category":"گوند"},"geometry":{"type":"Point","coordinates":[45.1269403,34.5470189]}},{"type":"Feature","id":"osm-node-2489367994","properties":{"id":"osm-node-2489367994","name":"حوسێن کوردی","kind":"village","tier":"locality","priority":300,"context":"کفری · دیالە","category":"گوند"},"geometry":{"type":"Point","coordinates":[45.1727379,34.6156437]}},{"type":"Feature","id":"osm-node-11269958554","properties":{"id":"osm-node-11269958554","name":"حەسیرە","kind":"village","tier":"locality","priority":300,"context":"کفری · دیالە","category":"گوند"},"geometry":{"type":"Point","coordinates":[45.1505204,34.7443901]}},{"type":"Feature","id":"geonames-7405867","properties":{"id":"geonames-7405867","name":"خر پونگە","kind":"village","tier":"locality","priority":300,"context":"کفری · دیالە","category":"گوند"},"geometry":{"type":"Point","coordinates":[45.20607,34.70803]}},{"type":"Feature","id":"osm-node-2488624028","properties":{"id":"osm-node-2488624028","name":"خیاڵ","kind":"village","tier":"locality","priority":300,"context":"کفری · دیالە","category":"گوند"},"geometry":{"type":"Point","coordinates":[45.0488216,34.5050061]}},{"type":"Feature","id":"osm-node-10720413677","properties":{"id":"osm-node-10720413677","name":"دوانگزە ئیمام","kind":"village","tier":"locality","priority":300,"context":"کفری · دیالە","category":"گوند"},"geometry":{"type":"Point","coordinates":[45.0097972,34.636481]}},{"type":"Feature","id":"osm-node-11269942282","properties":{"id":"osm-node-11269942282","name":"دێ بنە","kind":"village","tier":"locality","priority":300,"context":"کفری · دیالە","category":"گوند"},"geometry":{"type":"Point","coordinates":[45.2095121,34.6314201]}},{"type":"Feature","id":"osm-node-2489368183","properties":{"id":"osm-node-2489368183","name":"زەکی حاجی عەواد","kind":"village","tier":"locality","priority":300,"context":"کفری · دیالە","category":"گوند"},"geometry":{"type":"Point","coordinates":[45.1339802,34.704056]}},{"type":"Feature","id":"osm-node-11283093407","properties":{"id":"osm-node-11283093407","name":"سیامەڕۆ","kind":"village","tier":"locality","priority":300,"context":"کفری · دیالە","category":"گوند"},"geometry":{"type":"Point","coordinates":[45.2017506,34.5212191]}},{"type":"Feature","id":"osm-node-11270227280","properties":{"id":"osm-node-11270227280","name":"سەعداوا","kind":"village","tier":"locality","priority":300,"context":"کفری · دیالە","category":"گوند"},"geometry":{"type":"Point","coordinates":[45.2104152,34.7104456]}},{"type":"Feature","id":"osm-node-2489368052","properties":{"id":"osm-node-2489368052","name":"سەید مالەڵا","kind":"village","tier":"locality","priority":300,"context":"کفری · دیالە","category":"گوند"},"geometry":{"type":"Point","coordinates":[45.13162,34.6295575]}},{"type":"Feature","id":"osm-node-2489368051","properties":{"id":"osm-node-2489368051","name":"سەیدحسێن","kind":"village","tier":"locality","priority":300,"context":"کفری · دیالە","category":"گوند"},"geometry":{"type":"Point","coordinates":[45.0798801,34.6252101]}},{"type":"Feature","id":"osm-node-2489358655","properties":{"id":"osm-node-2489358655","name":"سەیدە","kind":"village","tier":"locality","priority":300,"context":"کفری · دیالە","category":"گوند"},"geometry":{"type":"Point","coordinates":[45.1875991,34.677111]}},{"type":"Feature","id":"geonames-91166","properties":{"id":"geonames-91166","name":"شاکەل","kind":"village","tier":"locality","priority":300,"context":"کفری · دیالە","category":"گوند"},"geometry":{"type":"Point","coordinates":[45.15,34.7]}},{"type":"Feature","id":"osm-node-11268900132","properties":{"id":"osm-node-11268900132","name":"شاکەل","kind":"village","tier":"locality","priority":300,"context":"کفری · دیالە","category":"گوند"},"geometry":{"type":"Point","coordinates":[45.2114162,34.6624646]}},{"type":"Feature","id":"osm-node-2488631640","properties":{"id":"osm-node-2488631640","name":"شێتکان سالم","kind":"village","tier":"locality","priority":300,"context":"کفری · دیالە","category":"گوند"},"geometry":{"type":"Point","coordinates":[45.0950645,34.5748714]}},{"type":"Feature","id":"osm-node-2488629866","properties":{"id":"osm-node-2488629866","name":"شێخ لەنگەری بچوک","kind":"village","tier":"locality","priority":300,"context":"کفری · دیالە","category":"گوند"},"geometry":{"type":"Point","coordinates":[45.238978,34.544722]}},{"type":"Feature","id":"osm-node-2488624125","properties":{"id":"osm-node-2488624125","name":"عەلی خەڵەف","kind":"village","tier":"locality","priority":300,"context":"کفری · دیالە","category":"گوند"},"geometry":{"type":"Point","coordinates":[45.0611943,34.524282]}},{"type":"Feature","id":"geonames-8558454","properties":{"id":"geonames-8558454","name":"قرە بولاغ","kind":"village","tier":"locality","priority":300,"context":"کفری · دیالە","category":"گوند"},"geometry":{"type":"Point","coordinates":[45.21676,34.52101]}},{"type":"Feature","id":"geonames-92447","properties":{"id":"geonames-92447","name":"قرەبولاغ","kind":"village","tier":"locality","priority":300,"context":"کفری · دیالە","category":"گوند"},"geometry":{"type":"Point","coordinates":[45.2032,34.53256]}},{"type":"Feature","id":"osm-node-11283115023","properties":{"id":"osm-node-11283115023","name":"قەرەبوڵاغی کۆن","kind":"village","tier":"locality","priority":300,"context":"کفری · دیالە","category":"گوند"},"geometry":{"type":"Point","coordinates":[45.2005153,34.5339589]}},{"type":"Feature","id":"osm-node-11280920976","properties":{"id":"osm-node-11280920976","name":"نا ساڵح","kind":"village","tier":"locality","priority":300,"context":"کفری · دیالە","category":"گوند"},"geometry":{"type":"Point","coordinates":[45.0111659,34.6885251]}},{"type":"Feature","id":"osm-node-2489368163","properties":{"id":"osm-node-2489368163","name":"وەلی هەیەر","kind":"village","tier":"locality","priority":300,"context":"کفری · دیالە","category":"گوند"},"geometry":{"type":"Point","coordinates":[45.0844076,34.7378145]}},{"type":"Feature","id":"osm-node-11277508358","properties":{"id":"osm-node-11277508358","name":"پاشا","kind":"village","tier":"locality","priority":300,"context":"کفری · دیالە","category":"گوند"},"geometry":{"type":"Point","coordinates":[45.0664547,34.6814153]}},{"type":"Feature","id":"osm-node-2488630873","properties":{"id":"osm-node-2488630873","name":"پیرەفەقیرە","kind":"village","tier":"locality","priority":300,"context":"کفری · دیالە","category":"گوند"},"geometry":{"type":"Point","coordinates":[45.1003651,34.5700725]}},{"type":"Feature","id":"geonames-97457","properties":{"id":"geonames-97457","name":"چاڵاو خالد","kind":"village","tier":"locality","priority":300,"context":"کفری · دیالە","category":"گوند"},"geometry":{"type":"Point","coordinates":[45.0382,34.57949]}},{"type":"Feature","id":"osm-node-7681417985","properties":{"id":"osm-node-7681417985","name":"چاڵاو خالد","kind":"village","tier":"locality","priority":300,"context":"کفری · دیالە","category":"گوند"},"geometry":{"type":"Point","coordinates":[45.03634,34.5685514]}},{"type":"Feature","id":"osm-node-11283086346","properties":{"id":"osm-node-11283086346","name":"چاڵەرەش","kind":"village","tier":"locality","priority":300,"context":"کفری · دیالە","category":"گوند"},"geometry":{"type":"Point","coordinates":[45.2207776,34.5496077]}},{"type":"Feature","id":"osm-node-2489358535","properties":{"id":"osm-node-2489358535","name":"چاڵەسورک","kind":"village","tier":"locality","priority":300,"context":"کفری · دیالە","category":"گوند"},"geometry":{"type":"Point","coordinates":[45.2031152,34.6000812]}},{"type":"Feature","id":"osm-node-11281006399","properties":{"id":"osm-node-11281006399","name":"چاڵەسوک","kind":"village","tier":"locality","priority":300,"context":"کفری · دیالە","category":"گوند"},"geometry":{"type":"Point","coordinates":[45.0974479,34.6818368]}},{"type":"Feature","id":"osm-node-4893916722","properties":{"id":"osm-node-4893916722","name":"چەتاڵ","kind":"village","tier":"locality","priority":300,"context":"کفری · دیالە","category":"گوند"},"geometry":{"type":"Point","coordinates":[45.0848605,34.5835503]}},{"type":"Feature","id":"osm-node-2489368022","properties":{"id":"osm-node-2489368022","name":"ڕەحیم وەرەقە","kind":"village","tier":"locality","priority":300,"context":"کفری · دیالە","category":"گوند"},"geometry":{"type":"Point","coordinates":[45.0375924,34.616419]}},{"type":"Feature","id":"geonames-92084","properties":{"id":"geonames-92084","name":"ڕەحیم وەڕقە","kind":"village","tier":"locality","priority":300,"context":"کفری · دیالە","category":"گوند"},"geometry":{"type":"Point","coordinates":[45.03847,34.61607]}},{"type":"Feature","id":"osm-node-11268923717","properties":{"id":"osm-node-11268923717","name":"کارێزی حەمەکەیفە","kind":"village","tier":"locality","priority":300,"context":"کفری · دیالە","category":"گوند"},"geometry":{"type":"Point","coordinates":[45.2056947,34.7070835]}},{"type":"Feature","id":"osm-node-2489367926","properties":{"id":"osm-node-2489367926","name":"کاکۆڵی","kind":"village","tier":"locality","priority":300,"context":"کفری · دیالە","category":"گوند"},"geometry":{"type":"Point","coordinates":[45.0508393,34.6369204]}},{"type":"Feature","id":"osm-node-11269968667","properties":{"id":"osm-node-11269968667","name":"کەواچەرموو","kind":"village","tier":"locality","priority":300,"context":"کفری · دیالە","category":"گوند"},"geometry":{"type":"Point","coordinates":[45.1964764,34.7253417]}},{"type":"Feature","id":"osm-node-2488623938","properties":{"id":"osm-node-2488623938","name":"گزنگ","kind":"village","tier":"locality","priority":300,"context":"کفری · دیالە","category":"گوند"},"geometry":{"type":"Point","coordinates":[45.0292943,34.514228]}},{"type":"Feature","id":"osm-node-11299138492","properties":{"id":"osm-node-11299138492","name":"گومار","kind":"village","tier":"locality","priority":300,"context":"کفری · دیالە","category":"گوند"},"geometry":{"type":"Point","coordinates":[45.1648404,34.5606141]}},{"type":"Feature","id":"osm-node-7352584090","properties":{"id":"osm-node-7352584090","name":"یەکەچاڵاو","kind":"village","tier":"locality","priority":300,"context":"کفری · دیالە","category":"گوند"},"geometry":{"type":"Point","coordinates":[45.052852,34.7015626]}},{"type":"Feature","id":"osm-node-2489367968","properties":{"id":"osm-node-2489367968","name":"خڕ کۆریان","kind":"locality","tier":"locality","priority":200,"context":"کفری · دیالە","category":"شوێنی ناوخۆیی"},"geometry":{"type":"Point","coordinates":[45.059513,34.627207]}},{"type":"Feature","id":"osm-node-2488631885","properties":{"id":"osm-node-2488631885","name":"زەرداوەکە","kind":"locality","tier":"locality","priority":200,"context":"کفری · دیالە","category":"شوێنی ناوخۆیی"},"geometry":{"type":"Point","coordinates":[45.0002663,34.5401068]}},{"type":"Feature","id":"osm-node-2489368068","properties":{"id":"osm-node-2489368068","name":"چەم چەقەڵ","kind":"locality","tier":"locality","priority":200,"context":"کفری · دیالە","category":"شوێنی ناوخۆیی"},"geometry":{"type":"Point","coordinates":[45.033333,34.616667]}},{"type":"Feature","id":"osm-node-2489367864","properties":{"id":"osm-node-2489367864","name":"چەم کاکۆڵ","kind":"locality","tier":"locality","priority":200,"context":"کفری · دیالە","category":"شوێنی ناوخۆیی"},"geometry":{"type":"Point","coordinates":[45.0502448,34.6263608]}},{"type":"Feature","id":"osm-natural-stream-8595d10dae5eca","properties":{"id":"osm-natural-stream-8595d10dae5eca","name":"Basha Cham","kind":"natural","tier":"natural","priority":180,"context":"جۆگە · کفری · دیالە","category":"جۆگە"},"geometry":{"type":"Point","coordinates":[45.01667,34.61667]}},{"type":"Feature","id":"osm-natural-stream-a904e579711313","properties":{"id":"osm-natural-stream-a904e579711313","name":"Cham-i Dolkhana","kind":"natural","tier":"natural","priority":180,"context":"جۆگە · کفری · دیالە","category":"جۆگە"},"geometry":{"type":"Point","coordinates":[45,34.71667]}},{"type":"Feature","id":"osm-natural-stream-e5bf44eed55f1f","properties":{"id":"osm-natural-stream-e5bf44eed55f1f","name":"Cham-i Kakul","kind":"natural","tier":"natural","priority":180,"context":"جۆگە · کفری · دیالە","category":"جۆگە"},"geometry":{"type":"Point","coordinates":[45.04889,34.62778]}},{"type":"Feature","id":"osm-natural-stream-0e90a6c0b0ac75","properties":{"id":"osm-natural-stream-0e90a6c0b0ac75","name":"Chami Sa`d Allah Bak","kind":"natural","tier":"natural","priority":180,"context":"جۆگە · کفری · دیالە","category":"جۆگە"},"geometry":{"type":"Point","coordinates":[45.16778,34.68145]}},{"type":"Feature","id":"osm-natural-river-134a92caf27088","properties":{"id":"osm-natural-river-134a92caf27088","name":"Dilaya River","kind":"natural","tier":"natural","priority":180,"context":"ڕووبار · خانەقین · دیالە","category":"ڕووبار"},"geometry":{"type":"Point","coordinates":[45.2354892,34.5224808]}},{"type":"Feature","id":"osm-natural-stream-aa906d9d9137af","properties":{"id":"osm-natural-stream-aa906d9d9137af","name":"Khirr-i Turan","kind":"natural","tier":"natural","priority":180,"context":"جۆگە · کفری · دیالە","category":"جۆگە"},"geometry":{"type":"Point","coordinates":[45.2,34.66667]}},{"type":"Feature","id":"osm-natural-stream-aeeb0a6be73755","properties":{"id":"osm-natural-stream-aeeb0a6be73755","name":"Nahr Dah Khirran","kind":"natural","tier":"natural","priority":180,"context":"جۆگە · کفری · دیالە","category":"جۆگە"},"geometry":{"type":"Point","coordinates":[45,34.73333]}},{"type":"Feature","id":"osm-natural-stream-6310a1b9b87937","properties":{"id":"osm-natural-stream-6310a1b9b87937","name":"Runoff Stream","kind":"natural","tier":"natural","priority":180,"context":"جۆگە · خانەقین · دیالە","category":"جۆگە"},"geometry":{"type":"Point","coordinates":[45.2405493,34.5243709]}},{"type":"Feature","id":"osm-natural-stream-f7ee5013b07eda","properties":{"id":"osm-natural-stream-f7ee5013b07eda","name":"Shakal Cham","kind":"natural","tier":"natural","priority":180,"context":"جۆگە · کفری · دیالە","category":"جۆگە"},"geometry":{"type":"Point","coordinates":[45.03333,34.61667]}},{"type":"Feature","id":"osm-natural-stream-caf0ad129a9e95","properties":{"id":"osm-natural-stream-caf0ad129a9e95","name":"Tributary","kind":"natural","tier":"natural","priority":180,"context":"جۆگە · کفری · دیالە","category":"جۆگە"},"geometry":{"type":"Point","coordinates":[45.2160205,34.5117477]}},{"type":"Feature","id":"osm-natural-stream-4b2a0f974ad4df","properties":{"id":"osm-natural-stream-4b2a0f974ad4df","name":"Tributary River Diyala","kind":"natural","tier":"natural","priority":180,"context":"جۆگە · خانەقین · دیالە","category":"جۆگە"},"geometry":{"type":"Point","coordinates":[45.2402033,34.5229527]}},{"type":"Feature","id":"osm-natural-valley-749959d9b8a038","properties":{"id":"osm-natural-valley-749959d9b8a038","name":"Wadi Chuwar Kani","kind":"natural","tier":"natural","priority":180,"context":"دۆڵ · کفری · دیالە","category":"دۆڵ"},"geometry":{"type":"Point","coordinates":[45.08971,34.6332]}},{"type":"Feature","id":"osm-natural-lake-7c575fc9a8a3a0","properties":{"id":"osm-natural-lake-7c575fc9a8a3a0","name":"Water tank","kind":"natural","tier":"natural","priority":180,"context":"دەریاچە · كلار · سلێمانی","category":"دەریاچە"},"geometry":{"type":"Point","coordinates":[45.2365673,34.6612789]}},{"type":"Feature","id":"osm-natural-stream-fe04d64627cf58","properties":{"id":"osm-natural-stream-fe04d64627cf58","name":"culvert","kind":"natural","tier":"natural","priority":180,"context":"جۆگە · کفری · دیالە","category":"جۆگە"},"geometry":{"type":"Point","coordinates":[45.2127823,34.5182452]}},{"type":"Feature","id":"osm-natural-hill-5fe443a697895f","properties":{"id":"osm-natural-hill-5fe443a697895f","name":"جبل شاكل","kind":"natural","tier":"natural","priority":180,"context":"گرد · کفری · دیالە","category":"گرد"},"geometry":{"type":"Point","coordinates":[45.07785,34.70904]}},{"type":"Feature","id":"osm-natural-hill-46d17c8b736117","properties":{"id":"osm-natural-hill-46d17c8b736117","name":"جبل قل","kind":"natural","tier":"natural","priority":180,"context":"گرد · کفری · دیالە","category":"گرد"},"geometry":{"type":"Point","coordinates":[45.06231,34.57888]}},{"type":"Feature","id":"osm-natural-valley-e89807499dbf62","properties":{"id":"osm-natural-valley-e89807499dbf62","name":"جمي سعيد الله بيك","kind":"natural","tier":"natural","priority":180,"context":"دۆڵ · کفری · دیالە","category":"دۆڵ"},"geometry":{"type":"Point","coordinates":[45.1694387,34.6836382]}},{"type":"Feature","id":"osm-natural-valley-edaf7059931567","properties":{"id":"osm-natural-valley-edaf7059931567","name":"خر ي سيد خضر","kind":"natural","tier":"natural","priority":180,"context":"دۆڵ · کفری · دیالە","category":"دۆڵ"},"geometry":{"type":"Point","coordinates":[45.2431913,34.7127252]}},{"type":"Feature","id":"osm-natural-valley-ed89d5efffa2ee","properties":{"id":"osm-natural-valley-ed89d5efffa2ee","name":"خري رضا موردو","kind":"natural","tier":"natural","priority":180,"context":"دۆڵ · کفری · دیالە","category":"دۆڵ"},"geometry":{"type":"Point","coordinates":[45.15229,34.69635]}},{"type":"Feature","id":"osm-natural-valley-f8ff665a77252f","properties":{"id":"osm-natural-valley-f8ff665a77252f","name":"خري سنور","kind":"natural","tier":"natural","priority":180,"context":"دۆڵ · کفری · دیالە","category":"دۆڵ"},"geometry":{"type":"Point","coordinates":[45.12617,34.71624]}},{"type":"Feature","id":"osm-natural-valley-409611eedc7341","properties":{"id":"osm-natural-valley-409611eedc7341","name":"زنكنة","kind":"natural","tier":"natural","priority":180,"context":"دۆڵ · کفری · دیالە","category":"دۆڵ"},"geometry":{"type":"Point","coordinates":[45.088317,34.633861]}},{"type":"Feature","id":"osm-natural-valley-2c5e12df771167","properties":{"id":"osm-natural-valley-2c5e12df771167","name":"نهر ده خران","kind":"natural","tier":"natural","priority":180,"context":"دۆڵ · کفری · دیالە","category":"دۆڵ"},"geometry":{"type":"Point","coordinates":[45,34.733333]}},{"type":"Feature","id":"osm-natural-valley-53eee574860962","properties":{"id":"osm-natural-valley-53eee574860962","name":"وادي بيرة فقيرة","kind":"natural","tier":"natural","priority":180,"context":"دۆڵ · کفری · دیالە","category":"دۆڵ"},"geometry":{"type":"Point","coordinates":[45.12828,34.56168]}},{"type":"Feature","id":"osm-natural-valley-9f895fb1d13acc","properties":{"id":"osm-natural-valley-9f895fb1d13acc","name":"وادي جزيو","kind":"natural","tier":"natural","priority":180,"context":"دۆڵ · کفری · دیالە","category":"دۆڵ"},"geometry":{"type":"Point","coordinates":[45.11667,34.57002]}},{"type":"Feature","id":"osm-natural-valley-8659e5d4ca714c","properties":{"id":"osm-natural-valley-8659e5d4ca714c","name":"وادي حاجيلر","kind":"natural","tier":"natural","priority":180,"context":"دۆڵ · کفری · دیالە","category":"دۆڵ"},"geometry":{"type":"Point","coordinates":[45.04276,34.50997]}},{"type":"Feature","id":"osm-natural-valley-32e1dcb38cc9c4","properties":{"id":"osm-natural-valley-32e1dcb38cc9c4","name":"وادي حواس علي","kind":"natural","tier":"natural","priority":180,"context":"دۆڵ · کفری · دیالە","category":"دۆڵ"},"geometry":{"type":"Point","coordinates":[45.05757,34.73285]}},{"type":"Feature","id":"osm-natural-valley-c85a1b933e97e7","properties":{"id":"osm-natural-valley-c85a1b933e97e7","name":"وادي خورمال","kind":"natural","tier":"natural","priority":180,"context":"دۆڵ · کفری · دیالە","category":"دۆڵ"},"geometry":{"type":"Point","coordinates":[45.104,34.57088]}},{"type":"Feature","id":"osm-natural-valley-d9b73aa16dd2ed","properties":{"id":"osm-natural-valley-d9b73aa16dd2ed","name":"وادي درويش شكر","kind":"natural","tier":"natural","priority":180,"context":"دۆڵ · کفری · دیالە","category":"دۆڵ"},"geometry":{"type":"Point","coordinates":[45.08965,34.58338]}},{"type":"Feature","id":"osm-natural-valley-8b4ddf5b11ff72","properties":{"id":"osm-natural-valley-8b4ddf5b11ff72","name":"وادي دولخانة","kind":"natural","tier":"natural","priority":180,"context":"دۆڵ · کفری · دیالە","category":"دۆڵ"},"geometry":{"type":"Point","coordinates":[45,34.716667]}},{"type":"Feature","id":"osm-natural-valley-9848ece1835326","properties":{"id":"osm-natural-valley-9848ece1835326","name":"وادي سنور","kind":"natural","tier":"natural","priority":180,"context":"دۆڵ · کفری · دیالە","category":"دۆڵ"},"geometry":{"type":"Point","coordinates":[45.165278,34.688333]}},{"type":"Feature","id":"osm-natural-valley-68f4ad7dc9c009","properties":{"id":"osm-natural-valley-68f4ad7dc9c009","name":"وادي شلان","kind":"natural","tier":"natural","priority":180,"context":"دۆڵ · کفری · دیالە","category":"دۆڵ"},"geometry":{"type":"Point","coordinates":[45.0464632,34.5480589]}},{"type":"Feature","id":"osm-natural-valley-f7105fcc2ea58b","properties":{"id":"osm-natural-valley-f7105fcc2ea58b","name":"وادي صفا","kind":"natural","tier":"natural","priority":180,"context":"دۆڵ · کفری · دیالە","category":"دۆڵ"},"geometry":{"type":"Point","coordinates":[45.09037,34.63276]}},{"type":"Feature","id":"osm-natural-valley-9aa99fe9cd2ed1","properties":{"id":"osm-natural-valley-9aa99fe9cd2ed1","name":"وادي قطر","kind":"natural","tier":"natural","priority":180,"context":"دۆڵ · کفری · دیالە","category":"دۆڵ"},"geometry":{"type":"Point","coordinates":[45.17103,34.53708]}},{"type":"Feature","id":"osm-natural-valley-59a8f924fa39aa","properties":{"id":"osm-natural-valley-59a8f924fa39aa","name":"وادي كاريز","kind":"natural","tier":"natural","priority":180,"context":"دۆڵ · کفری · دیالە","category":"دۆڵ"},"geometry":{"type":"Point","coordinates":[45.13182,34.5552]}},{"type":"Feature","id":"osm-natural-valley-49ab24f665fcf6","properties":{"id":"osm-natural-valley-49ab24f665fcf6","name":"وادي كاكولي","kind":"natural","tier":"natural","priority":180,"context":"دۆڵ · کفری · دیالە","category":"دۆڵ"},"geometry":{"type":"Point","coordinates":[45.072364,34.643892]}},{"type":"Feature","id":"osm-natural-valley-19e5ebe3b1a331","properties":{"id":"osm-natural-valley-19e5ebe3b1a331","name":"وادي كانة زرد","kind":"natural","tier":"natural","priority":180,"context":"دۆڵ · کفری · دیالە","category":"دۆڵ"},"geometry":{"type":"Point","coordinates":[45.011175,34.551646]}},{"type":"Feature","id":"osm-natural-valley-7d70af9fd310cc","properties":{"id":"osm-natural-valley-7d70af9fd310cc","name":"وادي كانه زةرد","kind":"natural","tier":"natural","priority":180,"context":"دۆڵ · کفری · دیالە","category":"دۆڵ"},"geometry":{"type":"Point","coordinates":[45.01162,34.55204]}},{"type":"Feature","id":"osm-natural-valley-07d31c33e07a0a","properties":{"id":"osm-natural-valley-07d31c33e07a0a","name":"وادي كوردر","kind":"natural","tier":"natural","priority":180,"context":"دۆڵ · کفری · دیالە","category":"دۆڵ"},"geometry":{"type":"Point","coordinates":[45.16461,34.52735]}},{"type":"Feature","id":"osm-natural-valley-68ac15284310b0","properties":{"id":"osm-natural-valley-68ac15284310b0","name":"وادي كولي زمان","kind":"natural","tier":"natural","priority":180,"context":"دۆڵ · کفری · دیالە","category":"دۆڵ"},"geometry":{"type":"Point","coordinates":[45.16588,34.52696]}},{"type":"Feature","id":"osm-natural-valley-e171a8ba63a6ff","properties":{"id":"osm-natural-valley-e171a8ba63a6ff","name":"وادي كوه جرمك","kind":"natural","tier":"natural","priority":180,"context":"دۆڵ · کفری · دیالە","category":"دۆڵ"},"geometry":{"type":"Point","coordinates":[45.1971945,34.6686256]}},{"type":"Feature","id":"osm-natural-valley-d2b17f3ebc853d","properties":{"id":"osm-natural-valley-d2b17f3ebc853d","name":"وادي كويردرة","kind":"natural","tier":"natural","priority":180,"context":"دۆڵ · کفری · دیالە","category":"دۆڵ"},"geometry":{"type":"Point","coordinates":[45.17597,34.51976]}},{"type":"Feature","id":"osm-natural-river-27135951f5c5cb","properties":{"id":"osm-natural-river-27135951f5c5cb","name":"چەمی سەرقەڵا","kind":"natural","tier":"natural","priority":180,"context":"ڕووبار · کفری · دیالە","category":"ڕووبار"},"geometry":{"type":"Point","coordinates":[45.0403277,34.7312652]}},{"type":"Feature","id":"osm-natural-stream-6a2e84b5e67cc8","properties":{"id":"osm-natural-stream-6a2e84b5e67cc8","name":"چەمی سەید خدر","kind":"natural","tier":"natural","priority":180,"context":"جۆگە · كلار · سلێمانی","category":"جۆگە"},"geometry":{"type":"Point","coordinates":[45.249077,34.732538]}},{"type":"Feature","id":"osm-natural-stream-c1713b508ed951","properties":{"id":"osm-natural-stream-c1713b508ed951","name":"چەمی قەرەچیل","kind":"natural","tier":"natural","priority":180,"context":"جۆگە · كلار · سلێمانی","category":"جۆگە"},"geometry":{"type":"Point","coordinates":[45.2352354,34.7371665]}},{"type":"Feature","id":"osm-natural-stream-e79bbf2a84850b","properties":{"id":"osm-natural-stream-e79bbf2a84850b","name":"چەمی قەرەچیل","kind":"natural","tier":"natural","priority":180,"context":"جۆگە · کفری · دیالە","category":"جۆگە"},"geometry":{"type":"Point","coordinates":[45.2430674,34.6835084]}},{"type":"Feature","id":"osm-natural-stream-f458be3cbfc80e","properties":{"id":"osm-natural-stream-f458be3cbfc80e","name":"چەمی ملەسوور","kind":"natural","tier":"natural","priority":180,"context":"جۆگە · کفری · دیالە","category":"جۆگە"},"geometry":{"type":"Point","coordinates":[45.1257556,34.7292783]}},{"type":"Feature","id":"osm-natural-river-cabeb732841cca","properties":{"id":"osm-natural-river-cabeb732841cca","name":"چەمی کەواچەرمۆ","kind":"natural","tier":"natural","priority":180,"context":"ڕووبار · کفری · دیالە","category":"ڕووبار"},"geometry":{"type":"Point","coordinates":[45.2202249,34.6492128]}},{"type":"Feature","id":"road-label-osm-way-324503576","properties":{"id":"road-label-osm-way-324503576","name":"Kalar - Jalawla Road","kind":"road","tier":"road","priority":95,"context":"trunk · کفری · دیالە","category":"ڕێگا"},"geometry":{"type":"Point","coordinates":[45.223347,34.529559]}},{"type":"Feature","id":"road-label-osm-way-911679579","properties":{"id":"road-label-osm-way-911679579","name":"شەقامی صلاح کوێخا","kind":"road","tier":"road","priority":95,"context":"trunk · كلار · سلێمانی","category":"ڕێگا"},"geometry":{"type":"Point","coordinates":[45.240852,34.654858]}},{"type":"Feature","id":"road-label-osm-way-823554607","properties":{"id":"road-label-osm-way-823554607","name":"ڕێگای کەلار - کفری","kind":"road","tier":"road","priority":95,"context":"trunk · کفری · دیالە","category":"ڕێگا"},"geometry":{"type":"Point","coordinates":[45.057454,34.713214]}},{"type":"Feature","id":"road-label-osm-way-911679591","properties":{"id":"road-label-osm-way-911679591","name":"ڕێگای کەلار - کفری","kind":"road","tier":"road","priority":95,"context":"trunk · کفری · دیالە","category":"ڕێگا"},"geometry":{"type":"Point","coordinates":[45.145382,34.707748]}},{"type":"Feature","id":"road-label-osm-way-958856743","properties":{"id":"road-label-osm-way-958856743","name":"ڕێگای کەلار - کفری","kind":"road","tier":"road","priority":95,"context":"trunk · کفری · دیالە","category":"ڕێگا"},"geometry":{"type":"Point","coordinates":[45.011413,34.684254]}},{"type":"Feature","id":"road-label-osm-way-911679582","properties":{"id":"road-label-osm-way-911679582","name":"ڕێگای کەلار - کفری","kind":"road","tier":"road","priority":95,"context":"trunk · کفری · دیالە","category":"ڕێگا"},"geometry":{"type":"Point","coordinates":[45.199984,34.670674]}},{"type":"Feature","id":"road-label-osm-way-324535512","properties":{"id":"road-label-osm-way-324535512","name":"ڕێگای کەلار - کفری","kind":"road","tier":"road","priority":88,"context":"primary · کفری · دیالە","category":"ڕێگا"},"geometry":{"type":"Point","coordinates":[45.004908,34.712172]}},{"type":"Feature","id":"road-label-osm-way-328944807","properties":{"id":"road-label-osm-way-328944807","name":"ڕێگای کەلار - کفری","kind":"road","tier":"road","priority":88,"context":"primary · کفری · دیالە","category":"ڕێگا"},"geometry":{"type":"Point","coordinates":[45.071493,34.737]}},{"type":"Feature","id":"road-label-osm-way-328958307","properties":{"id":"road-label-osm-way-328958307","name":"ڕێگای کەلار - کفری","kind":"road","tier":"road","priority":88,"context":"primary · کفری · دیالە","category":"ڕێگا"},"geometry":{"type":"Point","coordinates":[45.070771,34.737036]}},{"type":"Feature","id":"road-label-osm-way-747388052","properties":{"id":"road-label-osm-way-747388052","name":"ڕێگای کەلار - کفری","kind":"road","tier":"road","priority":88,"context":"primary · کفری · دیالە","category":"ڕێگا"},"geometry":{"type":"Point","coordinates":[45.064369,34.740694]}},{"type":"Feature","id":"road-label-osm-way-301069017","properties":{"id":"road-label-osm-way-301069017","name":"جبارة - شيلان - كولجو","kind":"road","tier":"road","priority":72,"context":"secondary · کفری · دیالە","category":"ڕێگا"},"geometry":{"type":"Point","coordinates":[45.038899,34.544174]}},{"type":"Feature","id":"osm-way-1103407869-hospital","properties":{"id":"osm-way-1103407869-hospital","name":"نەخۆشخانەی گەرمیان","kind":"poi","tier":"poi_landmark","priority":95.092,"context":"نەخۆشخانە","category":"نەخۆشخانە"},"geometry":{"type":"Point","coordinates":[45.2223814,34.6633546]}},{"type":"Feature","id":"osm-node-5921351986-attraction","properties":{"id":"osm-node-5921351986-attraction","name":"دریم ستی","kind":"poi","tier":"poi_detail","priority":50.1,"context":"شوێنی گەشتیاری","category":"شوێنی گەشتیاری"},"geometry":{"type":"Point","coordinates":[45.069495,34.6545222]}},{"type":"Feature","id":"osm-way-364657583-ruins","properties":{"id":"osm-way-364657583-ruins","name":"قەڵای دوانگزە ئیمام","kind":"poi","tier":"poi_detail","priority":50.092,"context":"شوێنی شوێنەوار","category":"شوێنی شوێنەوار"},"geometry":{"type":"Point","coordinates":[45.008291,34.6609368]}},{"type":"Feature","id":"osm-node-5359532822-fuel","properties":{"id":"osm-node-5359532822-fuel","name":"بەنزینخانەی برایەتی","kind":"poi","tier":"poi_regional","priority":82.094,"context":"وێستگەی سووتەمەنی","category":"وێستگەی سووتەمەنی"},"geometry":{"type":"Point","coordinates":[45.2214049,34.6595156]}},{"type":"Feature","id":"osm-node-12249230605-fuel","properties":{"id":"osm-node-12249230605-fuel","name":"محطە وقود حسین عثمان","kind":"poi","tier":"poi_regional","priority":82.094,"context":"وێستگەی سووتەمەنی","category":"وێستگەی سووتەمەنی"},"geometry":{"type":"Point","coordinates":[45.0646439,34.7410527]}},{"type":"Feature","id":"osm-way-1103234802-fuel","properties":{"id":"osm-way-1103234802-fuel","name":"بەنزینخانەی ڕزگاری","kind":"poi","tier":"poi_regional","priority":82.086,"context":"وێستگەی سووتەمەنی","category":"وێستگەی سووتەمەنی"},"geometry":{"type":"Point","coordinates":[45.2430171,34.6554297]}},{"type":"Feature","id":"osm-way-1503984230-bus_station","properties":{"id":"osm-way-1503984230-bus_station","name":"Dock1","kind":"poi","tier":"poi_regional","priority":80.088,"context":"وێستگەی پاس","category":"وێستگەی پاس"},"geometry":{"type":"Point","coordinates":[45.2404563,34.6604008]}},{"type":"Feature","id":"osm-node-4895813521-police","properties":{"id":"osm-node-4895813521-police","name":"بنکەی ئاگرکوژێنەوەی ڕزگاری","kind":"poi","tier":"poi_regional","priority":77.1,"context":"بنکەی پۆلیس","category":"بنکەی پۆلیس"},"geometry":{"type":"Point","coordinates":[45.2420103,34.6580356]}},{"type":"Feature","id":"osm-way-1103407876-police","properties":{"id":"osm-way-1103407876-police","name":"بنکەی ئاسایشی ڕزگاری","kind":"poi","tier":"poi_regional","priority":77.092,"context":"بنکەی پۆلیس","category":"بنکەی پۆلیس"},"geometry":{"type":"Point","coordinates":[45.2360012,34.6649124]}},{"type":"Feature","id":"osm-way-368939345-police","properties":{"id":"osm-way-368939345-police","name":"بنکەی پۆلیسی ڕزگاری","kind":"poi","tier":"poi_regional","priority":77.092,"context":"بنکەی پۆلیس","category":"بنکەی پۆلیس"},"geometry":{"type":"Point","coordinates":[45.2418708,34.6585503]}},{"type":"Feature","id":"osm-way-640358741-police","properties":{"id":"osm-way-640358741-police","name":"فەرمانگەی هاتوچۆی ڕزگاری","kind":"poi","tier":"poi_regional","priority":77.092,"context":"بنکەی پۆلیس","category":"بنکەی پۆلیس"},"geometry":{"type":"Point","coordinates":[45.2426411,34.656913]}},{"type":"Feature","id":"osm-way-323302795-residential","properties":{"id":"osm-way-323302795-residential","name":"بان ئاسیاو","kind":"poi","tier":"poi_local","priority":68.045,"context":"کۆمپاوندی نیشتەجێبوون","category":"کۆمپاوندی نیشتەجێبوون"},"geometry":{"type":"Point","coordinates":[45.2148838,34.5219122]}},{"type":"Feature","id":"osm-way-1219457912-residential","properties":{"id":"osm-way-1219457912-residential","name":"جەدیدە","kind":"poi","tier":"poi_local","priority":68.045,"context":"کۆمپاوندی نیشتەجێبوون","category":"کۆمپاوندی نیشتەجێبوون"},"geometry":{"type":"Point","coordinates":[45.0863991,34.5085729]}},{"type":"Feature","id":"osm-way-1217771713-residential","properties":{"id":"osm-way-1217771713-residential","name":"حاجی حەسەن","kind":"poi","tier":"poi_local","priority":68.045,"context":"کۆمپاوندی نیشتەجێبوون","category":"کۆمپاوندی نیشتەجێبوون"},"geometry":{"type":"Point","coordinates":[45.1264498,34.5471994]}},{"type":"Feature","id":"osm-way-1217716765-residential","properties":{"id":"osm-way-1217716765-residential","name":"حسێن کوردی","kind":"poi","tier":"poi_local","priority":68.045,"context":"کۆمپاوندی نیشتەجێبوون","category":"کۆمپاوندی نیشتەجێبوون"},"geometry":{"type":"Point","coordinates":[45.1728474,34.6155306]}},{"type":"Feature","id":"osm-way-1219453779-residential","properties":{"id":"osm-way-1219453779-residential","name":"خیاڵ","kind":"poi","tier":"poi_local","priority":68.045,"context":"کۆمپاوندی نیشتەجێبوون","category":"کۆمپاوندی نیشتەجێبوون"},"geometry":{"type":"Point","coordinates":[45.0489838,34.5053869]}},{"type":"Feature","id":"osm-way-1216299235-residential","properties":{"id":"osm-way-1216299235-residential","name":"زەکی حاجی عەواد","kind":"poi","tier":"poi_local","priority":68.045,"context":"کۆمپاوندی نیشتەجێبوون","category":"کۆمپاوندی نیشتەجێبوون"},"geometry":{"type":"Point","coordinates":[45.1333438,34.7041706]}},{"type":"Feature","id":"osm-way-1219458780-residential","properties":{"id":"osm-way-1219458780-residential","name":"سامی","kind":"poi","tier":"poi_local","priority":68.045,"context":"کۆمپاوندی نیشتەجێبوون","category":"کۆمپاوندی نیشتەجێبوون"},"geometry":{"type":"Point","coordinates":[45.072867,34.5148314]}},{"type":"Feature","id":"osm-way-1217721684-residential","properties":{"id":"osm-way-1217721684-residential","name":"سیامەڕۆ","kind":"poi","tier":"poi_local","priority":68.045,"context":"کۆمپاوندی نیشتەجێبوون","category":"کۆمپاوندی نیشتەجێبوون"},"geometry":{"type":"Point","coordinates":[45.2016092,34.5217804]}},{"type":"Feature","id":"osm-way-324309827-residential","properties":{"id":"osm-way-324309827-residential","name":"سەعداوا","kind":"poi","tier":"poi_local","priority":68.045,"context":"کۆمپاوندی نیشتەجێبوون","category":"کۆمپاوندی نیشتەجێبوون"},"geometry":{"type":"Point","coordinates":[45.2110559,34.7106397]}},{"type":"Feature","id":"osm-way-1217716227-residential","properties":{"id":"osm-way-1217716227-residential","name":"سەید مالەڵا","kind":"poi","tier":"poi_local","priority":68.045,"context":"کۆمپاوندی نیشتەجێبوون","category":"کۆمپاوندی نیشتەجێبوون"},"geometry":{"type":"Point","coordinates":[45.1317664,34.6282284]}},{"type":"Feature","id":"osm-way-336314494-residential","properties":{"id":"osm-way-336314494-residential","name":"شاکەل","kind":"poi","tier":"poi_local","priority":68.045,"context":"کۆمپاوندی نیشتەجێبوون","category":"کۆمپاوندی نیشتەجێبوون"},"geometry":{"type":"Point","coordinates":[45.2108795,34.6627656]}},{"type":"Feature","id":"osm-way-315430092-residential","properties":{"id":"osm-way-315430092-residential","name":"شێخ لەنگەری بچوک","kind":"poi","tier":"poi_local","priority":68.045,"context":"کۆمپاوندی نیشتەجێبوون","category":"کۆمپاوندی نیشتەجێبوون"},"geometry":{"type":"Point","coordinates":[45.2399893,34.5443381]}},{"type":"Feature","id":"osm-way-315430093-residential","properties":{"id":"osm-way-315430093-residential","name":"شێخ لەنگەری گەورە","kind":"poi","tier":"poi_local","priority":68.045,"context":"کۆمپاوندی نیشتەجێبوون","category":"کۆمپاوندی نیشتەجێبوون"},"geometry":{"type":"Point","coordinates":[45.2499199,34.555619]}},{"type":"Feature","id":"osm-way-1217076306-residential","properties":{"id":"osm-way-1217076306-residential","name":"شەرەف خان","kind":"poi","tier":"poi_local","priority":68.045,"context":"کۆمپاوندی نیشتەجێبوون","category":"کۆمپاوندی نیشتەجێبوون"},"geometry":{"type":"Point","coordinates":[45.0173674,34.7498906]}},{"type":"Feature","id":"osm-way-1219459338-residential","properties":{"id":"osm-way-1219459338-residential","name":"عەلی خەڵەف","kind":"poi","tier":"poi_local","priority":68.045,"context":"کۆمپاوندی نیشتەجێبوون","category":"کۆمپاوندی نیشتەجێبوون"},"geometry":{"type":"Point","coordinates":[45.0614464,34.5243146]}},{"type":"Feature","id":"osm-way-1217723740-residential","properties":{"id":"osm-way-1217723740-residential","name":"قەرەبوڵاغی کۆن","kind":"poi","tier":"poi_local","priority":68.045,"context":"کۆمپاوندی نیشتەجێبوون","category":"کۆمپاوندی نیشتەجێبوون"},"geometry":{"type":"Point","coordinates":[45.2014594,34.5339939]}},{"type":"Feature","id":"osm-way-323307927-residential","properties":{"id":"osm-way-323307927-residential","name":"میل قاسم","kind":"poi","tier":"poi_local","priority":68.045,"context":"کۆمپاوندی نیشتەجێبوون","category":"کۆمپاوندی نیشتەجێبوون"},"geometry":{"type":"Point","coordinates":[45.1588709,34.73083]}},{"type":"Feature","id":"osm-way-1182193487-residential","properties":{"id":"osm-way-1182193487-residential","name":"نەوژین ستی ٢","kind":"poi","tier":"poi_local","priority":68.045,"context":"کۆمپاوندی نیشتەجێبوون","category":"کۆمپاوندی نیشتەجێبوون"},"geometry":{"type":"Point","coordinates":[45.2264733,34.6604102]}},{"type":"Feature","id":"osm-way-328870642-residential","properties":{"id":"osm-way-328870642-residential","name":"وەلی هەیەر","kind":"poi","tier":"poi_local","priority":68.045,"context":"کۆمپاوندی نیشتەجێبوون","category":"کۆمپاوندی نیشتەجێبوون"},"geometry":{"type":"Point","coordinates":[45.0843639,34.7386359]}},{"type":"Feature","id":"osm-way-1217115411-residential","properties":{"id":"osm-way-1217115411-residential","name":"پاشا","kind":"poi","tier":"poi_local","priority":68.045,"context":"کۆمپاوندی نیشتەجێبوون","category":"کۆمپاوندی نیشتەجێبوون"},"geometry":{"type":"Point","coordinates":[45.0663953,34.6814025]}},{"type":"Feature","id":"osm-way-1217720251-residential","properties":{"id":"osm-way-1217720251-residential","name":"چاڵەرەش","kind":"poi","tier":"poi_local","priority":68.045,"context":"کۆمپاوندی نیشتەجێبوون","category":"کۆمپاوندی نیشتەجێبوون"},"geometry":{"type":"Point","coordinates":[45.2198941,34.5498642]}},{"type":"Feature","id":"osm-way-1217717311-residential","properties":{"id":"osm-way-1217717311-residential","name":"چاڵەسورک","kind":"poi","tier":"poi_local","priority":68.045,"context":"کۆمپاوندی نیشتەجێبوون","category":"کۆمپاوندی نیشتەجێبوون"},"geometry":{"type":"Point","coordinates":[45.2030709,34.6001869]}},{"type":"Feature","id":"osm-way-1217493482-residential","properties":{"id":"osm-way-1217493482-residential","name":"چاڵەسوک","kind":"poi","tier":"poi_local","priority":68.045,"context":"کۆمپاوندی نیشتەجێبوون","category":"کۆمپاوندی نیشتەجێبوون"},"geometry":{"type":"Point","coordinates":[45.0974253,34.6817233]}},{"type":"Feature","id":"osm-way-324309829-residential","properties":{"id":"osm-way-324309829-residential","name":"کارێزی حەمەکەیفە","kind":"poi","tier":"poi_local","priority":68.045,"context":"کۆمپاوندی نیشتەجێبوون","category":"کۆمپاوندی نیشتەجێبوون"},"geometry":{"type":"Point","coordinates":[45.2061703,34.7066731]}},{"type":"Feature","id":"osm-way-1217494362-residential","properties":{"id":"osm-way-1217494362-residential","name":"کاکۆڵی","kind":"poi","tier":"poi_local","priority":68.045,"context":"کۆمپاوندی نیشتەجێبوون","category":"کۆمپاوندی نیشتەجێبوون"},"geometry":{"type":"Point","coordinates":[45.050996,34.636786]}},{"type":"Feature","id":"osm-way-324908806-residential","properties":{"id":"osm-way-324908806-residential","name":"کەواچەرمۆ","kind":"poi","tier":"poi_local","priority":68.045,"context":"کۆمپاوندی نیشتەجێبوون","category":"کۆمپاوندی نیشتەجێبوون"},"geometry":{"type":"Point","coordinates":[45.1966574,34.7252986]}},{"type":"Feature","id":"osm-way-1219455631-residential","properties":{"id":"osm-way-1219455631-residential","name":"گزنگ","kind":"poi","tier":"poi_local","priority":68.045,"context":"کۆمپاوندی نیشتەجێبوون","category":"کۆمپاوندی نیشتەجێبوون"},"geometry":{"type":"Point","coordinates":[45.0295655,34.5142049]}},{"type":"Feature","id":"osm-way-1219435973-residential","properties":{"id":"osm-way-1219435973-residential","name":"گومار","kind":"poi","tier":"poi_local","priority":68.045,"context":"کۆمپاوندی نیشتەجێبوون","category":"کۆمپاوندی نیشتەجێبوون"},"geometry":{"type":"Point","coordinates":[45.1644222,34.5608494]}},{"type":"Feature","id":"osm-way-786353695-residential","properties":{"id":"osm-way-786353695-residential","name":"یەکەچاڵاو","kind":"poi","tier":"poi_local","priority":68.045,"context":"کۆمپاوندی نیشتەجێبوون","category":"کۆمپاوندی نیشتەجێبوون"},"geometry":{"type":"Point","coordinates":[45.052909,34.701626]}},{"type":"Feature","id":"osm-way-232297341-industrial","properties":{"id":"osm-way-232297341-industrial","name":"GAZPROM NEFT Hasira Camp","kind":"poi","tier":"poi_local","priority":66.045,"context":"ناوچەی پیشەسازی","category":"ناوچەی پیشەسازی"},"geometry":{"type":"Point","coordinates":[45.1453179,34.7267931]}},{"type":"Feature","id":"osm-way-1374542843-industrial","properties":{"id":"osm-way-1374542843-industrial","name":"Sarqala Substation","kind":"poi","tier":"poi_local","priority":66.045,"context":"ناوچەی پیشەسازی","category":"ناوچەی پیشەسازی"},"geometry":{"type":"Point","coordinates":[45.0581694,34.7394181]}},{"type":"Feature","id":"osm-way-1377789896-industrial","properties":{"id":"osm-way-1377789896-industrial","name":"ناوچەی پیشەسازی ڕزگاری نوێ","kind":"poi","tier":"poi_local","priority":66.045,"context":"ناوچەی پیشەسازی","category":"ناوچەی پیشەسازی"},"geometry":{"type":"Point","coordinates":[45.2476842,34.6436433]}},{"type":"Feature","id":"osm-way-1200157608-industrial","properties":{"id":"osm-way-1200157608-industrial","name":"وێستگەی کارەبای ئەگریکۆی گەرمیان","kind":"poi","tier":"poi_local","priority":66.045,"context":"ناوچەی پیشەسازی","category":"ناوچەی پیشەسازی"},"geometry":{"type":"Point","coordinates":[45.1383042,34.7161965]}},{"type":"Feature","id":"osm-way-1179790175-industrial","properties":{"id":"osm-way-1179790175-industrial","name":"کارگەی شیشی قەیوان","kind":"poi","tier":"poi_local","priority":66.045,"context":"ناوچەی پیشەسازی","category":"ناوچەی پیشەسازی"},"geometry":{"type":"Point","coordinates":[45.0934658,34.7204366]}},{"type":"Feature","id":"osm-way-1417034933-industrial","properties":{"id":"osm-way-1417034933-industrial","name":"کارگەی قارچکی هیوا","kind":"poi","tier":"poi_local","priority":66.045,"context":"ناوچەی پیشەسازی","category":"ناوچەی پیشەسازی"},"geometry":{"type":"Point","coordinates":[45.2440888,34.5849223]}},{"type":"Feature","id":"osm-way-1286441045-industrial","properties":{"id":"osm-way-1286441045-industrial","name":"کارگەی مرواری","kind":"poi","tier":"poi_local","priority":66.045,"context":"ناوچەی پیشەسازی","category":"ناوچەی پیشەسازی"},"geometry":{"type":"Point","coordinates":[45.2348401,34.5912572]}},{"type":"Feature","id":"osm-way-1304147613-industrial","properties":{"id":"osm-way-1304147613-industrial","name":"کەمپی کەوا چەرمۆ","kind":"poi","tier":"poi_local","priority":66.045,"context":"ناوچەی پیشەسازی","category":"ناوچەی پیشەسازی"},"geometry":{"type":"Point","coordinates":[45.1973943,34.7318791]}},{"type":"Feature","id":"osm-node-11151090205-supermarket","properties":{"id":"osm-node-11151090205-supermarket","name":"دوکان احمد","kind":"poi","tier":"poi_detail","priority":50.1,"context":"سۆپەرمارکێت","category":"سۆپەرمارکێت"},"geometry":{"type":"Point","coordinates":[45.2363343,34.668407]}},{"type":"Feature","id":"osm-node-4516185489-pharmacy","properties":{"id":"osm-node-4516185489-pharmacy","name":"دەرمانخانەو تاقیگەی دایک","kind":"poi","tier":"poi_detail","priority":50.1,"context":"دەرمانخانە","category":"دەرمانخانە"},"geometry":{"type":"Point","coordinates":[45.2437424,34.6622479]}},{"type":"Feature","id":"osm-node-4895801326-pharmacy","properties":{"id":"osm-node-4895801326-pharmacy","name":"دەرمانخانەی عەلی","kind":"poi","tier":"poi_detail","priority":50.1,"context":"دەرمانخانە","category":"دەرمانخانە"},"geometry":{"type":"Point","coordinates":[45.2207972,34.6661215]}},{"type":"Feature","id":"osm-node-4895803223-pharmacy","properties":{"id":"osm-node-4895803223-pharmacy","name":"دەرمانخانەی نەسرەدین","kind":"poi","tier":"poi_detail","priority":50.1,"context":"دەرمانخانە","category":"دەرمانخانە"},"geometry":{"type":"Point","coordinates":[45.2434897,34.6604836]}},{"type":"Feature","id":"osm-node-4895801325-pharmacy","properties":{"id":"osm-node-4895801325-pharmacy","name":"دەرمانخانەی کەریم","kind":"poi","tier":"poi_detail","priority":50.1,"context":"دەرمانخانە","category":"دەرمانخانە"},"geometry":{"type":"Point","coordinates":[45.2410671,34.6598249]}},{"type":"Feature","id":"osm-node-4893925821-supermarket","properties":{"id":"osm-node-4893925821-supermarket","name":"سوبه ر مارکیت","kind":"poi","tier":"poi_detail","priority":50.1,"context":"سۆپەرمارکێت","category":"سۆپەرمارکێت"},"geometry":{"type":"Point","coordinates":[45.2293456,34.6617592]}},{"type":"Feature","id":"osm-node-4895801330-supermarket","properties":{"id":"osm-node-4895801330-supermarket","name":"سووپەرمارکێت","kind":"poi","tier":"poi_detail","priority":50.1,"context":"سۆپەرمارکێت","category":"سۆپەرمارکێت"},"geometry":{"type":"Point","coordinates":[45.224196,34.6624061]}},{"type":"Feature","id":"osm-node-4895812021-supermarket","properties":{"id":"osm-node-4895812021-supermarket","name":"سووپەرمارکێتی سەید","kind":"poi","tier":"poi_detail","priority":50.1,"context":"سۆپەرمارکێت","category":"سۆپەرمارکێت"},"geometry":{"type":"Point","coordinates":[45.2171751,34.6682891]}},{"type":"Feature","id":"osm-node-5777072153-supermarket","properties":{"id":"osm-node-5777072153-supermarket","name":"فرۆشگای سەباح","kind":"poi","tier":"poi_detail","priority":50.1,"context":"سۆپەرمارکێت","category":"سۆپەرمارکێت"},"geometry":{"type":"Point","coordinates":[45.2379035,34.65897]}},{"type":"Feature","id":"osm-node-5777053854-restaurant","properties":{"id":"osm-node-5777053854-restaurant","name":"پیتزای پاریس","kind":"poi","tier":"poi_detail","priority":50.1,"context":"چێشتخانە","category":"چێشتخانە"},"geometry":{"type":"Point","coordinates":[45.2378842,34.6588006]}},{"type":"Feature","id":"osm-way-1303597744-marketplace","properties":{"id":"osm-way-1303597744-marketplace","name":"Rizgari Bazar","kind":"poi","tier":"poi_detail","priority":50.092,"context":"بازاڕ","category":"بازاڕ"},"geometry":{"type":"Point","coordinates":[45.24253,34.6607538]}},{"type":"Feature","id":"osm-way-14388050-clinic","properties":{"id":"osm-way-14388050-clinic","name":"بنکەی تەندروستی شەهید دکتۆر قاسم","kind":"poi","tier":"poi_detail","priority":50.092,"context":"کلینیک","category":"کلینیک"},"geometry":{"type":"Point","coordinates":[45.2445924,34.6618409]}},{"type":"Feature","id":"osm-way-1103407859-school","properties":{"id":"osm-way-1103407859-school","name":"خوێندنگەی ئامادەیی بەمۆ","kind":"poi","tier":"poi_detail","priority":50.092,"context":"قوتابخانە","category":"قوتابخانە"},"geometry":{"type":"Point","coordinates":[45.2319002,34.6596642]}},{"type":"Feature","id":"osm-way-1103407863-school","properties":{"id":"osm-way-1103407863-school","name":"خوێندنگەی ئامادەیی زرنگ","kind":"poi","tier":"poi_detail","priority":50.092,"context":"قوتابخانە","category":"قوتابخانە"},"geometry":{"type":"Point","coordinates":[45.2326536,34.6628325]}},{"type":"Feature","id":"osm-way-1081376205-school","properties":{"id":"osm-way-1081376205-school","name":"خوێندنگەی ئامادەیی زرنگ - تێکەڵ","kind":"poi","tier":"poi_detail","priority":50.092,"context":"قوتابخانە","category":"قوتابخانە"},"geometry":{"type":"Point","coordinates":[45.2409627,34.6662523]}},{"type":"Feature","id":"osm-way-1103407875-school","properties":{"id":"osm-way-1103407875-school","name":"خوێندنگەی برایەتی","kind":"poi","tier":"poi_detail","priority":50.092,"context":"قوتابخانە","category":"قوتابخانە"},"geometry":{"type":"Point","coordinates":[45.2232323,34.6657787]}},{"type":"Feature","id":"osm-way-1103407867-school","properties":{"id":"osm-way-1103407867-school","name":"خوێندنگەی بنەڕەتی هەڵگورد","kind":"poi","tier":"poi_detail","priority":50.092,"context":"قوتابخانە","category":"قوتابخانە"},"geometry":{"type":"Point","coordinates":[45.2226842,34.6641769]}},{"type":"Feature","id":"osm-way-1103407861-school","properties":{"id":"osm-way-1103407861-school","name":"خوێندنگەی بەڵێن","kind":"poi","tier":"poi_detail","priority":50.092,"context":"قوتابخانە","category":"قوتابخانە"},"geometry":{"type":"Point","coordinates":[45.2320587,34.660595]}},{"type":"Feature","id":"osm-way-1103392802-school","properties":{"id":"osm-way-1103392802-school","name":"خوێندنگەی دەستوور","kind":"poi","tier":"poi_detail","priority":50.092,"context":"قوتابخانە","category":"قوتابخانە"},"geometry":{"type":"Point","coordinates":[45.2278853,34.6649513]}},{"type":"Feature","id":"osm-way-327830056-school","properties":{"id":"osm-way-327830056-school","name":"خوێندنگەی سەرەتایی ئایندە","kind":"poi","tier":"poi_detail","priority":50.092,"context":"قوتابخانە","category":"قوتابخانە"},"geometry":{"type":"Point","coordinates":[45.244443,34.6613194]}},{"type":"Feature","id":"osm-way-1103418361-school","properties":{"id":"osm-way-1103418361-school","name":"قوتابخانەی بنەڕەتی سەرقەڵا","kind":"poi","tier":"poi_detail","priority":50.092,"context":"قوتابخانە","category":"قوتابخانە"},"geometry":{"type":"Point","coordinates":[45.0678267,34.7427417]}},{"type":"Feature","id":"osm-way-1103418356-school","properties":{"id":"osm-way-1103418356-school","name":"مدرسە سرقلعە الجدیدە","kind":"poi","tier":"poi_detail","priority":50.092,"context":"قوتابخانە","category":"قوتابخانە"},"geometry":{"type":"Point","coordinates":[45.0688771,34.7449802]}},{"type":"Feature","id":"osm-node-11656208515-mobile_phone_shop","properties":{"id":"osm-node-11656208515-mobile_phone_shop","name":"Atina Phone","kind":"poi","tier":"poi_detail","priority":50.1,"context":"دوکانی مۆبایل","category":"دوکانی مۆبایل"},"geometry":{"type":"Point","coordinates":[45.2428969,34.6605956]}},{"type":"Feature","id":"osm-node-11656213545-convenience","properties":{"id":"osm-node-11656213545-convenience","name":"Bawan Tell","kind":"poi","tier":"poi_detail","priority":50.1,"context":"دوکانی نزیک","category":"دوکانی نزیک"},"geometry":{"type":"Point","coordinates":[45.2428713,34.660875]}},{"type":"Feature","id":"osm-node-11656213551-mobile_phone_shop","properties":{"id":"osm-node-11656213551-mobile_phone_shop","name":"Ghazi Phone","kind":"poi","tier":"poi_detail","priority":50.1,"context":"دوکانی مۆبایل","category":"دوکانی مۆبایل"},"geometry":{"type":"Point","coordinates":[45.2427652,34.6610372]}},{"type":"Feature","id":"osm-node-11656213822-convenience","properties":{"id":"osm-node-11656213822-convenience","name":"Marketi Hani","kind":"poi","tier":"poi_detail","priority":50.1,"context":"دوکانی نزیک","category":"دوکانی نزیک"},"geometry":{"type":"Point","coordinates":[45.2378061,34.6589024]}},{"type":"Feature","id":"osm-node-11656213679-convenience","properties":{"id":"osm-node-11656213679-convenience","name":"Mini Marketi Shadi","kind":"poi","tier":"poi_detail","priority":50.1,"context":"دوکانی نزیک","category":"دوکانی نزیک"},"geometry":{"type":"Point","coordinates":[45.2407303,34.6583061]}},{"type":"Feature","id":"osm-node-11656213543-mobile_phone_shop","properties":{"id":"osm-node-11656213543-mobile_phone_shop","name":"Mobile Ayub","kind":"poi","tier":"poi_detail","priority":50.1,"context":"دوکانی مۆبایل","category":"دوکانی مۆبایل"},"geometry":{"type":"Point","coordinates":[45.2435877,34.6606067]}},{"type":"Feature","id":"osm-node-11656213529-mobile_phone_shop","properties":{"id":"osm-node-11656213529-mobile_phone_shop","name":"Mobile Muhamad","kind":"poi","tier":"poi_detail","priority":50.1,"context":"دوکانی مۆبایل","category":"دوکانی مۆبایل"},"geometry":{"type":"Point","coordinates":[45.2206003,34.6658826]}},{"type":"Feature","id":"osm-node-11656213742-department_store","properties":{"id":"osm-node-11656213742-department_store","name":"Peshangay Ayub 2","kind":"poi","tier":"poi_detail","priority":50.1,"context":"فرۆشگای گەورە","category":"فرۆشگای گەورە"},"geometry":{"type":"Point","coordinates":[45.243515,34.6605925]}},{"type":"Feature","id":"osm-node-6696532451-water_mill","properties":{"id":"osm-node-6696532451-water_mill","name":"ئاسیاو","kind":"poi","tier":"poi_detail","priority":50.1,"context":"ئاشی ئاو","category":"ئاشی ئاو"},"geometry":{"type":"Point","coordinates":[45.2218899,34.5140204]}},{"type":"Feature","id":"osm-node-4895203124-convenience","properties":{"id":"osm-node-4895203124-convenience","name":"بازاری حوکمی زاتی","kind":"poi","tier":"poi_detail","priority":50.1,"context":"دوکانی نزیک","category":"دوکانی نزیک"},"geometry":{"type":"Point","coordinates":[45.2428909,34.6610377]}},{"type":"Feature","id":"osm-node-4895801322-convenience","properties":{"id":"osm-node-4895801322-convenience","name":"بازاڕی شاکەل","kind":"poi","tier":"poi_detail","priority":50.1,"context":"دوکانی نزیک","category":"دوکانی نزیک"},"geometry":{"type":"Point","coordinates":[45.2201634,34.666122]}},{"type":"Feature","id":"osm-node-11334013969-guesthouse","properties":{"id":"osm-node-11334013969-guesthouse","name":"خلیل جاسم حسن","kind":"poi","tier":"poi_detail","priority":50.1,"context":"میوانخانە","category":"میوانخانە"},"geometry":{"type":"Point","coordinates":[45.2290257,34.6651757]}},{"type":"Feature","id":"osm-node-4893925921-artwork","properties":{"id":"osm-node-4893925921-artwork","name":"فەرەنجی","kind":"poi","tier":"poi_detail","priority":50.1,"context":"هونەری گشتی","category":"هونەری گشتی"},"geometry":{"type":"Point","coordinates":[45.2206656,34.6620384]}},{"type":"Feature","id":"osm-node-4895801323-cafe","properties":{"id":"osm-node-4895801323-cafe","name":"قاوه خانه","kind":"poi","tier":"poi_detail","priority":50.1,"context":"کافێ","category":"کافێ"},"geometry":{"type":"Point","coordinates":[45.2287542,34.6609009]}},{"type":"Feature","id":"osm-node-4894075222-furniture_shop","properties":{"id":"osm-node-4894075222-furniture_shop","name":"قبرستان ی ئه نفال","kind":"poi","tier":"poi_detail","priority":50.1,"context":"کەل و پەلی ماڵ فرۆشی","category":"کەل و پەلی ماڵ فرۆشی"},"geometry":{"type":"Point","coordinates":[45.2167866,34.6454353]}},{"type":"Feature","id":"osm-node-11045812805-caravan_site","properties":{"id":"osm-node-11045812805-caravan_site","name":"ماڵ حمەامین حمەفرج","kind":"poi","tier":"poi_detail","priority":50.1,"context":"شوێنی کاراڤان","category":"شوێنی کاراڤان"},"geometry":{"type":"Point","coordinates":[45.239709,34.6597119]}},{"type":"Feature","id":"osm-node-7740656586-cafe","properties":{"id":"osm-node-7740656586-cafe","name":"ماڵی گەنجان","kind":"poi","tier":"poi_detail","priority":50.1,"context":"کافێ","category":"کافێ"},"geometry":{"type":"Point","coordinates":[45.2301367,34.6635733]}},{"type":"Feature","id":"osm-node-5068874126-monument","properties":{"id":"osm-node-5068874126-monument","name":"مۆنۆمێنتی ئەنفالی گەرمیان","kind":"poi","tier":"poi_detail","priority":50.1,"context":"پەیکەر","category":"پەیکەر"},"geometry":{"type":"Point","coordinates":[45.2098502,34.6304478]}},{"type":"Feature","id":"osm-node-4895812022-muslim","properties":{"id":"osm-node-4895812022-muslim","name":"مزگەوتی بازاڕ","kind":"poi","tier":"poi_detail","priority":50.098,"context":"مزگەوت","category":"مزگەوت"},"geometry":{"type":"Point","coordinates":[45.2425013,34.6601185]}},{"type":"Feature","id":"osm-way-1315262702-memorial","properties":{"id":"osm-way-1315262702-memorial","name":"Anfal memorial","kind":"poi","tier":"poi_detail","priority":50.092,"context":"یادەوەری","category":"یادەوەری"},"geometry":{"type":"Point","coordinates":[45.2167437,34.6454179]}},{"type":"Feature","id":"osm-way-368939866-courthouse","properties":{"id":"osm-way-368939866-courthouse","name":"دادگای ڕزگاری","kind":"poi","tier":"poi_detail","priority":50.092,"context":"دادگا","category":"دادگا"},"geometry":{"type":"Point","coordinates":[45.2427853,34.6572656]}},{"type":"Feature","id":"osm-way-1323721370-park","properties":{"id":"osm-way-1323721370-park","name":"متنزه سرقلعە","kind":"poi","tier":"poi_detail","priority":50.092,"context":"پارک","category":"پارک"},"geometry":{"type":"Point","coordinates":[45.0707344,34.7381506]}},{"type":"Feature","id":"osm-way-1323721371-graveyard","properties":{"id":"osm-way-1323721371-graveyard","name":"مقبرە سرقلعە","kind":"poi","tier":"poi_detail","priority":50.092,"context":"قەبرستان","category":"قەبرستان"},"geometry":{"type":"Point","coordinates":[45.0708474,34.746517]}},{"type":"Feature","id":"osm-way-776023775-sports_centre","properties":{"id":"osm-way-776023775-sports_centre","name":"مەلەوانگەی ڕزگاری","kind":"poi","tier":"poi_detail","priority":50.092,"context":"ناوەندی وەرزش","category":"ناوەندی وەرزش"},"geometry":{"type":"Point","coordinates":[45.2410765,34.6573461]}},{"type":"Feature","id":"osm-way-323314028-library","properties":{"id":"osm-way-323314028-library","name":"کتێبخانەی گشتی ڕزگاری","kind":"poi","tier":"poi_detail","priority":50.092,"context":"کتێبخانە","category":"کتێبخانە"},"geometry":{"type":"Point","coordinates":[45.2434214,34.6584417]}},{"type":"Feature","id":"osm-way-1303597758-muslim","properties":{"id":"osm-way-1303597758-muslim","name":"Bazar Mosque","kind":"poi","tier":"poi_detail","priority":50.09,"context":"مزگەوت","category":"مزگەوت"},"geometry":{"type":"Point","coordinates":[45.2424954,34.6600834]}},{"type":"Feature","id":"osm-way-337005323-muslim","properties":{"id":"osm-way-337005323-muslim","name":"Haji Omar Mosque","kind":"poi","tier":"poi_detail","priority":50.09,"context":"مزگەوت","category":"مزگەوت"},"geometry":{"type":"Point","coordinates":[45.2250075,34.6672122]}},{"type":"Feature","id":"osm-way-1346016883-muslim","properties":{"id":"osm-way-1346016883-muslim","name":"مزگەوتی گەورەی سەرقەڵا","kind":"poi","tier":"poi_detail","priority":50.09,"context":"مزگەوت","category":"مزگەوت"},"geometry":{"type":"Point","coordinates":[45.066573,34.7412145]}},{"type":"Feature","id":"osm-way-1286441043-farmland","properties":{"id":"osm-way-1286441043-farmland","name":"Merwari Farm","kind":"poi","tier":"poi_detail","priority":50.045,"context":"زەوی کشتوکاڵی","category":"زەوی کشتوکاڵی"},"geometry":{"type":"Point","coordinates":[45.2370979,34.5892647]}},{"type":"Feature","id":"osm-way-328950219-landfill","properties":{"id":"osm-way-328950219-landfill","name":"Sarqala Landfill","kind":"poi","tier":"poi_detail","priority":50.045,"context":"شوێنی پاشماوە","category":"شوێنی پاشماوە"},"geometry":{"type":"Point","coordinates":[45.0721089,34.7395536]}},{"type":"Feature","id":"osm-way-18024013-farmland","properties":{"id":"osm-way-18024013-farmland","name":"دەشتی حەسیرە","kind":"poi","tier":"poi_detail","priority":50.045,"context":"زەوی کشتوکاڵی","category":"زەوی کشتوکاڵی"},"geometry":{"type":"Point","coordinates":[45.1654799,34.7041127]}}]}