{"type":"FeatureCollection","features":[{"type":"Feature","id":"osm-node-11257132717","properties":{"id":"osm-node-11257132717","name":"ئەحمەدئاوای شاتری","kind":"village","tier":"locality","priority":300,"context":"کەلار · سلێمانی","category":"گوند"},"geometry":{"type":"Point","coordinates":[45.1844879,34.8978673]}},{"type":"Feature","id":"osm-node-2489378175","properties":{"id":"osm-node-2489378175","name":"ئەحمەدئاوای ڕۆغزایی","kind":"village","tier":"locality","priority":300,"context":"کەلار · سلێمانی","category":"گوند"},"geometry":{"type":"Point","coordinates":[45.2107753,34.9263704]}},{"type":"Feature","id":"osm-node-9369925294","properties":{"id":"osm-node-9369925294","name":"بانزیخچاڵ","kind":"village","tier":"locality","priority":300,"context":"چەمچەماڵ · سلێمانی","category":"گوند"},"geometry":{"type":"Point","coordinates":[45.0243003,34.9698549]}},{"type":"Feature","id":"osm-way-786263608","properties":{"id":"osm-way-786263608","name":"بانزینخاڵ","kind":"village","tier":"locality","priority":300,"context":"چەمچەماڵ · سلێمانی","category":"گوند"},"geometry":{"type":"Point","coordinates":[45.02456018044791,34.9694897]}},{"type":"Feature","id":"osm-node-11178399579","properties":{"id":"osm-node-11178399579","name":"باوەکڕ","kind":"village","tier":"locality","priority":300,"context":"چەمچەماڵ · سلێمانی","category":"گوند"},"geometry":{"type":"Point","coordinates":[45.0419341,34.9860096]}},{"type":"Feature","id":"geonames-92825","properties":{"id":"geonames-92825","name":"باڵە ووشک","kind":"village","tier":"locality","priority":300,"context":"کەلار · سلێمانی","category":"گوند"},"geometry":{"type":"Point","coordinates":[45.15906,34.89901]}},{"type":"Feature","id":"osm-way-786262415","properties":{"id":"osm-way-786262415","name":"بنکەی شانەزەر","kind":"village","tier":"locality","priority":300,"context":"کەلار · سلێمانی","category":"گوند"},"geometry":{"type":"Point","coordinates":[45.03492130641146,34.970369649999995]}},{"type":"Feature","id":"osm-node-2489357238","properties":{"id":"osm-node-2489357238","name":"بەکرەشەل","kind":"village","tier":"locality","priority":300,"context":"کفری · دیالە","category":"گوند"},"geometry":{"type":"Point","coordinates":[45.0276413,34.7707581]}},{"type":"Feature","id":"osm-node-11259377529","properties":{"id":"osm-node-11259377529","name":"تورانی بابارەسول","kind":"village","tier":"locality","priority":300,"context":"کەلار · سلێمانی","category":"گوند"},"geometry":{"type":"Point","coordinates":[45.1995308,34.7800238]}},{"type":"Feature","id":"geonames-90065","properties":{"id":"geonames-90065","name":"تورانی باوە ڕەسوڵ","kind":"village","tier":"locality","priority":300,"context":"کەلار · سلێمانی","category":"گوند"},"geometry":{"type":"Point","coordinates":[45.19931,34.77999]}},{"type":"Feature","id":"geonames-90064","properties":{"id":"geonames-90064","name":"تورانی بچوک","kind":"village","tier":"locality","priority":300,"context":"کەلار · سلێمانی","category":"گوند"},"geometry":{"type":"Point","coordinates":[45.1975,34.77407]}},{"type":"Feature","id":"osm-node-11259366325","properties":{"id":"osm-node-11259366325","name":"تورانی شێخ سەعید","kind":"village","tier":"locality","priority":300,"context":"کەلار · سلێمانی","category":"گوند"},"geometry":{"type":"Point","coordinates":[45.195162,34.7883606]}},{"type":"Feature","id":"geonames-90067","properties":{"id":"geonames-90067","name":"تورانی شێخ سەلام","kind":"village","tier":"locality","priority":300,"context":"کەلار · سلێمانی","category":"گوند"},"geometry":{"type":"Point","coordinates":[45.18444,34.78306]}},{"type":"Feature","id":"osm-node-11259394936","properties":{"id":"osm-node-11259394936","name":"تورانی شێخ سەلام","kind":"village","tier":"locality","priority":300,"context":"کەلار · سلێمانی","category":"گوند"},"geometry":{"type":"Point","coordinates":[45.1972886,34.7739964]}},{"type":"Feature","id":"osm-way-378651703","properties":{"id":"osm-way-378651703","name":"تووکن","kind":"village","tier":"locality","priority":300,"context":"کەلار · سلێمانی","category":"گوند"},"geometry":{"type":"Point","coordinates":[45.0204131295172,34.86546965]}},{"type":"Feature","id":"osm-node-8829502693","properties":{"id":"osm-node-8829502693","name":"توکن","kind":"village","tier":"locality","priority":300,"context":"کەلار · سلێمانی","category":"گوند"},"geometry":{"type":"Point","coordinates":[45.0212142,34.8653247]}},{"type":"Feature","id":"osm-node-11259669502","properties":{"id":"osm-node-11259669502","name":"توڵەبی","kind":"village","tier":"locality","priority":300,"context":"کەلار · سلێمانی","category":"گوند"},"geometry":{"type":"Point","coordinates":[45.1592201,34.8889378]}},{"type":"Feature","id":"osm-node-11259360731","properties":{"id":"osm-node-11259360731","name":"تیلەکۆی بچوک","kind":"village","tier":"locality","priority":300,"context":"کەلار · سلێمانی","category":"گوند"},"geometry":{"type":"Point","coordinates":[45.2269931,34.8488803]}},{"type":"Feature","id":"osm-node-11259436468","properties":{"id":"osm-node-11259436468","name":"تیلەکۆی گەورە","kind":"village","tier":"locality","priority":300,"context":"کەلار · سلێمانی","category":"گوند"},"geometry":{"type":"Point","coordinates":[45.2027712,34.8464348]}},{"type":"Feature","id":"osm-node-2489372552","properties":{"id":"osm-node-2489372552","name":"تەپە سپی","kind":"village","tier":"locality","priority":300,"context":"کەلار · سلێمانی","category":"گوند"},"geometry":{"type":"Point","coordinates":[45.1008821,34.9120785]}},{"type":"Feature","id":"osm-node-11264013175","properties":{"id":"osm-node-11264013175","name":"تەپەسەوز","kind":"village","tier":"locality","priority":300,"context":"کەلار · سلێمانی","category":"گوند"},"geometry":{"type":"Point","coordinates":[45.118217,34.8725244]}},{"type":"Feature","id":"osm-node-11178489574","properties":{"id":"osm-node-11178489574","name":"خەپەکوێر","kind":"village","tier":"locality","priority":300,"context":"کەلار · سلێمانی","category":"گوند"},"geometry":{"type":"Point","coordinates":[45.0481507,34.9306417]}},{"type":"Feature","id":"osm-node-11257115241","properties":{"id":"osm-node-11257115241","name":"خەڵوە","kind":"village","tier":"locality","priority":300,"context":"کەلار · سلێمانی","category":"گوند"},"geometry":{"type":"Point","coordinates":[45.2014888,34.9061754]}},{"type":"Feature","id":"geonames-96924","properties":{"id":"geonames-96924","name":"درۆزنەی بچوک","kind":"village","tier":"locality","priority":300,"context":"کفری · دیالە","category":"گوند"},"geometry":{"type":"Point","coordinates":[45.10782,34.80789]}},{"type":"Feature","id":"osm-node-11281064782","properties":{"id":"osm-node-11281064782","name":"درۆزنەی بچوک","kind":"village","tier":"locality","priority":300,"context":"کفری · دیالە","category":"گوند"},"geometry":{"type":"Point","coordinates":[45.0944271,34.8102667]}},{"type":"Feature","id":"osm-node-11281046414","properties":{"id":"osm-node-11281046414","name":"درۆزنەی گەورە","kind":"village","tier":"locality","priority":300,"context":"کفری · دیالە","category":"گوند"},"geometry":{"type":"Point","coordinates":[45.107472,34.8077166]}},{"type":"Feature","id":"osm-way-791152616","properties":{"id":"osm-way-791152616","name":"دێ","kind":"village","tier":"locality","priority":300,"context":"کەلار · سلێمانی","category":"گوند"},"geometry":{"type":"Point","coordinates":[45.15340857011337,34.794851300000005]}},{"type":"Feature","id":"osm-node-11259423612","properties":{"id":"osm-node-11259423612","name":"زەردی حەمە","kind":"village","tier":"locality","priority":300,"context":"کەلار · سلێمانی","category":"گوند"},"geometry":{"type":"Point","coordinates":[45.20739,34.8055224]}},{"type":"Feature","id":"osm-node-11259422648","properties":{"id":"osm-node-11259422648","name":"زەردی قادر","kind":"village","tier":"locality","priority":300,"context":"کەلار · سلێمانی","category":"گوند"},"geometry":{"type":"Point","coordinates":[45.2298194,34.8266429]}},{"type":"Feature","id":"osm-node-11259420303","properties":{"id":"osm-node-11259420303","name":"زەردی مەحمود","kind":"village","tier":"locality","priority":300,"context":"کەلار · سلێمانی","category":"گوند"},"geometry":{"type":"Point","coordinates":[45.2259476,34.8229091]}},{"type":"Feature","id":"osm-node-11264025184","properties":{"id":"osm-node-11264025184","name":"سماقە","kind":"village","tier":"locality","priority":300,"context":"کەلار · سلێمانی","category":"گوند"},"geometry":{"type":"Point","coordinates":[45.0906818,34.8771752]}},{"type":"Feature","id":"osm-node-2489368054","properties":{"id":"osm-node-2489368054","name":"سێخڕان","kind":"village","tier":"locality","priority":300,"context":"کەلار · سلێمانی","category":"گوند"},"geometry":{"type":"Point","coordinates":[45.0526761,34.8377452]}},{"type":"Feature","id":"osm-node-2489368059","properties":{"id":"osm-node-2489368059","name":"سێگردان","kind":"village","tier":"locality","priority":300,"context":"کەلار · سلێمانی","category":"گوند"},"geometry":{"type":"Point","coordinates":[45.1152495,34.8366068]}},{"type":"Feature","id":"osm-node-11257103064","properties":{"id":"osm-node-11257103064","name":"سەرناوە","kind":"village","tier":"locality","priority":300,"context":"کەلار · سلێمانی","category":"گوند"},"geometry":{"type":"Point","coordinates":[45.2387852,34.9107287]}},{"type":"Feature","id":"osm-node-11204968532","properties":{"id":"osm-node-11204968532","name":"سەرکەلی خەسرەو","kind":"village","tier":"locality","priority":300,"context":"کەلار · سلێمانی","category":"گوند"},"geometry":{"type":"Point","coordinates":[45.2466487,34.9289434]}},{"type":"Feature","id":"osm-node-11256890242","properties":{"id":"osm-node-11256890242","name":"سەرەڕەش","kind":"village","tier":"locality","priority":300,"context":"کەلار · سلێمانی","category":"گوند"},"geometry":{"type":"Point","coordinates":[45.1340443,34.9968808]}},{"type":"Feature","id":"osm-node-11270224897","properties":{"id":"osm-node-11270224897","name":"سەی جەژنی","kind":"village","tier":"locality","priority":300,"context":"کفری · دیالە","category":"گوند"},"geometry":{"type":"Point","coordinates":[45.0476751,34.7580517]}},{"type":"Feature","id":"osm-node-2489376569","properties":{"id":"osm-node-2489376569","name":"سەیبێخان","kind":"village","tier":"locality","priority":300,"context":"کەلار · سلێمانی","category":"گوند"},"geometry":{"type":"Point","coordinates":[45.2360108,34.9851348]}},{"type":"Feature","id":"osm-node-11259390299","properties":{"id":"osm-node-11259390299","name":"شۆراوە","kind":"village","tier":"locality","priority":300,"context":"کەلار · سلێمانی","category":"گوند"},"geometry":{"type":"Point","coordinates":[45.2199494,34.7693433]}},{"type":"Feature","id":"osm-node-11277206801","properties":{"id":"osm-node-11277206801","name":"شەرەف خان","kind":"village","tier":"locality","priority":300,"context":"کفری · دیالە","category":"گوند"},"geometry":{"type":"Point","coordinates":[45.0174129,34.7500035]}},{"type":"Feature","id":"osm-node-2489367812","properties":{"id":"osm-node-2489367812","name":"عەزیز قادر","kind":"village","tier":"locality","priority":300,"context":"کەلار · سلێمانی","category":"گوند"},"geometry":{"type":"Point","coordinates":[45.0149681,34.8851761]}},{"type":"Feature","id":"geonames-99556","properties":{"id":"geonames-99556","name":"عەلیان بچوک","kind":"village","tier":"locality","priority":300,"context":"کەلار · سلێمانی","category":"گوند"},"geometry":{"type":"Point","coordinates":[45.07529,34.91366]}},{"type":"Feature","id":"geonames-99557","properties":{"id":"geonames-99557","name":"عەلیان گەورە","kind":"village","tier":"locality","priority":300,"context":"کەلار · سلێمانی","category":"گوند"},"geometry":{"type":"Point","coordinates":[45.09748,34.95822]}},{"type":"Feature","id":"osm-node-11178464389","properties":{"id":"osm-node-11178464389","name":"عەلیانی بچووک","kind":"village","tier":"locality","priority":300,"context":"کەلار · سلێمانی","category":"گوند"},"geometry":{"type":"Point","coordinates":[45.0742697,34.9139577]}},{"type":"Feature","id":"osm-node-11178520368","properties":{"id":"osm-node-11178520368","name":"عەلیانی گەورە","kind":"village","tier":"locality","priority":300,"context":"کەلار · سلێمانی","category":"گوند"},"geometry":{"type":"Point","coordinates":[45.0972028,34.9580102]}},{"type":"Feature","id":"osm-node-2489357241","properties":{"id":"osm-node-2489357241","name":"فەتاح هۆمەر","kind":"village","tier":"locality","priority":300,"context":"کفری · دیالە","category":"گوند"},"geometry":{"type":"Point","coordinates":[45.042294,34.7780985]}},{"type":"Feature","id":"osm-node-11263951352","properties":{"id":"osm-node-11263951352","name":"فەرەج وەیسی حەمەڕەوف","kind":"village","tier":"locality","priority":300,"context":"کەلار · سلێمانی","category":"گوند"},"geometry":{"type":"Point","coordinates":[45.1814948,34.8606449]}},{"type":"Feature","id":"osm-node-11263978081","properties":{"id":"osm-node-11263978081","name":"فەرەج وەیسی مەحمود","kind":"village","tier":"locality","priority":300,"context":"کەلار · سلێمانی","category":"گوند"},"geometry":{"type":"Point","coordinates":[45.1868464,34.8641559]}},{"type":"Feature","id":"osm-node-11257141214","properties":{"id":"osm-node-11257141214","name":"فەرەج وەیسی ڕۆستەم","kind":"village","tier":"locality","priority":300,"context":"کەلار · سلێمانی","category":"گوند"},"geometry":{"type":"Point","coordinates":[45.1734225,34.8576625]}},{"type":"Feature","id":"geonames-92414","properties":{"id":"geonames-92414","name":"قەڵا قۆچاڵی","kind":"village","tier":"locality","priority":300,"context":"کەلار · سلێمانی","category":"گوند"},"geometry":{"type":"Point","coordinates":[45.13324,34.82162]}},{"type":"Feature","id":"osm-node-11259612039","properties":{"id":"osm-node-11259612039","name":"قەڵاقوچاڵی","kind":"village","tier":"locality","priority":300,"context":"کەلار · سلێمانی","category":"گوند"},"geometry":{"type":"Point","coordinates":[45.1333573,34.821396]}},{"type":"Feature","id":"osm-node-11281284045","properties":{"id":"osm-node-11281284045","name":"قەڵاڕێویلەی خواروو","kind":"village","tier":"locality","priority":300,"context":"کەلار · سلێمانی","category":"گوند"},"geometry":{"type":"Point","coordinates":[45.2158107,34.8707503]}},{"type":"Feature","id":"osm-node-11281267745","properties":{"id":"osm-node-11281267745","name":"قەڵاڕێویلەی سەروو","kind":"village","tier":"locality","priority":300,"context":"کەلار · سلێمانی","category":"گوند"},"geometry":{"type":"Point","coordinates":[45.2387957,34.8909595]}},{"type":"Feature","id":"osm-node-2489367952","properties":{"id":"osm-node-2489367952","name":"ملەسوور","kind":"village","tier":"locality","priority":300,"context":"کەلار · سلێمانی","category":"گوند"},"geometry":{"type":"Point","coordinates":[45.1448077,34.7997836]}},{"type":"Feature","id":"osm-node-11281280612","properties":{"id":"osm-node-11281280612","name":"ناوە","kind":"village","tier":"locality","priority":300,"context":"کەلار · سلێمانی","category":"گوند"},"geometry":{"type":"Point","coordinates":[45.2121483,34.8928663]}},{"type":"Feature","id":"osm-node-11270252504","properties":{"id":"osm-node-11270252504","name":"هۆمەربەلی بچوک","kind":"village","tier":"locality","priority":300,"context":"کفری · دیالە","category":"گوند"},"geometry":{"type":"Point","coordinates":[45.0044239,34.7772857]}},{"type":"Feature","id":"osm-node-9372804958","properties":{"id":"osm-node-9372804958","name":"هەزارکانی","kind":"village","tier":"locality","priority":300,"context":"کەلار · سلێمانی","category":"گوند"},"geometry":{"type":"Point","coordinates":[45.0712583,34.8983729]}},{"type":"Feature","id":"osm-node-7354078297","properties":{"id":"osm-node-7354078297","name":"هەوارە لارە","kind":"village","tier":"locality","priority":300,"context":"کەلار · سلێمانی","category":"گوند"},"geometry":{"type":"Point","coordinates":[45.2232437,34.8870306]}},{"type":"Feature","id":"osm-node-2489371914","properties":{"id":"osm-node-2489371914","name":"هەوارەقوڵە","kind":"village","tier":"locality","priority":300,"context":"کەلار · سلێمانی","category":"گوند"},"geometry":{"type":"Point","coordinates":[45.15451,34.9273088]}},{"type":"Feature","id":"osm-node-2489376451","properties":{"id":"osm-node-2489376451","name":"هەوارەڕەقە","kind":"village","tier":"locality","priority":300,"context":"کەلار · سلێمانی","category":"گوند"},"geometry":{"type":"Point","coordinates":[45.2029912,34.9504487]}},{"type":"Feature","id":"osm-node-11259364926","properties":{"id":"osm-node-11259364926","name":"پوقە","kind":"village","tier":"locality","priority":300,"context":"کەلار · سلێمانی","category":"گوند"},"geometry":{"type":"Point","coordinates":[45.2308496,34.7859882]}},{"type":"Feature","id":"osm-node-11259585129","properties":{"id":"osm-node-11259585129","name":"پیازەجاڕ","kind":"village","tier":"locality","priority":300,"context":"کەلار · سلێمانی","category":"گوند"},"geometry":{"type":"Point","coordinates":[45.1793504,34.8284126]}},{"type":"Feature","id":"osm-node-11257152147","properties":{"id":"osm-node-11257152147","name":"پەڵەوشک","kind":"village","tier":"locality","priority":300,"context":"کەلار · سلێمانی","category":"گوند"},"geometry":{"type":"Point","coordinates":[45.1591825,34.8992783]}},{"type":"Feature","id":"osm-node-11281013529","properties":{"id":"osm-node-11281013529","name":"چوارشاخی سەروو","kind":"village","tier":"locality","priority":300,"context":"کەلار · سلێمانی","category":"گوند"},"geometry":{"type":"Point","coordinates":[45.0017335,34.8422087]}},{"type":"Feature","id":"osm-node-11259610551","properties":{"id":"osm-node-11259610551","name":"ژاڵان ڕۆبیتان","kind":"village","tier":"locality","priority":300,"context":"کەلار · سلێمانی","category":"گوند"},"geometry":{"type":"Point","coordinates":[45.1504777,34.8372069]}},{"type":"Feature","id":"osm-node-11257075183","properties":{"id":"osm-node-11257075183","name":"ژاڵان ڕۆغزایی","kind":"village","tier":"locality","priority":300,"context":"کەلار · سلێمانی","category":"گوند"},"geometry":{"type":"Point","coordinates":[45.1968596,34.9097156]}},{"type":"Feature","id":"osm-node-11256895754","properties":{"id":"osm-node-11256895754","name":"کانی عوبێد","kind":"village","tier":"locality","priority":300,"context":"کەلار · سلێمانی","category":"گوند"},"geometry":{"type":"Point","coordinates":[45.1263548,34.9760809]}},{"type":"Feature","id":"osm-node-11281063471","properties":{"id":"osm-node-11281063471","name":"کانی ماران","kind":"village","tier":"locality","priority":300,"context":"کفری · دیالە","category":"گوند"},"geometry":{"type":"Point","coordinates":[45.0762691,34.8201634]}},{"type":"Feature","id":"osm-node-2489371993","properties":{"id":"osm-node-2489371993","name":"کاکەبرا","kind":"village","tier":"locality","priority":300,"context":"کەلار · سلێمانی","category":"گوند"},"geometry":{"type":"Point","coordinates":[45.1574822,34.9388427]}},{"type":"Feature","id":"osm-node-11256918102","properties":{"id":"osm-node-11256918102","name":"کونە کۆتر","kind":"village","tier":"locality","priority":300,"context":"کەلار · سلێمانی","category":"گوند"},"geometry":{"type":"Point","coordinates":[45.1746566,34.9346362]}},{"type":"Feature","id":"osm-node-11257059248","properties":{"id":"osm-node-11257059248","name":"گامەخەڵ","kind":"village","tier":"locality","priority":300,"context":"کەلار · سلێمانی","category":"گوند"},"geometry":{"type":"Point","coordinates":[45.2186987,34.9385603]}},{"type":"Feature","id":"osm-node-11259637731","properties":{"id":"osm-node-11259637731","name":"گوڵەجۆی حەمەجان","kind":"village","tier":"locality","priority":300,"context":"کەلار · سلێمانی","category":"گوند"},"geometry":{"type":"Point","coordinates":[45.1428528,34.8519989]}},{"type":"Feature","id":"osm-node-11256954737","properties":{"id":"osm-node-11256954737","name":"گڵاڵ کەوەی حاجی نامیق","kind":"village","tier":"locality","priority":300,"context":"کەلار · سلێمانی","category":"گوند"},"geometry":{"type":"Point","coordinates":[45.216161,34.9624846]}},{"type":"Feature","id":"osm-node-11263993616","properties":{"id":"osm-node-11263993616","name":"گۆڕمسقاڵ","kind":"village","tier":"locality","priority":300,"context":"کەلار · سلێمانی","category":"گوند"},"geometry":{"type":"Point","coordinates":[45.1297569,34.8554823]}},{"type":"Feature","id":"geonames-96688","properties":{"id":"geonames-96688","name":"گەڵاڵ کەوەی ڕۆغزایی","kind":"village","tier":"locality","priority":300,"context":"کەلار · سلێمانی","category":"گوند"},"geometry":{"type":"Point","coordinates":[45.21607,34.96275]}},{"type":"Feature","id":"osm-node-2489368139","properties":{"id":"osm-node-2489368139","name":"جەم سلاحی","kind":"locality","tier":"locality","priority":200,"context":"کەلار · سلێمانی","category":"شوێنی ناوخۆیی"},"geometry":{"type":"Point","coordinates":[45.0566636,34.8992638]}},{"type":"Feature","id":"osm-node-2489367947","properties":{"id":"osm-node-2489367947","name":"خڕ چایان","kind":"locality","tier":"locality","priority":200,"context":"کەلار · سلێمانی","category":"شوێنی ناوخۆیی"},"geometry":{"type":"Point","coordinates":[45.0315189,34.8592177]}},{"type":"Feature","id":"osm-node-2489368217","properties":{"id":"osm-node-2489368217","name":"زەرد خەلیفە","kind":"locality","tier":"locality","priority":200,"context":"کەلار · سلێمانی","category":"شوێنی ناوخۆیی"},"geometry":{"type":"Point","coordinates":[45.226443,34.83581]}},{"type":"Feature","id":"osm-node-2489367868","properties":{"id":"osm-node-2489367868","name":"چەم بەڵەک","kind":"locality","tier":"locality","priority":200,"context":"کەلار · سلێمانی","category":"شوێنی ناوخۆیی"},"geometry":{"type":"Point","coordinates":[45.022498,34.861471]}},{"type":"Feature","id":"osm-node-2489368126","properties":{"id":"osm-node-2489368126","name":"چەم خۆش چپن","kind":"locality","tier":"locality","priority":200,"context":"کەلار · سلێمانی","category":"شوێنی ناوخۆیی"},"geometry":{"type":"Point","coordinates":[45.003379,34.841726]}},{"type":"Feature","id":"osm-node-2489371774","properties":{"id":"osm-node-2489371774","name":"چەمی بەمکە","kind":"locality","tier":"locality","priority":200,"context":"چەمچەماڵ · سلێمانی","category":"شوێنی ناوخۆیی"},"geometry":{"type":"Point","coordinates":[45.011069,34.968403]}},{"type":"Feature","id":"osm-natural-stream-4dd242ef6cf2dc","properties":{"id":"osm-natural-stream-4dd242ef6cf2dc","name":"Aw-a Spi","kind":"natural","tier":"natural","priority":180,"context":"جۆگە · جمجمال · سلێمانی","category":"جۆگە"},"geometry":{"type":"Point","coordinates":[45.05083,34.99944]}},{"type":"Feature","id":"osm-natural-stream-6943b0ea0cdfe7","properties":{"id":"osm-natural-stream-6943b0ea0cdfe7","name":"Cham Aw Sipi","kind":"natural","tier":"natural","priority":180,"context":"جۆگە · كلار · سلێمانی","category":"جۆگە"},"geometry":{"type":"Point","coordinates":[45.04224,34.98415]}},{"type":"Feature","id":"osm-natural-valley-8b56f8eabf4940","properties":{"id":"osm-natural-valley-8b56f8eabf4940","name":"Cham Zuwru","kind":"natural","tier":"natural","priority":180,"context":"دۆڵ · کفری · دیالە","category":"دۆڵ"},"geometry":{"type":"Point","coordinates":[45.00952,34.79653]}},{"type":"Feature","id":"osm-natural-stream-399f03103c35cb","properties":{"id":"osm-natural-stream-399f03103c35cb","name":"Chami Babakr","kind":"natural","tier":"natural","priority":180,"context":"جۆگە · كلار · سلێمانی","category":"جۆگە"},"geometry":{"type":"Point","coordinates":[45.04377,34.98645]}},{"type":"Feature","id":"osm-natural-valley-d33d2cbb859722","properties":{"id":"osm-natural-valley-d33d2cbb859722","name":"Chami Bahmkah","kind":"natural","tier":"natural","priority":180,"context":"دۆڵ · جمجمال · سلێمانی","category":"دۆڵ"},"geometry":{"type":"Point","coordinates":[45.01288,34.96844]}},{"type":"Feature","id":"osm-natural-valley-1cb6841933ccd6","properties":{"id":"osm-natural-valley-1cb6841933ccd6","name":"Khirr-i Haward Qula","kind":"natural","tier":"natural","priority":180,"context":"دۆڵ · كلار · سلێمانی","category":"دۆڵ"},"geometry":{"type":"Point","coordinates":[45.22472,34.83139]}},{"type":"Feature","id":"osm-natural-stream-fc27fc72e7b078","properties":{"id":"osm-natural-stream-fc27fc72e7b078","name":"Palkanah","kind":"natural","tier":"natural","priority":180,"context":"جۆگە · كلار · سلێمانی","category":"جۆگە"},"geometry":{"type":"Point","coordinates":[45.13109,34.99298]}},{"type":"Feature","id":"osm-natural-hill-7d772681989f53","properties":{"id":"osm-natural-hill-7d772681989f53","name":"Tall Milahkah","kind":"natural","tier":"natural","priority":180,"context":"گرد · كلار · سلێمانی","category":"گرد"},"geometry":{"type":"Point","coordinates":[45.01572,34.9174]}},{"type":"Feature","id":"osm-natural-valley-149dbd7a09653d","properties":{"id":"osm-natural-valley-149dbd7a09653d","name":"Wadi Chami Balak","kind":"natural","tier":"natural","priority":180,"context":"دۆڵ · كلار · سلێمانی","category":"دۆڵ"},"geometry":{"type":"Point","coordinates":[45.02318,34.88369]}},{"type":"Feature","id":"osm-natural-valley-6230ef8c69f7b9","properties":{"id":"osm-natural-valley-6230ef8c69f7b9","name":"Wadi Guchkah","kind":"natural","tier":"natural","priority":180,"context":"دۆڵ · كلار · سلێمانی","category":"دۆڵ"},"geometry":{"type":"Point","coordinates":[45.05893,34.84179]}},{"type":"Feature","id":"osm-natural-valley-4ffadb340ff4fe","properties":{"id":"osm-natural-valley-4ffadb340ff4fe","name":"Wadi Hawas `Ali","kind":"natural","tier":"natural","priority":180,"context":"دۆڵ · كلار · سلێمانی","category":"دۆڵ"},"geometry":{"type":"Point","coordinates":[45.21389,34.91583]}},{"type":"Feature","id":"osm-natural-valley-01bed2c42f0692","properties":{"id":"osm-natural-valley-01bed2c42f0692","name":"Wadi Khush Chapin","kind":"natural","tier":"natural","priority":180,"context":"دۆڵ · كلار · سلێمانی","category":"دۆڵ"},"geometry":{"type":"Point","coordinates":[45.00331,34.8408]}},{"type":"Feature","id":"osm-natural-stream-c8da017165bfe5","properties":{"id":"osm-natural-stream-c8da017165bfe5","name":"Wadi Palkh","kind":"natural","tier":"natural","priority":180,"context":"جۆگە · كلار · سلێمانی","category":"جۆگە"},"geometry":{"type":"Point","coordinates":[45.03333,34.96667]}},{"type":"Feature","id":"osm-natural-hill-d6e79db0a09c0a","properties":{"id":"osm-natural-hill-d6e79db0a09c0a","name":"تل زرد","kind":"natural","tier":"natural","priority":180,"context":"گرد · كلار · سلێمانی","category":"گرد"},"geometry":{"type":"Point","coordinates":[45.23193,34.81199]}},{"type":"Feature","id":"osm-natural-hill-e1de88a02f0702","properties":{"id":"osm-natural-hill-e1de88a02f0702","name":"تل وشترمل","kind":"natural","tier":"natural","priority":180,"context":"گرد · كلار · سلێمانی","category":"گرد"},"geometry":{"type":"Point","coordinates":[45.03865,34.9151]}},{"type":"Feature","id":"osm-natural-stream-f942625a19f6ac","properties":{"id":"osm-natural-stream-f942625a19f6ac","name":"توت نجار","kind":"natural","tier":"natural","priority":180,"context":"جۆگە · كلار · سلێمانی","category":"جۆگە"},"geometry":{"type":"Point","coordinates":[45.2273459,34.8255902]}},{"type":"Feature","id":"osm-natural-stream-5338f8a42ee575","properties":{"id":"osm-natural-stream-5338f8a42ee575","name":"جه روورو","kind":"natural","tier":"natural","priority":180,"context":"جۆگە · کفری · دیالە","category":"جۆگە"},"geometry":{"type":"Point","coordinates":[45.00058,34.76408]}},{"type":"Feature","id":"osm-natural-stream-eeab18dc0d5eb5","properties":{"id":"osm-natural-stream-eeab18dc0d5eb5","name":"خر إمام جاي","kind":"natural","tier":"natural","priority":180,"context":"جۆگە · کفری · دیالە","category":"جۆگە"},"geometry":{"type":"Point","coordinates":[45.1106197,34.7757859]}},{"type":"Feature","id":"osm-natural-valley-98ea40c6cf2280","properties":{"id":"osm-natural-valley-98ea40c6cf2280","name":"خر إمام جاي","kind":"natural","tier":"natural","priority":180,"context":"دۆڵ · کفری · دیالە","category":"دۆڵ"},"geometry":{"type":"Point","coordinates":[45.1068451,34.7712886]}},{"type":"Feature","id":"osm-natural-valley-7de1174d597e8e","properties":{"id":"osm-natural-valley-7de1174d597e8e","name":"سلة زريفة","kind":"natural","tier":"natural","priority":180,"context":"دۆڵ · كلار · سلێمانی","category":"دۆڵ"},"geometry":{"type":"Point","coordinates":[45.23999,34.80201]}},{"type":"Feature","id":"osm-natural-stream-83d04d5e644eb5","properties":{"id":"osm-natural-stream-83d04d5e644eb5","name":"قلاوناي","kind":"natural","tier":"natural","priority":180,"context":"جۆگە · كلار · سلێمانی","category":"جۆگە"},"geometry":{"type":"Point","coordinates":[45.16776,34.98797]}},{"type":"Feature","id":"osm-natural-stream-36d997c038bbcc","properties":{"id":"osm-natural-stream-36d997c038bbcc","name":"كومزرد","kind":"natural","tier":"natural","priority":180,"context":"جۆگە · كلار · سلێمانی","category":"جۆگە"},"geometry":{"type":"Point","coordinates":[45.22906,34.82619]}},{"type":"Feature","id":"osm-natural-stream-70495764bc8c6d","properties":{"id":"osm-natural-stream-70495764bc8c6d","name":"ملەسوور","kind":"natural","tier":"natural","priority":180,"context":"جۆگە · كلار · سلێمانی","category":"جۆگە"},"geometry":{"type":"Point","coordinates":[45.1229976,34.7804834]}},{"type":"Feature","id":"osm-natural-valley-f7d320c6136a71","properties":{"id":"osm-natural-valley-f7d320c6136a71","name":"هوار كلار","kind":"natural","tier":"natural","priority":180,"context":"دۆڵ · كلار · سلێمانی","category":"دۆڵ"},"geometry":{"type":"Point","coordinates":[45.2335,34.85321]}},{"type":"Feature","id":"osm-natural-valley-a8ab0fe4dac608","properties":{"id":"osm-natural-valley-a8ab0fe4dac608","name":"وادي بيكش","kind":"natural","tier":"natural","priority":180,"context":"دۆڵ · کفری · دیالە","category":"دۆڵ"},"geometry":{"type":"Point","coordinates":[45.04185,34.78691]}},{"type":"Feature","id":"osm-natural-valley-47cc87270b2f3b","properties":{"id":"osm-natural-valley-47cc87270b2f3b","name":"وادي تمني","kind":"natural","tier":"natural","priority":180,"context":"دۆڵ · كلار · سلێمانی","category":"دۆڵ"},"geometry":{"type":"Point","coordinates":[45.23508,34.87804]}},{"type":"Feature","id":"osm-natural-valley-f7b08b4f3a6386","properties":{"id":"osm-natural-valley-f7b08b4f3a6386","name":"وادي تيمان","kind":"natural","tier":"natural","priority":180,"context":"دۆڵ · كلار · سلێمانی","category":"دۆڵ"},"geometry":{"type":"Point","coordinates":[45.23959,34.88947]}},{"type":"Feature","id":"osm-natural-valley-ea16d3bff75301","properties":{"id":"osm-natural-valley-ea16d3bff75301","name":"وادي جابان","kind":"natural","tier":"natural","priority":180,"context":"دۆڵ · کفری · دیالە","category":"دۆڵ"},"geometry":{"type":"Point","coordinates":[45.0011462,34.8332318]}},{"type":"Feature","id":"osm-natural-valley-878dac948e8a98","properties":{"id":"osm-natural-valley-878dac948e8a98","name":"وادي جه مي عليان","kind":"natural","tier":"natural","priority":180,"context":"دۆڵ · جمجمال · سلێمانی","category":"دۆڵ"},"geometry":{"type":"Point","coordinates":[45.02535,34.97001]}},{"type":"Feature","id":"osm-natural-valley-88cc09934a830d","properties":{"id":"osm-natural-valley-88cc09934a830d","name":"وادي دار خورما","kind":"natural","tier":"natural","priority":180,"context":"دۆڵ · كلار · سلێمانی","category":"دۆڵ"},"geometry":{"type":"Point","coordinates":[45.19854,34.8042]}},{"type":"Feature","id":"osm-natural-valley-21f3830465b9a7","properties":{"id":"osm-natural-valley-21f3830465b9a7","name":"وادي رقين","kind":"natural","tier":"natural","priority":180,"context":"دۆڵ · كلار · سلێمانی","category":"دۆڵ"},"geometry":{"type":"Point","coordinates":[45.188835,34.975072]}},{"type":"Feature","id":"osm-natural-valley-d424893502f804","properties":{"id":"osm-natural-valley-d424893502f804","name":"وادي ريويلة","kind":"natural","tier":"natural","priority":180,"context":"دۆڵ · كلار · سلێمانی","category":"دۆڵ"},"geometry":{"type":"Point","coordinates":[45.2108437,34.8671274]}},{"type":"Feature","id":"osm-natural-valley-b23190497e0888","properties":{"id":"osm-natural-valley-b23190497e0888","name":"وادي سلاخي","kind":"natural","tier":"natural","priority":180,"context":"دۆڵ · كلار · سلێمانی","category":"دۆڵ"},"geometry":{"type":"Point","coordinates":[45.06479,34.89884]}},{"type":"Feature","id":"osm-natural-valley-390e505c49f737","properties":{"id":"osm-natural-valley-390e505c49f737","name":"وادي سيغاران","kind":"natural","tier":"natural","priority":180,"context":"دۆڵ · كلار · سلێمانی","category":"دۆڵ"},"geometry":{"type":"Point","coordinates":[45.05848,34.84479]}},{"type":"Feature","id":"osm-natural-valley-3021225ff94f2f","properties":{"id":"osm-natural-valley-3021225ff94f2f","name":"وادي كومة زرد","kind":"natural","tier":"natural","priority":180,"context":"دۆڵ · كلار · سلێمانی","category":"دۆڵ"},"geometry":{"type":"Point","coordinates":[45.21099,34.91878]}},{"type":"Feature","id":"osm-natural-valley-4f36db636b35e6","properties":{"id":"osm-natural-valley-4f36db636b35e6","name":"پەلکانە","kind":"natural","tier":"natural","priority":180,"context":"دۆڵ · كلار · سلێمانی","category":"دۆڵ"},"geometry":{"type":"Point","coordinates":[45.1316997,34.9942568]}},{"type":"Feature","id":"osm-natural-valley-7cd7748aad269a","properties":{"id":"osm-natural-valley-7cd7748aad269a","name":"چەم عەلیان","kind":"natural","tier":"natural","priority":180,"context":"دۆڵ · جمجمال · سلێمانی","category":"دۆڵ"},"geometry":{"type":"Point","coordinates":[45.028869,34.972329]}},{"type":"Feature","id":"osm-natural-river-82a20e26f692db","properties":{"id":"osm-natural-river-82a20e26f692db","name":"چەمی باخە ڕەش","kind":"natural","tier":"natural","priority":180,"context":"ڕووبار · كلار · سلێمانی","category":"ڕووبار"},"geometry":{"type":"Point","coordinates":[45.0393619,34.8153815]}},{"type":"Feature","id":"osm-natural-river-d8922b79e0375f","properties":{"id":"osm-natural-river-d8922b79e0375f","name":"چەمی تیلەکۆ","kind":"natural","tier":"natural","priority":180,"context":"ڕووبار · كلار · سلێمانی","category":"ڕووبار"},"geometry":{"type":"Point","coordinates":[45.1968277,34.8242005]}},{"type":"Feature","id":"osm-natural-river-bad1f60f1c848d","properties":{"id":"osm-natural-river-bad1f60f1c848d","name":"چەمی تیلەکۆ","kind":"natural","tier":"natural","priority":180,"context":"ڕووبار · کفری · دیالە","category":"ڕووبار"},"geometry":{"type":"Point","coordinates":[45.1822646,34.7591757]}},{"type":"Feature","id":"osm-natural-river-9b9481d1acf70a","properties":{"id":"osm-natural-river-9b9481d1acf70a","name":"چەمی سمایل بەکر","kind":"natural","tier":"natural","priority":180,"context":"ڕووبار · کفری · دیالە","category":"ڕووبار"},"geometry":{"type":"Point","coordinates":[45.0179947,34.7541281]}},{"type":"Feature","id":"osm-node-10246358909-attraction","properties":{"id":"osm-node-10246358909-attraction","name":"چای خانەکە","kind":"poi","tier":"poi_detail","priority":50.1,"context":"شوێنی گەشتیاری","category":"شوێنی گەشتیاری"},"geometry":{"type":"Point","coordinates":[45.0894015,34.8787651]}},{"type":"Feature","id":"osm-node-10246359009-attraction","properties":{"id":"osm-node-10246359009-attraction","name":"چایخانەکە","kind":"poi","tier":"poi_detail","priority":50.1,"context":"شوێنی گەشتیاری","category":"شوێنی گەشتیاری"},"geometry":{"type":"Point","coordinates":[45.0615345,34.927742]}},{"type":"Feature","id":"osm-way-1215005851-residential","properties":{"id":"osm-way-1215005851-residential","name":"ئەحمەدئاوای شاتری","kind":"poi","tier":"poi_local","priority":68.045,"context":"کۆمپاوندی نیشتەجێبوون","category":"کۆمپاوندی نیشتەجێبوون"},"geometry":{"type":"Point","coordinates":[45.1844,34.897844]}},{"type":"Feature","id":"osm-way-786462420-residential","properties":{"id":"osm-way-786462420-residential","name":"ئەحمەدئاوای ڕۆغزایی","kind":"poi","tier":"poi_local","priority":68.045,"context":"کۆمپاوندی نیشتەجێبوون","category":"کۆمپاوندی نیشتەجێبوون"},"geometry":{"type":"Point","coordinates":[45.2108505,34.9265479]}},{"type":"Feature","id":"osm-way-328736881-residential","properties":{"id":"osm-way-328736881-residential","name":"بەکرە شەل","kind":"poi","tier":"poi_local","priority":68.045,"context":"کۆمپاوندی نیشتەجێبوون","category":"کۆمپاوندی نیشتەجێبوون"},"geometry":{"type":"Point","coordinates":[45.0275525,34.7702854]}},{"type":"Feature","id":"osm-way-333389730-residential","properties":{"id":"osm-way-333389730-residential","name":"تورانی بابارەسول","kind":"poi","tier":"poi_local","priority":68.045,"context":"کۆمپاوندی نیشتەجێبوون","category":"کۆمپاوندی نیشتەجێبوون"},"geometry":{"type":"Point","coordinates":[45.1994774,34.7800512]}},{"type":"Feature","id":"osm-way-333389947-residential","properties":{"id":"osm-way-333389947-residential","name":"تورانی شێخ سەعید","kind":"poi","tier":"poi_local","priority":68.045,"context":"کۆمپاوندی نیشتەجێبوون","category":"کۆمپاوندی نیشتەجێبوون"},"geometry":{"type":"Point","coordinates":[45.1950006,34.7884066]}},{"type":"Feature","id":"osm-way-786465923-residential","properties":{"id":"osm-way-786465923-residential","name":"تورانی شێخ سەلام","kind":"poi","tier":"poi_local","priority":68.045,"context":"کۆمپاوندی نیشتەجێبوون","category":"کۆمپاوندی نیشتەجێبوون"},"geometry":{"type":"Point","coordinates":[45.1973813,34.7739608]}},{"type":"Feature","id":"osm-way-381702239-residential","properties":{"id":"osm-way-381702239-residential","name":"تیلەکۆی بچوک","kind":"poi","tier":"poi_local","priority":68.045,"context":"کۆمپاوندی نیشتەجێبوون","category":"کۆمپاوندی نیشتەجێبوون"},"geometry":{"type":"Point","coordinates":[45.2271493,34.848145]}},{"type":"Feature","id":"osm-way-381702241-residential","properties":{"id":"osm-way-381702241-residential","name":"تیلەکۆی گەورە","kind":"poi","tier":"poi_local","priority":68.045,"context":"کۆمپاوندی نیشتەجێبوون","category":"کۆمپاوندی نیشتەجێبوون"},"geometry":{"type":"Point","coordinates":[45.2018178,34.8454802]}},{"type":"Feature","id":"osm-way-378680680-residential","properties":{"id":"osm-way-378680680-residential","name":"خەپە کوێر","kind":"poi","tier":"poi_local","priority":68.045,"context":"کۆمپاوندی نیشتەجێبوون","category":"کۆمپاوندی نیشتەجێبوون"},"geometry":{"type":"Point","coordinates":[45.0482378,34.9296287]}},{"type":"Feature","id":"osm-way-324312686-residential","properties":{"id":"osm-way-324312686-residential","name":"زەردی حەمە","kind":"poi","tier":"poi_local","priority":68.045,"context":"کۆمپاوندی نیشتەجێبوون","category":"کۆمپاوندی نیشتەجێبوون"},"geometry":{"type":"Point","coordinates":[45.2074267,34.8053006]}},{"type":"Feature","id":"osm-way-334225846-residential","properties":{"id":"osm-way-334225846-residential","name":"زەردی قادر","kind":"poi","tier":"poi_local","priority":68.045,"context":"کۆمپاوندی نیشتەجێبوون","category":"کۆمپاوندی نیشتەجێبوون"},"geometry":{"type":"Point","coordinates":[45.2295113,34.8262037]}},{"type":"Feature","id":"osm-way-334224451-residential","properties":{"id":"osm-way-334224451-residential","name":"زەردی مەحمود","kind":"poi","tier":"poi_local","priority":68.045,"context":"کۆمپاوندی نیشتەجێبوون","category":"کۆمپاوندی نیشتەجێبوون"},"geometry":{"type":"Point","coordinates":[45.2268364,34.82338]}},{"type":"Feature","id":"osm-way-1216210558-residential","properties":{"id":"osm-way-1216210558-residential","name":"سێگردان","kind":"poi","tier":"poi_local","priority":68.045,"context":"کۆمپاوندی نیشتەجێبوون","category":"کۆمپاوندی نیشتەجێبوون"},"geometry":{"type":"Point","coordinates":[45.1153445,34.8365761]}},{"type":"Feature","id":"osm-way-1215003606-residential","properties":{"id":"osm-way-1215003606-residential","name":"سەرناوە","kind":"poi","tier":"poi_local","priority":68.045,"context":"کۆمپاوندی نیشتەجێبوون","category":"کۆمپاوندی نیشتەجێبوون"},"geometry":{"type":"Point","coordinates":[45.2389952,34.9106979]}},{"type":"Feature","id":"osm-way-1209365099-residential","properties":{"id":"osm-way-1209365099-residential","name":"سەرکەلی خەسرەو","kind":"poi","tier":"poi_local","priority":68.045,"context":"کۆمپاوندی نیشتەجێبوون","category":"کۆمپاوندی نیشتەجێبوون"},"geometry":{"type":"Point","coordinates":[45.2466885,34.9287506]}},{"type":"Feature","id":"osm-way-1214977162-residential","properties":{"id":"osm-way-1214977162-residential","name":"سەرەڕەش","kind":"poi","tier":"poi_local","priority":68.045,"context":"کۆمپاوندی نیشتەجێبوون","category":"کۆمپاوندی نیشتەجێبوون"},"geometry":{"type":"Point","coordinates":[45.1343466,34.996991]}},{"type":"Feature","id":"osm-way-328821295-residential","properties":{"id":"osm-way-328821295-residential","name":"سەی جەژنی","kind":"poi","tier":"poi_local","priority":68.045,"context":"کۆمپاوندی نیشتەجێبوون","category":"کۆمپاوندی نیشتەجێبوون"},"geometry":{"type":"Point","coordinates":[45.0477982,34.7588128]}},{"type":"Feature","id":"osm-way-1208496427-residential","properties":{"id":"osm-way-1208496427-residential","name":"سەیبێخان","kind":"poi","tier":"poi_local","priority":68.045,"context":"کۆمپاوندی نیشتەجێبوون","category":"کۆمپاوندی نیشتەجێبوون"},"geometry":{"type":"Point","coordinates":[45.2358428,34.9852501]}},{"type":"Feature","id":"osm-way-333952658-residential","properties":{"id":"osm-way-333952658-residential","name":"شۆراوە","kind":"poi","tier":"poi_local","priority":68.045,"context":"کۆمپاوندی نیشتەجێبوون","category":"کۆمپاوندی نیشتەجێبوون"},"geometry":{"type":"Point","coordinates":[45.2197684,34.769391]}},{"type":"Feature","id":"osm-way-1217497629-residential","properties":{"id":"osm-way-1217497629-residential","name":"عەزیز قادر","kind":"poi","tier":"poi_local","priority":68.045,"context":"کۆمپاوندی نیشتەجێبوون","category":"کۆمپاوندی نیشتەجێبوون"},"geometry":{"type":"Point","coordinates":[45.0150575,34.8851378]}},{"type":"Feature","id":"osm-way-378649976-residential","properties":{"id":"osm-way-378649976-residential","name":"عەلیانی بچووک","kind":"poi","tier":"poi_local","priority":68.045,"context":"کۆمپاوندی نیشتەجێبوون","category":"کۆمپاوندی نیشتەجێبوون"},"geometry":{"type":"Point","coordinates":[45.0744552,34.9141363]}},{"type":"Feature","id":"osm-way-378650458-residential","properties":{"id":"osm-way-378650458-residential","name":"عەلیانی گەورە","kind":"poi","tier":"poi_local","priority":68.045,"context":"کۆمپاوندی نیشتەجێبوون","category":"کۆمپاوندی نیشتەجێبوون"},"geometry":{"type":"Point","coordinates":[45.0967747,34.9573631]}},{"type":"Feature","id":"osm-way-383344262-residential","properties":{"id":"osm-way-383344262-residential","name":"فەرەج وەیسی حەمەڕەوف","kind":"poi","tier":"poi_local","priority":68.045,"context":"کۆمپاوندی نیشتەجێبوون","category":"کۆمپاوندی نیشتەجێبوون"},"geometry":{"type":"Point","coordinates":[45.1815028,34.8606614]}},{"type":"Feature","id":"osm-way-381711519-residential","properties":{"id":"osm-way-381711519-residential","name":"فەرەج وەیسی مەحمود","kind":"poi","tier":"poi_local","priority":68.045,"context":"کۆمپاوندی نیشتەجێبوون","category":"کۆمپاوندی نیشتەجێبوون"},"geometry":{"type":"Point","coordinates":[45.1867591,34.8643191]}},{"type":"Feature","id":"osm-way-1215713658-residential","properties":{"id":"osm-way-1215713658-residential","name":"فەرەج وەیسی ڕۆستەم","kind":"poi","tier":"poi_local","priority":68.045,"context":"کۆمپاوندی نیشتەجێبوون","category":"کۆمپاوندی نیشتەجێبوون"},"geometry":{"type":"Point","coordinates":[45.1733514,34.857625]}},{"type":"Feature","id":"osm-way-1215297386-residential","properties":{"id":"osm-way-1215297386-residential","name":"قەڵاقوچاڵی","kind":"poi","tier":"poi_local","priority":68.045,"context":"کۆمپاوندی نیشتەجێبوون","category":"کۆمپاوندی نیشتەجێبوون"},"geometry":{"type":"Point","coordinates":[45.1330518,34.8218108]}},{"type":"Feature","id":"osm-way-381711112-residential","properties":{"id":"osm-way-381711112-residential","name":"قەڵاڕێویلەی خواروو","kind":"poi","tier":"poi_local","priority":68.045,"context":"کۆمپاوندی نیشتەجێبوون","category":"کۆمپاوندی نیشتەجێبوون"},"geometry":{"type":"Point","coordinates":[45.2161869,34.8711016]}},{"type":"Feature","id":"osm-way-381702235-residential","properties":{"id":"osm-way-381702235-residential","name":"قەڵاڕێویلەی سەروو","kind":"poi","tier":"poi_local","priority":68.045,"context":"کۆمپاوندی نیشتەجێبوون","category":"کۆمپاوندی نیشتەجێبوون"},"geometry":{"type":"Point","coordinates":[45.2386348,34.8907999]}},{"type":"Feature","id":"osm-way-1217525194-residential","properties":{"id":"osm-way-1217525194-residential","name":"ناوە","kind":"poi","tier":"poi_local","priority":68.045,"context":"کۆمپاوندی نیشتەجێبوون","category":"کۆمپاوندی نیشتەجێبوون"},"geometry":{"type":"Point","coordinates":[45.2120049,34.8929314]}},{"type":"Feature","id":"osm-way-328988610-residential","properties":{"id":"osm-way-328988610-residential","name":"هۆمەربەلی بچوک","kind":"poi","tier":"poi_local","priority":68.045,"context":"کۆمپاوندی نیشتەجێبوون","category":"کۆمپاوندی نیشتەجێبوون"},"geometry":{"type":"Point","coordinates":[45.0044143,34.7776282]}},{"type":"Feature","id":"osm-way-1216211791-residential","properties":{"id":"osm-way-1216211791-residential","name":"هەزارکانی","kind":"poi","tier":"poi_local","priority":68.045,"context":"کۆمپاوندی نیشتەجێبوون","category":"کۆمپاوندی نیشتەجێبوون"},"geometry":{"type":"Point","coordinates":[45.0712375,34.8984564]}},{"type":"Feature","id":"osm-way-1217526081-residential","properties":{"id":"osm-way-1217526081-residential","name":"هەوارە لارە","kind":"poi","tier":"poi_local","priority":68.045,"context":"کۆمپاوندی نیشتەجێبوون","category":"کۆمپاوندی نیشتەجێبوون"},"geometry":{"type":"Point","coordinates":[45.2232534,34.8869497]}},{"type":"Feature","id":"osm-way-1214983861-residential","properties":{"id":"osm-way-1214983861-residential","name":"هەوارەقوڵە","kind":"poi","tier":"poi_local","priority":68.045,"context":"کۆمپاوندی نیشتەجێبوون","category":"کۆمپاوندی نیشتەجێبوون"},"geometry":{"type":"Point","coordinates":[45.1548694,34.9274808]}},{"type":"Feature","id":"osm-way-1214985505-residential","properties":{"id":"osm-way-1214985505-residential","name":"هەوارەڕەقە","kind":"poi","tier":"poi_local","priority":68.045,"context":"کۆمپاوندی نیشتەجێبوون","category":"کۆمپاوندی نیشتەجێبوون"},"geometry":{"type":"Point","coordinates":[45.2033464,34.9504582]}},{"type":"Feature","id":"osm-way-333951305-residential","properties":{"id":"osm-way-333951305-residential","name":"پوقە","kind":"poi","tier":"poi_local","priority":68.045,"context":"کۆمپاوندی نیشتەجێبوون","category":"کۆمپاوندی نیشتەجێبوون"},"geometry":{"type":"Point","coordinates":[45.2308373,34.7856932]}},{"type":"Feature","id":"osm-way-334156395-residential","properties":{"id":"osm-way-334156395-residential","name":"پیازەجاڕ","kind":"poi","tier":"poi_local","priority":68.045,"context":"کۆمپاوندی نیشتەجێبوون","category":"کۆمپاوندی نیشتەجێبوون"},"geometry":{"type":"Point","coordinates":[45.1786431,34.8283768]}},{"type":"Feature","id":"osm-way-333394042-residential","properties":{"id":"osm-way-333394042-residential","name":"ژاڵان ڕۆبیتان","kind":"poi","tier":"poi_local","priority":68.045,"context":"کۆمپاوندی نیشتەجێبوون","category":"کۆمپاوندی نیشتەجێبوون"},"geometry":{"type":"Point","coordinates":[45.1505509,34.8371477]}},{"type":"Feature","id":"osm-way-1214977869-residential","properties":{"id":"osm-way-1214977869-residential","name":"کانی عوبێد","kind":"poi","tier":"poi_local","priority":68.045,"context":"کۆمپاوندی نیشتەجێبوون","category":"کۆمپاوندی نیشتەجێبوون"},"geometry":{"type":"Point","coordinates":[45.1259643,34.9764173]}},{"type":"Feature","id":"osm-way-381718543-residential","properties":{"id":"osm-way-381718543-residential","name":"کاکەبرا","kind":"poi","tier":"poi_local","priority":68.045,"context":"کۆمپاوندی نیشتەجێبوون","category":"کۆمپاوندی نیشتەجێبوون"},"geometry":{"type":"Point","coordinates":[45.1574584,34.9388543]}},{"type":"Feature","id":"osm-way-381718542-residential","properties":{"id":"osm-way-381718542-residential","name":"کونە کۆتر","kind":"poi","tier":"poi_local","priority":68.045,"context":"کۆمپاوندی نیشتەجێبوون","category":"کۆمپاوندی نیشتەجێبوون"},"geometry":{"type":"Point","coordinates":[45.174624,34.9344575]}},{"type":"Feature","id":"osm-way-383351035-residential","properties":{"id":"osm-way-383351035-residential","name":"گامەخەڵ","kind":"poi","tier":"poi_local","priority":68.045,"context":"کۆمپاوندی نیشتەجێبوون","category":"کۆمپاوندی نیشتەجێبوون"},"geometry":{"type":"Point","coordinates":[45.2188237,34.9390163]}},{"type":"Feature","id":"osm-way-1214986878-residential","properties":{"id":"osm-way-1214986878-residential","name":"گڵاڵ کەوەی حاجی نامیق","kind":"poi","tier":"poi_local","priority":68.045,"context":"کۆمپاوندی نیشتەجێبوون","category":"کۆمپاوندی نیشتەجێبوون"},"geometry":{"type":"Point","coordinates":[45.2158892,34.9624943]}},{"type":"Feature","id":"osm-way-232297339-industrial","properties":{"id":"osm-way-232297339-industrial","name":"محطە معالجە سرقلە المرکزیە","kind":"poi","tier":"poi_local","priority":66.045,"context":"ناوچەی پیشەسازی","category":"ناوچەی پیشەسازی"},"geometry":{"type":"Point","coordinates":[45.1518454,34.7545425]}},{"type":"Feature","id":"osm-node-2485265885-windmill","properties":{"id":"osm-node-2485265885-windmill","name":"ئاسیاو","kind":"poi","tier":"poi_detail","priority":50.1,"context":"ئاشی با","category":"ئاشی با"},"geometry":{"type":"Point","coordinates":[45.042361,34.983506]}},{"type":"Feature","id":"osm-node-2489367920-graveyard","properties":{"id":"osm-node-2489367920-graveyard","name":"امام محمد","kind":"poi","tier":"poi_detail","priority":50.1,"context":"قەبرستان","category":"قەبرستان"},"geometry":{"type":"Point","coordinates":[45.15,34.816667]}},{"type":"Feature","id":"osm-node-2489372363-graveyard","properties":{"id":"osm-node-2489372363-graveyard","name":"قبر رستم اغا","kind":"poi","tier":"poi_detail","priority":50.1,"context":"قەبرستان","category":"قەبرستان"},"geometry":{"type":"Point","coordinates":[45.078303,34.99564]}},{"type":"Feature","id":"osm-node-7792292586-viewpoint","properties":{"id":"osm-node-7792292586-viewpoint","name":"مصیف کناروی","kind":"poi","tier":"poi_detail","priority":50.1,"context":"شوێنی سەیران","category":"شوێنی سەیران"},"geometry":{"type":"Point","coordinates":[45.0428298,34.8054974]}},{"type":"Feature","id":"osm-way-791146261-dam","properties":{"id":"osm-way-791146261-dam","name":"ملەسوور","kind":"poi","tier":"poi_detail","priority":50.086,"context":"بەنداوی ئاو","category":"بەنداوی ئاو"},"geometry":{"type":"Point","coordinates":[45.1543531,34.8025205]}},{"type":"Feature","id":"osm-way-328808767-landfill","properties":{"id":"osm-way-328808767-landfill","name":"Omarmil Landfill","kind":"poi","tier":"poi_detail","priority":50.045,"context":"شوێنی پاشماوە","category":"شوێنی پاشماوە"},"geometry":{"type":"Point","coordinates":[45.0004664,34.7847407]}},{"type":"Feature","id":"osm-way-328815737-landfill","properties":{"id":"osm-way-328815737-landfill","name":"Omarmil Landfill","kind":"poi","tier":"poi_detail","priority":50.045,"context":"شوێنی پاشماوە","category":"شوێنی پاشماوە"},"geometry":{"type":"Point","coordinates":[45.0032882,34.7836726]}},{"type":"Feature","id":"osm-way-328815738-landfill","properties":{"id":"osm-way-328815738-landfill","name":"Omarmil Landfill","kind":"poi","tier":"poi_detail","priority":50.045,"context":"شوێنی پاشماوە","category":"شوێنی پاشماوە"},"geometry":{"type":"Point","coordinates":[45.0010297,34.7833514]}},{"type":"Feature","id":"osm-way-18043423-farmland","properties":{"id":"osm-way-18043423-farmland","name":"دەشتی سەرقەڵا","kind":"poi","tier":"poi_detail","priority":50.045,"context":"زەوی کشتوکاڵی","category":"زەوی کشتوکاڵی"},"geometry":{"type":"Point","coordinates":[45.0644133,34.7850131]}}]}