{"type":"FeatureCollection","features":[{"type":"Feature","id":"osm-node-11181090263","properties":{"id":"osm-node-11181090263","name":"ئاوەبۆرەکەی خواروو","kind":"village","tier":"locality","priority":300,"context":"چەمچەماڵ · سلێمانی","category":"گوند"},"geometry":{"type":"Point","coordinates":[45.0232038,35.3163462]}},{"type":"Feature","id":"osm-node-11181081939","properties":{"id":"osm-node-11181081939","name":"ئاوەبۆرەکەی سەروو","kind":"village","tier":"locality","priority":300,"context":"چەمچەماڵ · سلێمانی","category":"گوند"},"geometry":{"type":"Point","coordinates":[45.014856,35.327703]}},{"type":"Feature","id":"osm-node-11240648940","properties":{"id":"osm-node-11240648940","name":"ئۆغلیجە","kind":"village","tier":"locality","priority":300,"context":"چەمچەماڵ · سلێمانی","category":"گوند"},"geometry":{"type":"Point","coordinates":[45.2178609,35.3818867]}},{"type":"Feature","id":"osm-node-2488278404","properties":{"id":"osm-node-2488278404","name":"ئەحمەد لەوەند","kind":"village","tier":"locality","priority":300,"context":"چەمچەماڵ · سلێمانی","category":"گوند"},"geometry":{"type":"Point","coordinates":[45.049543,35.456183]}},{"type":"Feature","id":"osm-node-11247757372","properties":{"id":"osm-node-11247757372","name":"باخەگردەڵە","kind":"village","tier":"locality","priority":300,"context":"چەمچەماڵ · سلێمانی","category":"گوند"},"geometry":{"type":"Point","coordinates":[45.1439628,35.2778027]}},{"type":"Feature","id":"osm-node-7206328720","properties":{"id":"osm-node-7206328720","name":"باسەڕە","kind":"village","tier":"locality","priority":300,"context":"چەمچەماڵ · سلێمانی","category":"گوند"},"geometry":{"type":"Point","coordinates":[45.086297,35.3975178]}},{"type":"Feature","id":"osm-node-10891570979","properties":{"id":"osm-node-10891570979","name":"تیلەکۆی حەمەڕەزا","kind":"village","tier":"locality","priority":300,"context":"چەمچەماڵ · سلێمانی","category":"گوند"},"geometry":{"type":"Point","coordinates":[45.1495772,35.4303233]}},{"type":"Feature","id":"osm-node-10891563253","properties":{"id":"osm-node-10891563253","name":"تەپەسوورە","kind":"village","tier":"locality","priority":300,"context":"چەمچەماڵ · سلێمانی","category":"گوند"},"geometry":{"type":"Point","coordinates":[45.1442129,35.4118546]}},{"type":"Feature","id":"geonames-7330096","properties":{"id":"geonames-7330096","name":"جنۆکە سمۆر","kind":"village","tier":"locality","priority":300,"context":"چەمچەماڵ · سلێمانی","category":"گوند"},"geometry":{"type":"Point","coordinates":[45.12982,35.31151]}},{"type":"Feature","id":"osm-node-11256831050","properties":{"id":"osm-node-11256831050","name":"جەژنەواری حەمە تالیب","kind":"village","tier":"locality","priority":300,"context":"چەمچەماڵ · سلێمانی","category":"گوند"},"geometry":{"type":"Point","coordinates":[45.1196416,35.3386591]}},{"type":"Feature","id":"osm-node-11256775903","properties":{"id":"osm-node-11256775903","name":"جەژنەواری غەیدان","kind":"village","tier":"locality","priority":300,"context":"چەمچەماڵ · سلێمانی","category":"گوند"},"geometry":{"type":"Point","coordinates":[45.1212865,35.3268217]}},{"type":"Feature","id":"osm-node-11254800257","properties":{"id":"osm-node-11254800257","name":"جەژنەواری فەتاح","kind":"village","tier":"locality","priority":300,"context":"چەمچەماڵ · سلێمانی","category":"گوند"},"geometry":{"type":"Point","coordinates":[45.120357,35.3292956]}},{"type":"Feature","id":"osm-node-11247764363","properties":{"id":"osm-node-11247764363","name":"جەژنەواری قازی","kind":"village","tier":"locality","priority":300,"context":"چەمچەماڵ · سلێمانی","category":"گوند"},"geometry":{"type":"Point","coordinates":[45.1296401,35.3114316]}},{"type":"Feature","id":"osm-node-2488302284","properties":{"id":"osm-node-2488302284","name":"خاوێ","kind":"village","tier":"locality","priority":300,"context":"سلێمانی · سلێمانی","category":"گوند"},"geometry":{"type":"Point","coordinates":[45.2409821,35.3898251]}},{"type":"Feature","id":"geonames-94402","properties":{"id":"geonames-94402","name":"خدر","kind":"village","tier":"locality","priority":300,"context":"چەمچەماڵ · سلێمانی","category":"گوند"},"geometry":{"type":"Point","coordinates":[45.17919,35.29693]}},{"type":"Feature","id":"osm-node-11240622567","properties":{"id":"osm-node-11240622567","name":"خدری سەروو","kind":"village","tier":"locality","priority":300,"context":"چەمچەماڵ · سلێمانی","category":"گوند"},"geometry":{"type":"Point","coordinates":[45.1791271,35.2970367]}},{"type":"Feature","id":"geonames-94626","properties":{"id":"geonames-94626","name":"خلیل حاجی","kind":"village","tier":"locality","priority":300,"context":"چەمچەماڵ · سلێمانی","category":"گوند"},"geometry":{"type":"Point","coordinates":[45.14875,35.4299]}},{"type":"Feature","id":"osm-node-9424610447","properties":{"id":"osm-node-9424610447","name":"خوێڵێنی ئاوەلێڵەکە","kind":"village","tier":"locality","priority":300,"context":"چەمچەماڵ · سلێمانی","category":"گوند"},"geometry":{"type":"Point","coordinates":[45.0012959,35.3665212]}},{"type":"Feature","id":"osm-node-2488283570","properties":{"id":"osm-node-2488283570","name":"خێڵی مەسوور","kind":"village","tier":"locality","priority":300,"context":"چەمچەماڵ · سلێمانی","category":"گوند"},"geometry":{"type":"Point","coordinates":[45.079055,35.363522]}},{"type":"Feature","id":"osm-node-11240604419","properties":{"id":"osm-node-11240604419","name":"دلکە","kind":"village","tier":"locality","priority":300,"context":"چەمچەماڵ · سلێمانی","category":"گوند"},"geometry":{"type":"Point","coordinates":[45.2000529,35.3591609]}},{"type":"Feature","id":"osm-node-11247499707","properties":{"id":"osm-node-11247499707","name":"دووەر","kind":"village","tier":"locality","priority":300,"context":"چەمچەماڵ · سلێمانی","category":"گوند"},"geometry":{"type":"Point","coordinates":[45.078309,35.3876925]}},{"type":"Feature","id":"osm-way-1053287985","properties":{"id":"osm-way-1053287985","name":"دێ","kind":"village","tier":"locality","priority":300,"context":"چەمچەماڵ · سلێمانی","category":"گوند"},"geometry":{"type":"Point","coordinates":[45.132248424674906,35.46227745]}},{"type":"Feature","id":"osm-node-9927051652","properties":{"id":"osm-node-9927051652","name":"دێلێژە","kind":"village","tier":"locality","priority":300,"context":"سلێمانی · سلێمانی","category":"گوند"},"geometry":{"type":"Point","coordinates":[45.1973806,35.4562819]}},{"type":"Feature","id":"osm-node-10316193920","properties":{"id":"osm-node-10316193920","name":"دەربەندەسوتاو","kind":"village","tier":"locality","priority":300,"context":"سلێمانی · سلێمانی","category":"گوند"},"geometry":{"type":"Point","coordinates":[45.1949246,35.4731417]}},{"type":"Feature","id":"osm-node-11240624171","properties":{"id":"osm-node-11240624171","name":"دەروێشانی بچوک","kind":"village","tier":"locality","priority":300,"context":"چەمچەماڵ · سلێمانی","category":"گوند"},"geometry":{"type":"Point","coordinates":[45.1568374,35.3725962]}},{"type":"Feature","id":"osm-node-2488304816","properties":{"id":"osm-node-2488304816","name":"دەروێشانی گەورە","kind":"village","tier":"locality","priority":300,"context":"چەمچەماڵ · سلێمانی","category":"گوند"},"geometry":{"type":"Point","coordinates":[45.1678423,35.3890163]}},{"type":"Feature","id":"osm-node-9295552529","properties":{"id":"osm-node-9295552529","name":"زەلە سوتاو","kind":"village","tier":"locality","priority":300,"context":"چەمچەماڵ · سلێمانی","category":"گوند"},"geometry":{"type":"Point","coordinates":[45.0684738,35.3759422]}},{"type":"Feature","id":"osm-node-10891989059","properties":{"id":"osm-node-10891989059","name":"زەنان","kind":"village","tier":"locality","priority":300,"context":"چەمچەماڵ · سلێمانی","category":"گوند"},"geometry":{"type":"Point","coordinates":[45.0164899,35.4612864]}},{"type":"Feature","id":"osm-node-10891972296","properties":{"id":"osm-node-10891972296","name":"سۆفی حەسەن","kind":"village","tier":"locality","priority":300,"context":"چەمچەماڵ · سلێمانی","category":"گوند"},"geometry":{"type":"Point","coordinates":[45.1075077,35.4706351]}},{"type":"Feature","id":"osm-way-824939080","properties":{"id":"osm-way-824939080","name":"سۆڵەی تازە","kind":"village","tier":"locality","priority":300,"context":"سلێمانی · سلێمانی","category":"گوند"},"geometry":{"type":"Point","coordinates":[45.19790902681347,35.463253949999995]}},{"type":"Feature","id":"osm-way-824935744","properties":{"id":"osm-way-824935744","name":"سۆڵەی دەربەند","kind":"village","tier":"locality","priority":300,"context":"سلێمانی · سلێمانی","category":"گوند"},"geometry":{"type":"Point","coordinates":[45.228015723220594,35.461661050000004]}},{"type":"Feature","id":"osm-node-11256842474","properties":{"id":"osm-node-11256842474","name":"شاحەسەن","kind":"village","tier":"locality","priority":300,"context":"چەمچەماڵ · سلێمانی","category":"گوند"},"geometry":{"type":"Point","coordinates":[45.1011733,35.3484425]}},{"type":"Feature","id":"osm-node-11254728136","properties":{"id":"osm-node-11254728136","name":"شاحەسەنی فەریق","kind":"village","tier":"locality","priority":300,"context":"چەمچەماڵ · سلێمانی","category":"گوند"},"geometry":{"type":"Point","coordinates":[45.0564934,35.3738247]}},{"type":"Feature","id":"osm-node-2489371940","properties":{"id":"osm-node-2489371940","name":"عێزەتاوە","kind":"village","tier":"locality","priority":300,"context":"چەمچەماڵ · سلێمانی","category":"گوند"},"geometry":{"type":"Point","coordinates":[45.1082993,35.2846782]}},{"type":"Feature","id":"osm-node-10891960854","properties":{"id":"osm-node-10891960854","name":"عەلی زەنگەنە","kind":"village","tier":"locality","priority":300,"context":"چەمچەماڵ · سلێمانی","category":"گوند"},"geometry":{"type":"Point","coordinates":[45.0849061,35.4680856]}},{"type":"Feature","id":"osm-node-11247529767","properties":{"id":"osm-node-11247529767","name":"فەقێ حاجی","kind":"village","tier":"locality","priority":300,"context":"چەمچەماڵ · سلێمانی","category":"گوند"},"geometry":{"type":"Point","coordinates":[45.1252668,35.3872797]}},{"type":"Feature","id":"osm-node-11181806745","properties":{"id":"osm-node-11181806745","name":"قاسم بەگزادە","kind":"village","tier":"locality","priority":300,"context":"چەمچەماڵ · سلێمانی","category":"گوند"},"geometry":{"type":"Point","coordinates":[45.0134049,35.4245199]}},{"type":"Feature","id":"osm-node-10891921941","properties":{"id":"osm-node-10891921941","name":"قولە","kind":"village","tier":"locality","priority":300,"context":"چەمچەماڵ · سلێمانی","category":"گوند"},"geometry":{"type":"Point","coordinates":[45.0686715,35.4379546]}},{"type":"Feature","id":"osm-node-7646154068","properties":{"id":"osm-node-7646154068","name":"قەڵای شێخ ڕەشید","kind":"village","tier":"locality","priority":300,"context":"چەمچەماڵ · سلێمانی","category":"گوند"},"geometry":{"type":"Point","coordinates":[45.1971605,35.2660091]}},{"type":"Feature","id":"osm-node-11181099820","properties":{"id":"osm-node-11181099820","name":"قەیتول","kind":"village","tier":"locality","priority":300,"context":"چەمچەماڵ · سلێمانی","category":"گوند"},"geometry":{"type":"Point","coordinates":[45.0259068,35.2902481]}},{"type":"Feature","id":"osm-node-2488302944","properties":{"id":"osm-node-2488302944","name":"لەتیفاوە","kind":"village","tier":"locality","priority":300,"context":"سلێمانی · سلێمانی","category":"گوند"},"geometry":{"type":"Point","coordinates":[45.2360585,35.4924988]}},{"type":"Feature","id":"osm-node-11247744678","properties":{"id":"osm-node-11247744678","name":"میرەیی حەمەحەسەن","kind":"village","tier":"locality","priority":300,"context":"چەمچەماڵ · سلێمانی","category":"گوند"},"geometry":{"type":"Point","coordinates":[45.1374773,35.3003592]}},{"type":"Feature","id":"osm-node-11247756256","properties":{"id":"osm-node-11247756256","name":"میرەیی حەوزەوار","kind":"village","tier":"locality","priority":300,"context":"چەمچەماڵ · سلێمانی","category":"گوند"},"geometry":{"type":"Point","coordinates":[45.1516843,35.2921844]}},{"type":"Feature","id":"osm-node-2488302948","properties":{"id":"osm-node-2488302948","name":"مێوڵێ","kind":"village","tier":"locality","priority":300,"context":"سلێمانی · سلێمانی","category":"گوند"},"geometry":{"type":"Point","coordinates":[45.2254949,35.4175414]}},{"type":"Feature","id":"osm-node-10891962020","properties":{"id":"osm-node-10891962020","name":"مەحمودێ","kind":"village","tier":"locality","priority":300,"context":"چەمچەماڵ · سلێمانی","category":"گوند"},"geometry":{"type":"Point","coordinates":[45.1086453,35.4101281]}},{"type":"Feature","id":"osm-node-11169217341","properties":{"id":"osm-node-11169217341","name":"مەلا حسێن","kind":"village","tier":"locality","priority":300,"context":"چەمچەماڵ · سلێمانی","category":"گوند"},"geometry":{"type":"Point","coordinates":[45.0781334,35.3955095]}},{"type":"Feature","id":"osm-node-9556704441","properties":{"id":"osm-node-9556704441","name":"مەملەحەی خوێڵینی گۆم","kind":"village","tier":"locality","priority":300,"context":"چەمچەماڵ · سلێمانی","category":"گوند"},"geometry":{"type":"Point","coordinates":[45.0078734,35.3564636]}},{"type":"Feature","id":"osm-node-10891553699","properties":{"id":"osm-node-10891553699","name":"هەشەزینی","kind":"village","tier":"locality","priority":300,"context":"چەمچەماڵ · سلێمانی","category":"گوند"},"geometry":{"type":"Point","coordinates":[45.1175832,35.405136]}},{"type":"Feature","id":"osm-way-825381029","properties":{"id":"osm-way-825381029","name":"هەمزە ڕوومی","kind":"village","tier":"locality","priority":300,"context":"چەمچەماڵ · سلێمانی","category":"گوند"},"geometry":{"type":"Point","coordinates":[45.20632365711486,35.3079039]}},{"type":"Feature","id":"osm-node-11240562534","properties":{"id":"osm-node-11240562534","name":"هەنارەی خوارو","kind":"village","tier":"locality","priority":300,"context":"چەمچەماڵ · سلێمانی","category":"گوند"},"geometry":{"type":"Point","coordinates":[45.2254606,35.2951693]}},{"type":"Feature","id":"osm-node-11237685173","properties":{"id":"osm-node-11237685173","name":"هەڕێنە","kind":"village","tier":"locality","priority":300,"context":"چەمچەماڵ · سلێمانی","category":"گوند"},"geometry":{"type":"Point","coordinates":[45.0419272,35.2536737]}},{"type":"Feature","id":"osm-node-11256843950","properties":{"id":"osm-node-11256843950","name":"پنگڵەی دووەری تازە","kind":"village","tier":"locality","priority":300,"context":"چەمچەماڵ · سلێمانی","category":"گوند"},"geometry":{"type":"Point","coordinates":[45.1164215,35.3699408]}},{"type":"Feature","id":"osm-node-11237935678","properties":{"id":"osm-node-11237935678","name":"پونگڵە","kind":"village","tier":"locality","priority":300,"context":"چەمچەماڵ · سلێمانی","category":"گوند"},"geometry":{"type":"Point","coordinates":[45.0463759,35.3212918]}},{"type":"Feature","id":"osm-node-2488305265","properties":{"id":"osm-node-2488305265","name":"پونگەڵەی حاجی سەعید","kind":"village","tier":"locality","priority":300,"context":"چەمچەماڵ · سلێمانی","category":"گوند"},"geometry":{"type":"Point","coordinates":[45.1038694,35.3563899]}},{"type":"Feature","id":"geonames-3204886","properties":{"id":"geonames-3204886","name":"پونگەڵەی سەیید","kind":"village","tier":"locality","priority":300,"context":"چەمچەماڵ · سلێمانی","category":"گوند"},"geometry":{"type":"Point","coordinates":[45.23705,35.35627]}},{"type":"Feature","id":"geonames-93741","properties":{"id":"geonames-93741","name":"چاڵەی مەملەحە","kind":"village","tier":"locality","priority":300,"context":"چەمچەماڵ · سلێمانی","category":"گوند"},"geometry":{"type":"Point","coordinates":[45.00793,35.35568]}},{"type":"Feature","id":"geonames-13406254","properties":{"id":"geonames-13406254","name":"چراغە ڕووتە","kind":"village","tier":"locality","priority":300,"context":"چەمچەماڵ · سلێمانی","category":"گوند"},"geometry":{"type":"Point","coordinates":[45.0441,35.39865]}},{"type":"Feature","id":"osm-node-2488278497","properties":{"id":"osm-node-2488278497","name":"چراغە ڕووتە","kind":"village","tier":"locality","priority":300,"context":"چەمچەماڵ · سلێمانی","category":"گوند"},"geometry":{"type":"Point","coordinates":[45.0279186,35.4175488]}},{"type":"Feature","id":"osm-node-7933307385","properties":{"id":"osm-node-7933307385","name":"چەپەچنارە","kind":"village","tier":"locality","priority":300,"context":"سلێمانی · سلێمانی","category":"گوند"},"geometry":{"type":"Point","coordinates":[45.1822088,35.4506579]}},{"type":"Feature","id":"osm-node-2488305283","properties":{"id":"osm-node-2488305283","name":"ژاڵەی دەربەند","kind":"village","tier":"locality","priority":300,"context":"چەمچەماڵ · سلێمانی","category":"گوند"},"geometry":{"type":"Point","coordinates":[45.1360849,35.4550206]}},{"type":"Feature","id":"osm-node-11240632700","properties":{"id":"osm-node-11240632700","name":"کانی خاکی","kind":"village","tier":"locality","priority":300,"context":"چەمچەماڵ · سلێمانی","category":"گوند"},"geometry":{"type":"Point","coordinates":[45.2031938,35.333037]}},{"type":"Feature","id":"osm-node-10895585132","properties":{"id":"osm-node-10895585132","name":"کانی مامە","kind":"village","tier":"locality","priority":300,"context":"چەمچەماڵ · سلێمانی","category":"گوند"},"geometry":{"type":"Point","coordinates":[45.0491541,35.3798306]}},{"type":"Feature","id":"osm-node-10891977977","properties":{"id":"osm-node-10891977977","name":"کانی مستەفا","kind":"village","tier":"locality","priority":300,"context":"چەمچەماڵ · سلێمانی","category":"گوند"},"geometry":{"type":"Point","coordinates":[45.0940034,35.4949383]}},{"type":"Feature","id":"osm-node-10891970884","properties":{"id":"osm-node-10891970884","name":"کانی کەوە","kind":"village","tier":"locality","priority":300,"context":"چەمچەماڵ · سلێمانی","category":"گوند"},"geometry":{"type":"Point","coordinates":[45.044422,35.4785716]}},{"type":"Feature","id":"osm-node-10891954866","properties":{"id":"osm-node-10891954866","name":"کونەکۆتر","kind":"village","tier":"locality","priority":300,"context":"چەمچەماڵ · سلێمانی","category":"گوند"},"geometry":{"type":"Point","coordinates":[45.0277397,35.4330578]}},{"type":"Feature","id":"osm-node-11237953377","properties":{"id":"osm-node-11237953377","name":"کەریمەجەل","kind":"village","tier":"locality","priority":300,"context":"چەمچەماڵ · سلێمانی","category":"گوند"},"geometry":{"type":"Point","coordinates":[45.0748401,35.2917279]}},{"type":"Feature","id":"geonames-383774","properties":{"id":"geonames-383774","name":"کەلە ڕەشی","kind":"village","tier":"locality","priority":300,"context":"چەمچەماڵ · سلێمانی","category":"گوند"},"geometry":{"type":"Point","coordinates":[45.15868,35.34133]}},{"type":"Feature","id":"geonames-95006","properties":{"id":"geonames-95006","name":"کەلە ڕەشی","kind":"village","tier":"locality","priority":300,"context":"چەمچەماڵ · سلێمانی","category":"گوند"},"geometry":{"type":"Point","coordinates":[45.16576,35.35093]}},{"type":"Feature","id":"osm-node-11237931810","properties":{"id":"osm-node-11237931810","name":"کەڵان","kind":"village","tier":"locality","priority":300,"context":"چەمچەماڵ · سلێمانی","category":"گوند"},"geometry":{"type":"Point","coordinates":[45.1183352,35.2655042]}},{"type":"Feature","id":"osm-node-11240627771","properties":{"id":"osm-node-11240627771","name":"کەڵەڕەشی بچووک","kind":"village","tier":"locality","priority":300,"context":"چەمچەماڵ · سلێمانی","category":"گوند"},"geometry":{"type":"Point","coordinates":[45.1690396,35.3316986]}},{"type":"Feature","id":"osm-node-11240620234","properties":{"id":"osm-node-11240620234","name":"کەڵەڕەشی حەمەسڵێمان","kind":"village","tier":"locality","priority":300,"context":"چەمچەماڵ · سلێمانی","category":"گوند"},"geometry":{"type":"Point","coordinates":[45.134139,35.3288329]}},{"type":"Feature","id":"osm-node-11254750972","properties":{"id":"osm-node-11254750972","name":"کەڵەڕەشی ناوبەردەکان","kind":"village","tier":"locality","priority":300,"context":"چەمچەماڵ · سلێمانی","category":"گوند"},"geometry":{"type":"Point","coordinates":[45.1586896,35.341262]}},{"type":"Feature","id":"osm-node-2488304857","properties":{"id":"osm-node-2488304857","name":"کەڵەڕەشی گەورە","kind":"village","tier":"locality","priority":300,"context":"چەمچەماڵ · سلێمانی","category":"گوند"},"geometry":{"type":"Point","coordinates":[45.1676348,35.3531452]}},{"type":"Feature","id":"osm-node-2488302940","properties":{"id":"osm-node-2488302940","name":"گوڕباز","kind":"village","tier":"locality","priority":300,"context":"سلێمانی · سلێمانی","category":"گوند"},"geometry":{"type":"Point","coordinates":[45.2300793,35.4350229]}},{"type":"Feature","id":"osm-node-2488304836","properties":{"id":"osm-node-2488304836","name":"گۆمەزەرد","kind":"village","tier":"locality","priority":300,"context":"چەمچەماڵ · سلێمانی","category":"گوند"},"geometry":{"type":"Point","coordinates":[45.1752638,35.401192]}},{"type":"Feature","id":"osm-node-2489371812","properties":{"id":"osm-node-2489371812","name":"گۆیژە","kind":"village","tier":"locality","priority":300,"context":"چەمچەماڵ · سلێمانی","category":"گوند"},"geometry":{"type":"Point","coordinates":[45.1002606,35.3002713]}},{"type":"Feature","id":"osm-node-10895560696","properties":{"id":"osm-node-10895560696","name":"گەڕاوی حاجی شەریف","kind":"village","tier":"locality","priority":300,"context":"چەمچەماڵ · سلێمانی","category":"گوند"},"geometry":{"type":"Point","coordinates":[45.0152563,35.3984803]}},{"type":"Feature","id":"osm-node-2488303588","properties":{"id":"osm-node-2488303588","name":"دارەکەی میرەش","kind":"locality","tier":"locality","priority":200,"context":"چەمچەماڵ · سلێمانی","category":"شوێنی ناوخۆیی"},"geometry":{"type":"Point","coordinates":[45.203,35.401135]}},{"type":"Feature","id":"osm-node-2488304898","properties":{"id":"osm-node-2488304898","name":"شاخی باسەڕە","kind":"locality","tier":"locality","priority":200,"context":"سلێمانی · سلێمانی","category":"شوێنی ناوخۆیی"},"geometry":{"type":"Point","coordinates":[45.1698371,35.4664566]}},{"type":"Feature","id":"osm-node-2489372561","properties":{"id":"osm-node-2489372561","name":"قەڵاقوچ","kind":"locality","tier":"locality","priority":200,"context":"چەمچەماڵ · سلێمانی","category":"شوێنی ناوخۆیی"},"geometry":{"type":"Point","coordinates":[45.128603,35.27101]}},{"type":"Feature","id":"osm-node-9295520519","properties":{"id":"osm-node-9295520519","name":"پردی بێ مەحکەمە","kind":"locality","tier":"locality","priority":200,"context":"چەمچەماڵ · سلێمانی","category":"شوێنی ناوخۆیی"},"geometry":{"type":"Point","coordinates":[45.1073377,35.3826724]}},{"type":"Feature","id":"osm-node-2488305284","properties":{"id":"osm-node-2488305284","name":"چەمی فەقی حاجی","kind":"locality","tier":"locality","priority":200,"context":"چەمچەماڵ · سلێمانی","category":"شوێنی ناوخۆیی"},"geometry":{"type":"Point","coordinates":[45.1219619,35.3861078]}},{"type":"Feature","id":"osm-natural-mountain-6a8c4fb1869911","properties":{"id":"osm-natural-mountain-6a8c4fb1869911","name":"Bask-i Zannun","kind":"natural","tier":"natural","priority":180,"context":"شاخ · جمجمال · سلێمانی","category":"شاخ"},"geometry":{"type":"Point","coordinates":[45.06444,35.28028]}},{"type":"Feature","id":"osm-natural-hill-9c8a8fe2744529","properties":{"id":"osm-natural-hill-9c8a8fe2744529","name":"Baxe Grdele","kind":"natural","tier":"natural","priority":180,"context":"گرد · جمجمال · سلێمانی","category":"گرد"},"geometry":{"type":"Point","coordinates":[45.1461,35.28159]}},{"type":"Feature","id":"osm-natural-valley-3aac93624f3456","properties":{"id":"osm-natural-valley-3aac93624f3456","name":"Cham-i Mastar","kind":"natural","tier":"natural","priority":180,"context":"دۆڵ · السليمانية · سلێمانی","category":"دۆڵ"},"geometry":{"type":"Point","coordinates":[45.19444,35.46111]}},{"type":"Feature","id":"osm-natural-stream-1f07cb7650a5f0","properties":{"id":"osm-natural-stream-1f07cb7650a5f0","name":"Chami Baji Ma Rash","kind":"natural","tier":"natural","priority":180,"context":"جۆگە · جمجمال · سلێمانی","category":"جۆگە"},"geometry":{"type":"Point","coordinates":[45.12746,35.36846]}},{"type":"Feature","id":"osm-natural-stream-3eb362e48875a7","properties":{"id":"osm-natural-stream-3eb362e48875a7","name":"Chami Basara","kind":"natural","tier":"natural","priority":180,"context":"جۆگە · جمجمال · سلێمانی","category":"جۆگە"},"geometry":{"type":"Point","coordinates":[45.02948,35.39529]}},{"type":"Feature","id":"osm-natural-valley-5c7bcbecf33701","properties":{"id":"osm-natural-valley-5c7bcbecf33701","name":"Chami Chalaka","kind":"natural","tier":"natural","priority":180,"context":"دۆڵ · جمجمال · سلێمانی","category":"دۆڵ"},"geometry":{"type":"Point","coordinates":[45.15872,35.34395]}},{"type":"Feature","id":"osm-natural-valley-4841071e9a3bc1","properties":{"id":"osm-natural-valley-4841071e9a3bc1","name":"Chami Darwishan Gawra","kind":"natural","tier":"natural","priority":180,"context":"دۆڵ · جمجمال · سلێمانی","category":"دۆڵ"},"geometry":{"type":"Point","coordinates":[45.15511,35.38253]}},{"type":"Feature","id":"osm-natural-valley-df3d0fe8ace573","properties":{"id":"osm-natural-valley-df3d0fe8ace573","name":"Chami Galali","kind":"natural","tier":"natural","priority":180,"context":"دۆڵ · جمجمال · سلێمانی","category":"دۆڵ"},"geometry":{"type":"Point","coordinates":[45.1554,35.3822]}},{"type":"Feature","id":"osm-natural-stream-20aa97b0c419d6","properties":{"id":"osm-natural-stream-20aa97b0c419d6","name":"Chami Jalus Bika","kind":"natural","tier":"natural","priority":180,"context":"جۆگە · جمجمال · سلێمانی","category":"جۆگە"},"geometry":{"type":"Point","coordinates":[45.11206,35.37343]}},{"type":"Feature","id":"osm-natural-stream-fcba3c8d76ef50","properties":{"id":"osm-natural-stream-fcba3c8d76ef50","name":"Chami Kalahrashi","kind":"natural","tier":"natural","priority":180,"context":"جۆگە · جمجمال · سلێمانی","category":"جۆگە"},"geometry":{"type":"Point","coordinates":[45.12498,35.34928]}},{"type":"Feature","id":"osm-natural-stream-bf265bc69176b0","properties":{"id":"osm-natural-stream-bf265bc69176b0","name":"Chami Kumat","kind":"natural","tier":"natural","priority":180,"context":"جۆگە · جمجمال · سلێمانی","category":"جۆگە"},"geometry":{"type":"Point","coordinates":[45.11353,35.43344]}},{"type":"Feature","id":"osm-natural-valley-080165af43e9a2","properties":{"id":"osm-natural-valley-080165af43e9a2","name":"Chami Likan","kind":"natural","tier":"natural","priority":180,"context":"دۆڵ · جمجمال · سلێمانی","category":"دۆڵ"},"geometry":{"type":"Point","coordinates":[45.15328,35.44079]}},{"type":"Feature","id":"osm-natural-valley-3a5e6bffa3948f","properties":{"id":"osm-natural-valley-3a5e6bffa3948f","name":"Chami Qala Bakh","kind":"natural","tier":"natural","priority":180,"context":"دۆڵ · جمجمال · سلێمانی","category":"دۆڵ"},"geometry":{"type":"Point","coordinates":[45.07855,35.49061]}},{"type":"Feature","id":"osm-natural-mountain_pass-4a13e1a55bfc03","properties":{"id":"osm-natural-mountain_pass-4a13e1a55bfc03","name":"Darband Awa Spi","kind":"natural","tier":"natural","priority":180,"context":"دەروازەی شاخ · جمجمال · سلێمانی","category":"دەروازەی شاخ"},"geometry":{"type":"Point","coordinates":[45.138,35.46019]}},{"type":"Feature","id":"osm-natural-hill-80d9d027421a9f","properties":{"id":"osm-natural-hill-80d9d027421a9f","name":"Galak Yara","kind":"natural","tier":"natural","priority":180,"context":"گرد · جمجمال · سلێمانی","category":"گرد"},"geometry":{"type":"Point","coordinates":[45.22556,35.28889]}},{"type":"Feature","id":"osm-natural-hill-91d0c9ab12dff8","properties":{"id":"osm-natural-hill-91d0c9ab12dff8","name":"Gird-i Aghali","kind":"natural","tier":"natural","priority":180,"context":"گرد · جمجمال · سلێمانی","category":"گرد"},"geometry":{"type":"Point","coordinates":[45.12678,35.36691]}},{"type":"Feature","id":"osm-natural-hill-5d06aae6f42d23","properties":{"id":"osm-natural-hill-5d06aae6f42d23","name":"Gird-i Bal Nukaka","kind":"natural","tier":"natural","priority":180,"context":"گرد · جمجمال · سلێمانی","category":"گرد"},"geometry":{"type":"Point","coordinates":[45.13681,35.46183]}},{"type":"Feature","id":"osm-natural-hill-b3eb292371ebcb","properties":{"id":"osm-natural-hill-b3eb292371ebcb","name":"Gird-i Bardina","kind":"natural","tier":"natural","priority":180,"context":"گرد · جمجمال · سلێمانی","category":"گرد"},"geometry":{"type":"Point","coordinates":[45.13917,35.25056]}},{"type":"Feature","id":"osm-natural-hill-bc04a97aa99d18","properties":{"id":"osm-natural-hill-bc04a97aa99d18","name":"Gird-i Bartawin","kind":"natural","tier":"natural","priority":180,"context":"گرد · جمجمال · سلێمانی","category":"گرد"},"geometry":{"type":"Point","coordinates":[45.07857,35.40908]}},{"type":"Feature","id":"osm-natural-hill-ea4818190fa406","properties":{"id":"osm-natural-hill-ea4818190fa406","name":"Gird-i Bawa al Yas","kind":"natural","tier":"natural","priority":180,"context":"گرد · جمجمال · سلێمانی","category":"گرد"},"geometry":{"type":"Point","coordinates":[45.10231,35.4164]}},{"type":"Feature","id":"osm-natural-hill-93f2383976ce4f","properties":{"id":"osm-natural-hill-93f2383976ce4f","name":"Gird-i Bayshank Basarah","kind":"natural","tier":"natural","priority":180,"context":"گرد · جمجمال · سلێمانی","category":"گرد"},"geometry":{"type":"Point","coordinates":[45.06549,35.39328]}},{"type":"Feature","id":"osm-natural-hill-396884cb1a842b","properties":{"id":"osm-natural-hill-396884cb1a842b","name":"Gird-i Chalaw","kind":"natural","tier":"natural","priority":180,"context":"گرد · السليمانية · سلێمانی","category":"گرد"},"geometry":{"type":"Point","coordinates":[45.16622,35.47913]}},{"type":"Feature","id":"osm-natural-hill-b69ed74ea54459","properties":{"id":"osm-natural-hill-b69ed74ea54459","name":"Gird-i Dalarash","kind":"natural","tier":"natural","priority":180,"context":"گرد · جمجمال · سلێمانی","category":"گرد"},"geometry":{"type":"Point","coordinates":[45.10028,35.33833]}},{"type":"Feature","id":"osm-natural-hill-00de20e1bfca48","properties":{"id":"osm-natural-hill-00de20e1bfca48","name":"Gird-i Dar Nika","kind":"natural","tier":"natural","priority":180,"context":"گرد · جمجمال · سلێمانی","category":"گرد"},"geometry":{"type":"Point","coordinates":[45.12551,35.42189]}},{"type":"Feature","id":"osm-natural-hill-123d685f991501","properties":{"id":"osm-natural-hill-123d685f991501","name":"Gird-i Du Girdan","kind":"natural","tier":"natural","priority":180,"context":"گرد · جمجمال · سلێمانی","category":"گرد"},"geometry":{"type":"Point","coordinates":[45.11859,35.42218]}},{"type":"Feature","id":"osm-natural-hill-4f85ad903d695a","properties":{"id":"osm-natural-hill-4f85ad903d695a","name":"Gird-i Dusar","kind":"natural","tier":"natural","priority":180,"context":"گرد · جمجمال · سلێمانی","category":"گرد"},"geometry":{"type":"Point","coordinates":[45.15499,35.37823]}},{"type":"Feature","id":"osm-natural-hill-0330fbb37e083a","properties":{"id":"osm-natural-hill-0330fbb37e083a","name":"Gird-i Jinuka","kind":"natural","tier":"natural","priority":180,"context":"گرد · جمجمال · سلێمانی","category":"گرد"},"geometry":{"type":"Point","coordinates":[45.10811,35.33779]}},{"type":"Feature","id":"osm-natural-hill-9e3c0bb48ddc49","properties":{"id":"osm-natural-hill-9e3c0bb48ddc49","name":"Gird-i Kanilan Sur","kind":"natural","tier":"natural","priority":180,"context":"گرد · جمجمال · سلێمانی","category":"گرد"},"geometry":{"type":"Point","coordinates":[45.07422,35.38821]}},{"type":"Feature","id":"osm-natural-hill-c9ae4934dbca86","properties":{"id":"osm-natural-hill-c9ae4934dbca86","name":"Gird-i Kawra","kind":"natural","tier":"natural","priority":180,"context":"گرد · جمجمال · سلێمانی","category":"گرد"},"geometry":{"type":"Point","coordinates":[45.11253,35.47673]}},{"type":"Feature","id":"osm-natural-hill-ab5b408e3da63d","properties":{"id":"osm-natural-hill-ab5b408e3da63d","name":"Gird-i Khanari Hamzah","kind":"natural","tier":"natural","priority":180,"context":"گرد · جمجمال · سلێمانی","category":"گرد"},"geometry":{"type":"Point","coordinates":[45.09776,35.45591]}},{"type":"Feature","id":"osm-natural-hill-53fa7a38b91f4e","properties":{"id":"osm-natural-hill-53fa7a38b91f4e","name":"Gird-i Pir Khidr","kind":"natural","tier":"natural","priority":180,"context":"گرد · جمجمال · سلێمانی","category":"گرد"},"geometry":{"type":"Point","coordinates":[45.0925,35.30056]}},{"type":"Feature","id":"osm-natural-hill-a05e6397544e37","properties":{"id":"osm-natural-hill-a05e6397544e37","name":"Gird-i Qala","kind":"natural","tier":"natural","priority":180,"context":"گرد · جمجمال · سلێمانی","category":"گرد"},"geometry":{"type":"Point","coordinates":[45.1524,35.43775]}},{"type":"Feature","id":"osm-natural-hill-dd34f4fa32d446","properties":{"id":"osm-natural-hill-dd34f4fa32d446","name":"Gird-i Qulnaji","kind":"natural","tier":"natural","priority":180,"context":"گرد · جمجمال · سلێمانی","category":"گرد"},"geometry":{"type":"Point","coordinates":[45.14767,35.4498]}},{"type":"Feature","id":"osm-natural-hill-1a43f07f879241","properties":{"id":"osm-natural-hill-1a43f07f879241","name":"Gird-i Qutah Surka","kind":"natural","tier":"natural","priority":180,"context":"گرد · جمجمال · سلێمانی","category":"گرد"},"geometry":{"type":"Point","coordinates":[45.09214,35.47266]}},{"type":"Feature","id":"osm-natural-hill-22cb7378b1c9fc","properties":{"id":"osm-natural-hill-22cb7378b1c9fc","name":"Gird-i Sarkal","kind":"natural","tier":"natural","priority":180,"context":"گرد · جمجمال · سلێمانی","category":"گرد"},"geometry":{"type":"Point","coordinates":[45.09928,35.43393]}},{"type":"Feature","id":"osm-natural-hill-a4b6c413f3a3fe","properties":{"id":"osm-natural-hill-a4b6c413f3a3fe","name":"Gird-i Say Bayjan","kind":"natural","tier":"natural","priority":180,"context":"گرد · جمجمال · سلێمانی","category":"گرد"},"geometry":{"type":"Point","coordinates":[45.13259,35.47118]}},{"type":"Feature","id":"osm-natural-hill-266ae828aa067e","properties":{"id":"osm-natural-hill-266ae828aa067e","name":"Gird-i Saznan","kind":"natural","tier":"natural","priority":180,"context":"گرد · جمجمال · سلێمانی","category":"گرد"},"geometry":{"type":"Point","coordinates":[45.07612,35.48385]}},{"type":"Feature","id":"osm-natural-hill-c1d2d8789783c7","properties":{"id":"osm-natural-hill-c1d2d8789783c7","name":"Gird-i Sharif","kind":"natural","tier":"natural","priority":180,"context":"گرد · جمجمال · سلێمانی","category":"گرد"},"geometry":{"type":"Point","coordinates":[45.0803,35.44955]}},{"type":"Feature","id":"osm-natural-hill-f769ae5e253570","properties":{"id":"osm-natural-hill-f769ae5e253570","name":"Gird-i Shirinawka","kind":"natural","tier":"natural","priority":180,"context":"گرد · جمجمال · سلێمانی","category":"گرد"},"geometry":{"type":"Point","coordinates":[45.09933,35.48532]}},{"type":"Feature","id":"osm-natural-hill-ab80446e880846","properties":{"id":"osm-natural-hill-ab80446e880846","name":"Gird-i Takhtahkhan","kind":"natural","tier":"natural","priority":180,"context":"گرد · جمجمال · سلێمانی","category":"گرد"},"geometry":{"type":"Point","coordinates":[45.16476,35.46003]}},{"type":"Feature","id":"osm-natural-hill-897703dd29548c","properties":{"id":"osm-natural-hill-897703dd29548c","name":"Girda Gilazarda","kind":"natural","tier":"natural","priority":180,"context":"گرد · جمجمال · سلێمانی","category":"گرد"},"geometry":{"type":"Point","coordinates":[45.12159,35.49276]}},{"type":"Feature","id":"osm-natural-hill-60efb29d9d2471","properties":{"id":"osm-natural-hill-60efb29d9d2471","name":"Girdah Quch","kind":"natural","tier":"natural","priority":180,"context":"گرد · جمجمال · سلێمانی","category":"گرد"},"geometry":{"type":"Point","coordinates":[45.08263,35.39187]}},{"type":"Feature","id":"osm-natural-spring-c1ccbece08fa03","properties":{"id":"osm-natural-spring-c1ccbece08fa03","name":"Kani Khaki","kind":"natural","tier":"natural","priority":180,"context":"کانی · جمجمال · سلێمانی","category":"کانی"},"geometry":{"type":"Point","coordinates":[45.2,35.33333]}},{"type":"Feature","id":"osm-natural-peak-31d7fa10760935","properties":{"id":"osm-natural-peak-31d7fa10760935","name":"Qimmat Tall Kirdah Bahrazan","kind":"natural","tier":"natural","priority":180,"context":"لوتکە · جمجمال · سلێمانی","category":"لوتکە"},"geometry":{"type":"Point","coordinates":[45.23273,35.29767]}},{"type":"Feature","id":"osm-natural-mountain-1a2cb36786a48c","properties":{"id":"osm-natural-mountain-1a2cb36786a48c","name":"Shakh-i Darband-i Basira","kind":"natural","tier":"natural","priority":180,"context":"شاخ · السليمانية · سلێمانی","category":"شاخ"},"geometry":{"type":"Point","coordinates":[45.16985,35.46638]}},{"type":"Feature","id":"osm-natural-mountain-a62ac88426c701","properties":{"id":"osm-natural-mountain-a62ac88426c701","name":"Shakh-i Hanjira","kind":"natural","tier":"natural","priority":180,"context":"شاخ · السليمانية · سلێمانی","category":"شاخ"},"geometry":{"type":"Point","coordinates":[45.18583,35.45]}},{"type":"Feature","id":"osm-natural-mountain-21519adb1ddf8b","properties":{"id":"osm-natural-mountain-21519adb1ddf8b","name":"Shax-i Segrme","kind":"natural","tier":"natural","priority":180,"context":"شاخ · جمجمال · سلێمانی","category":"شاخ"},"geometry":{"type":"Point","coordinates":[45.17889,35.40139]}},{"type":"Feature","id":"osm-natural-hill-cf2623936d4aeb","properties":{"id":"osm-natural-hill-cf2623936d4aeb","name":"Tall Ahmar Kirdah Bahriz","kind":"natural","tier":"natural","priority":180,"context":"گرد · جمجمال · سلێمانی","category":"گرد"},"geometry":{"type":"Point","coordinates":[45.07523,35.31031]}},{"type":"Feature","id":"osm-natural-hill-4cd88610937690","properties":{"id":"osm-natural-hill-4cd88610937690","name":"Tall Bahrdah Bahlah","kind":"natural","tier":"natural","priority":180,"context":"گرد · جمجمال · سلێمانی","category":"گرد"},"geometry":{"type":"Point","coordinates":[45.16745,35.2849]}},{"type":"Feature","id":"osm-natural-hill-b895811de0f976","properties":{"id":"osm-natural-hill-b895811de0f976","name":"Tall Bahrmankahkah","kind":"natural","tier":"natural","priority":180,"context":"گرد · جمجمال · سلێمانی","category":"گرد"},"geometry":{"type":"Point","coordinates":[45.1836,35.32303]}},{"type":"Feature","id":"osm-natural-hill-7b4252cac1ebb3","properties":{"id":"osm-natural-hill-7b4252cac1ebb3","name":"Tall Kirdahmin","kind":"natural","tier":"natural","priority":180,"context":"گرد · جمجمال · سلێمانی","category":"گرد"},"geometry":{"type":"Point","coordinates":[45.16887,35.30245]}},{"type":"Feature","id":"osm-natural-hill-9d3c0b733ac7a0","properties":{"id":"osm-natural-hill-9d3c0b733ac7a0","name":"Tall Kunah Bahmuwanah","kind":"natural","tier":"natural","priority":180,"context":"گرد · جمجمال · سلێمانی","category":"گرد"},"geometry":{"type":"Point","coordinates":[45.15332,35.29054]}},{"type":"Feature","id":"osm-natural-hill-6fbc0d949aa5fd","properties":{"id":"osm-natural-hill-6fbc0d949aa5fd","name":"Tall Mahrtahwi","kind":"natural","tier":"natural","priority":180,"context":"گرد · جمجمال · سلێمانی","category":"گرد"},"geometry":{"type":"Point","coordinates":[45.09749,35.3215]}},{"type":"Feature","id":"osm-natural-hill-ef4fe59ffe1039","properties":{"id":"osm-natural-hill-ef4fe59ffe1039","name":"Tall Pisht Jinukah","kind":"natural","tier":"natural","priority":180,"context":"گرد · جمجمال · سلێمانی","category":"گرد"},"geometry":{"type":"Point","coordinates":[45.13406,35.31326]}},{"type":"Feature","id":"osm-natural-hill-8e70846314d6d0","properties":{"id":"osm-natural-hill-8e70846314d6d0","name":"Tall Qaditah Kahdah","kind":"natural","tier":"natural","priority":180,"context":"گرد · جمجمال · سلێمانی","category":"گرد"},"geometry":{"type":"Point","coordinates":[45.1922,35.25704]}},{"type":"Feature","id":"osm-natural-hill-1886a97ae1cc18","properties":{"id":"osm-natural-hill-1886a97ae1cc18","name":"Tall Shahkah Rahsh","kind":"natural","tier":"natural","priority":180,"context":"گرد · جمجمال · سلێمانی","category":"گرد"},"geometry":{"type":"Point","coordinates":[45.10649,35.31236]}},{"type":"Feature","id":"osm-natural-reservoir-bc098fd754932b","properties":{"id":"osm-natural-reservoir-bc098fd754932b","name":"بحیرة ھشةزیني","kind":"natural","tier":"natural","priority":180,"context":"بەنداوی ئاو · جمجمال · سلێمانی","category":"بەنداوی ئاو"},"geometry":{"type":"Point","coordinates":[45.109908,35.3986752]}},{"type":"Feature","id":"osm-natural-lake-a2e5a9abd4d926","properties":{"id":"osm-natural-lake-a2e5a9abd4d926","name":"بەنداوی قەیتوول","kind":"natural","tier":"natural","priority":180,"context":"دەریاچە · جمجمال · سلێمانی","category":"دەریاچە"},"geometry":{"type":"Point","coordinates":[45.0121608,35.2930933]}},{"type":"Feature","id":"osm-natural-hill-6fb88d6a54d62c","properties":{"id":"osm-natural-hill-6fb88d6a54d62c","name":"تل احمر كردة سور","kind":"natural","tier":"natural","priority":180,"context":"گرد · جمجمال · سلێمانی","category":"گرد"},"geometry":{"type":"Point","coordinates":[45.07297,35.31293]}},{"type":"Feature","id":"osm-natural-hill-860d60cb3f4ec4","properties":{"id":"osm-natural-hill-860d60cb3f4ec4","name":"تل استيل","kind":"natural","tier":"natural","priority":180,"context":"گرد · جمجمال · سلێمانی","category":"گرد"},"geometry":{"type":"Point","coordinates":[45.20187,35.25509]}},{"type":"Feature","id":"osm-natural-hill-ac6791ae51fdc6","properties":{"id":"osm-natural-hill-ac6791ae51fdc6","name":"تل امام","kind":"natural","tier":"natural","priority":180,"context":"گرد · جمجمال · سلێمانی","category":"گرد"},"geometry":{"type":"Point","coordinates":[45.01997,35.3119]}},{"type":"Feature","id":"osm-natural-hill-7dd71cf45c8c87","properties":{"id":"osm-natural-hill-7dd71cf45c8c87","name":"تل امام شامورا","kind":"natural","tier":"natural","priority":180,"context":"گرد · جمجمال · سلێمانی","category":"گرد"},"geometry":{"type":"Point","coordinates":[45.16454,35.26232]}},{"type":"Feature","id":"osm-natural-hill-392ce582d47059","properties":{"id":"osm-natural-hill-392ce582d47059","name":"تل بير محمود","kind":"natural","tier":"natural","priority":180,"context":"گرد · جمجمال · سلێمانی","category":"گرد"},"geometry":{"type":"Point","coordinates":[45.09774,35.28987]}},{"type":"Feature","id":"osm-natural-hill-a05a5f6ee0890d","properties":{"id":"osm-natural-hill-a05a5f6ee0890d","name":"تل جنكة تلبان","kind":"natural","tier":"natural","priority":180,"context":"گرد · جمجمال · سلێمانی","category":"گرد"},"geometry":{"type":"Point","coordinates":[45.15758,35.30724]}},{"type":"Feature","id":"osm-natural-hill-853f6a6e803d20","properties":{"id":"osm-natural-hill-853f6a6e803d20","name":"تل حوت هوار","kind":"natural","tier":"natural","priority":180,"context":"گرد · جمجمال · سلێمانی","category":"گرد"},"geometry":{"type":"Point","coordinates":[45.15158,35.3036]}},{"type":"Feature","id":"osm-natural-hill-fa083bd25716df","properties":{"id":"osm-natural-hill-fa083bd25716df","name":"تل داربةروكة","kind":"natural","tier":"natural","priority":180,"context":"گرد · جمجمال · سلێمانی","category":"گرد"},"geometry":{"type":"Point","coordinates":[45.18728,35.26231]}},{"type":"Feature","id":"osm-natural-hill-c612764306addb","properties":{"id":"osm-natural-hill-c612764306addb","name":"تل سنكة","kind":"natural","tier":"natural","priority":180,"context":"گرد · جمجمال · سلێمانی","category":"گرد"},"geometry":{"type":"Point","coordinates":[45.09781,35.28159]}},{"type":"Feature","id":"osm-natural-hill-fee267cb0d9b7f","properties":{"id":"osm-natural-hill-fee267cb0d9b7f","name":"تل سه ري ملةلان","kind":"natural","tier":"natural","priority":180,"context":"گرد · السليمانية · سلێمانی","category":"گرد"},"geometry":{"type":"Point","coordinates":[45.22386,35.42048]}},{"type":"Feature","id":"osm-natural-hill-c6a58c4c8180f3","properties":{"id":"osm-natural-hill-c6a58c4c8180f3","name":"تل فاتكة","kind":"natural","tier":"natural","priority":180,"context":"گرد · جمجمال · سلێمانی","category":"گرد"},"geometry":{"type":"Point","coordinates":[45.1787,35.2508]}},{"type":"Feature","id":"osm-natural-hill-57760744436dc7","properties":{"id":"osm-natural-hill-57760744436dc7","name":"تل فزركا","kind":"natural","tier":"natural","priority":180,"context":"گرد · جمجمال · سلێمانی","category":"گرد"},"geometry":{"type":"Point","coordinates":[45.16745,35.25232]}},{"type":"Feature","id":"osm-natural-hill-c062c55b3884a5","properties":{"id":"osm-natural-hill-c062c55b3884a5","name":"تل فيكة بان","kind":"natural","tier":"natural","priority":180,"context":"گرد · جمجمال · سلێمانی","category":"گرد"},"geometry":{"type":"Point","coordinates":[45.10994,35.29037]}},{"type":"Feature","id":"osm-natural-hill-889ac7d5ab6bb8","properties":{"id":"osm-natural-hill-889ac7d5ab6bb8","name":"تل كردة سور","kind":"natural","tier":"natural","priority":180,"context":"گرد · جمجمال · سلێمانی","category":"گرد"},"geometry":{"type":"Point","coordinates":[45.17961,35.33513]}},{"type":"Feature","id":"osm-natural-hill-b87ddec42dc0fb","properties":{"id":"osm-natural-hill-b87ddec42dc0fb","name":"تل كردة كاودي","kind":"natural","tier":"natural","priority":180,"context":"گرد · جمجمال · سلێمانی","category":"گرد"},"geometry":{"type":"Point","coordinates":[45.1874,35.34883]}},{"type":"Feature","id":"osm-natural-hill-bb3b6504cfd07c","properties":{"id":"osm-natural-hill-bb3b6504cfd07c","name":"تل كلك آوة","kind":"natural","tier":"natural","priority":180,"context":"گرد · جمجمال · سلێمانی","category":"گرد"},"geometry":{"type":"Point","coordinates":[45.14966,35.32419]}},{"type":"Feature","id":"osm-natural-hill-b2a440e251c5f2","properties":{"id":"osm-natural-hill-b2a440e251c5f2","name":"تل لوت جنوكة","kind":"natural","tier":"natural","priority":180,"context":"گرد · جمجمال · سلێمانی","category":"گرد"},"geometry":{"type":"Point","coordinates":[45.13674,35.32936]}},{"type":"Feature","id":"osm-natural-hill-00e8894b24eb33","properties":{"id":"osm-natural-hill-00e8894b24eb33","name":"تل لوتةكهل","kind":"natural","tier":"natural","priority":180,"context":"گرد · جمجمال · سلێمانی","category":"گرد"},"geometry":{"type":"Point","coordinates":[45.24044,35.32168]}},{"type":"Feature","id":"osm-natural-hill-0b3e4634b62cac","properties":{"id":"osm-natural-hill-0b3e4634b62cac","name":"تل هيلانة قل","kind":"natural","tier":"natural","priority":180,"context":"گرد · جمجمال · سلێمانی","category":"گرد"},"geometry":{"type":"Point","coordinates":[45.1238,35.28494]}},{"type":"Feature","id":"osm-natural-mountain-22041217bb948a","properties":{"id":"osm-natural-mountain-22041217bb948a","name":"جبل الملح","kind":"natural","tier":"natural","priority":180,"context":"شاخ · جمجمال · سلێمانی","category":"شاخ"},"geometry":{"type":"Point","coordinates":[45.03542,35.35735]}},{"type":"Feature","id":"osm-natural-mountain-c66892187fe754","properties":{"id":"osm-natural-mountain-c66892187fe754","name":"جبل به خشي","kind":"natural","tier":"natural","priority":180,"context":"شاخ · السليمانية · سلێمانی","category":"شاخ"},"geometry":{"type":"Point","coordinates":[45.2315,35.48062]}},{"type":"Feature","id":"osm-natural-mountain-3c878656b1216c","properties":{"id":"osm-natural-mountain-3c878656b1216c","name":"جبل زنون","kind":"natural","tier":"natural","priority":180,"context":"شاخ · جمجمال · سلێمانی","category":"شاخ"},"geometry":{"type":"Point","coordinates":[45.06923,35.28401]}},{"type":"Feature","id":"osm-natural-valley-85857fa483c97b","properties":{"id":"osm-natural-valley-85857fa483c97b","name":"جمي بلك","kind":"natural","tier":"natural","priority":180,"context":"دۆڵ · جمجمال · سلێمانی","category":"دۆڵ"},"geometry":{"type":"Point","coordinates":[45.1457987,35.380654]}},{"type":"Feature","id":"osm-natural-valley-2d326d1c30c176","properties":{"id":"osm-natural-valley-2d326d1c30c176","name":"جمي شور","kind":"natural","tier":"natural","priority":180,"context":"دۆڵ · جمجمال · سلێمانی","category":"دۆڵ"},"geometry":{"type":"Point","coordinates":[45.141895,35.392672]}},{"type":"Feature","id":"osm-natural-stream-d268200adeb3da","properties":{"id":"osm-natural-stream-d268200adeb3da","name":"جمي فقي حاجي","kind":"natural","tier":"natural","priority":180,"context":"جۆگە · جمجمال · سلێمانی","category":"جۆگە"},"geometry":{"type":"Point","coordinates":[45.0963664,35.3821224]}},{"type":"Feature","id":"osm-natural-valley-f970f1108cf87a","properties":{"id":"osm-natural-valley-f970f1108cf87a","name":"جمي كومة رزد","kind":"natural","tier":"natural","priority":180,"context":"دۆڵ · جمجمال · سلێمانی","category":"دۆڵ"},"geometry":{"type":"Point","coordinates":[45.156692,35.411165]}},{"type":"Feature","id":"osm-natural-stream-cc1e4a60eec8d3","properties":{"id":"osm-natural-stream-cc1e4a60eec8d3","name":"جمي هشهزيني","kind":"natural","tier":"natural","priority":180,"context":"جۆگە · جمجمال · سلێمانی","category":"جۆگە"},"geometry":{"type":"Point","coordinates":[45.0904629,35.3964547]}},{"type":"Feature","id":"osm-natural-valley-d119f33e5b912a","properties":{"id":"osm-natural-valley-d119f33e5b912a","name":"جمي هشهزيني","kind":"natural","tier":"natural","priority":180,"context":"دۆڵ · جمجمال · سلێمانی","category":"دۆڵ"},"geometry":{"type":"Point","coordinates":[45.0882052,35.3987425]}},{"type":"Feature","id":"osm-natural-canyon-41eebb0b8ae5e7","properties":{"id":"osm-natural-canyon-41eebb0b8ae5e7","name":"دربند باسةرة","kind":"natural","tier":"natural","priority":180,"context":"تەنیشتگا · جمجمال · سلێمانی","category":"تەنیشتگا"},"geometry":{"type":"Point","coordinates":[45.1422,35.44048]}},{"type":"Feature","id":"osm-natural-stream-8a32570edbc161","properties":{"id":"osm-natural-stream-8a32570edbc161","name":"دەرە سوور","kind":"natural","tier":"natural","priority":180,"context":"جۆگە · جمجمال · سلێمانی","category":"جۆگە"},"geometry":{"type":"Point","coordinates":[45.1006928,35.3595512]}},{"type":"Feature","id":"osm-natural-mountain-e851da3ab5504b","properties":{"id":"osm-natural-mountain-e851da3ab5504b","name":"شاخي برلوت","kind":"natural","tier":"natural","priority":180,"context":"شاخ · جمجمال · سلێمانی","category":"شاخ"},"geometry":{"type":"Point","coordinates":[45.24167,35.345]}},{"type":"Feature","id":"osm-natural-forest-759d91a28aba3b","properties":{"id":"osm-natural-forest-759d91a28aba3b","name":"شجرة دارةكه ى ميرهش","kind":"natural","tier":"natural","priority":180,"context":"دارستان · جمجمال · سلێمانی","category":"دارستان"},"geometry":{"type":"Point","coordinates":[45.20984,35.3999]}},{"type":"Feature","id":"osm-natural-valley-a34eb5eac04095","properties":{"id":"osm-natural-valley-a34eb5eac04095","name":"شمي كلهرشي","kind":"natural","tier":"natural","priority":180,"context":"دۆڵ · جمجمال · سلێمانی","category":"دۆڵ"},"geometry":{"type":"Point","coordinates":[45.1257384,35.3532401]}},{"type":"Feature","id":"osm-natural-stream-bb342885556fbc","properties":{"id":"osm-natural-stream-bb342885556fbc","name":"شيوي ترزوان","kind":"natural","tier":"natural","priority":180,"context":"جۆگە · جمجمال · سلێمانی","category":"جۆگە"},"geometry":{"type":"Point","coordinates":[45.07602,35.434]}},{"type":"Feature","id":"osm-natural-valley-abe17c230510db","properties":{"id":"osm-natural-valley-abe17c230510db","name":"شيوي جالاوا","kind":"natural","tier":"natural","priority":180,"context":"دۆڵ · السليمانية · سلێمانی","category":"دۆڵ"},"geometry":{"type":"Point","coordinates":[45.174232,35.470956]}},{"type":"Feature","id":"osm-natural-valley-869019ddb31f03","properties":{"id":"osm-natural-valley-869019ddb31f03","name":"شيوي دربندي سوتاو","kind":"natural","tier":"natural","priority":180,"context":"دۆڵ · السليمانية · سلێمانی","category":"دۆڵ"},"geometry":{"type":"Point","coordinates":[45.174002,35.488207]}},{"type":"Feature","id":"osm-natural-stream-911b179bbda223","properties":{"id":"osm-natural-stream-911b179bbda223","name":"شيوي ذوبي ميرك","kind":"natural","tier":"natural","priority":180,"context":"جۆگە · جمجمال · سلێمانی","category":"جۆگە"},"geometry":{"type":"Point","coordinates":[45.1142,35.44187]}},{"type":"Feature","id":"osm-natural-stream-01054924033fa3","properties":{"id":"osm-natural-stream-01054924033fa3","name":"شيوي سي ويك","kind":"natural","tier":"natural","priority":180,"context":"جۆگە · السليمانية · سلێمانی","category":"جۆگە"},"geometry":{"type":"Point","coordinates":[45.17599,35.49869]}},{"type":"Feature","id":"osm-natural-valley-1e2d6a3ec2eafe","properties":{"id":"osm-natural-valley-1e2d6a3ec2eafe","name":"شيوي علي زنكنة","kind":"natural","tier":"natural","priority":180,"context":"دۆڵ · جمجمال · سلێمانی","category":"دۆڵ"},"geometry":{"type":"Point","coordinates":[45.061181,35.443818]}},{"type":"Feature","id":"osm-natural-valley-9cfe7f5eb982e4","properties":{"id":"osm-natural-valley-9cfe7f5eb982e4","name":"شيوي قارماني","kind":"natural","tier":"natural","priority":180,"context":"دۆڵ · جمجمال · سلێمانی","category":"دۆڵ"},"geometry":{"type":"Point","coordinates":[45.1026351,35.4738782]}},{"type":"Feature","id":"osm-natural-valley-f840a9988d24a1","properties":{"id":"osm-natural-valley-f840a9988d24a1","name":"شيوي قاميشة","kind":"natural","tier":"natural","priority":180,"context":"دۆڵ · جمجمال · سلێمانی","category":"دۆڵ"},"geometry":{"type":"Point","coordinates":[45.067717,35.498352]}},{"type":"Feature","id":"osm-natural-stream-7e15ac6ad07018","properties":{"id":"osm-natural-stream-7e15ac6ad07018","name":"شيوي قولة","kind":"natural","tier":"natural","priority":180,"context":"جۆگە · جمجمال · سلێمانی","category":"جۆگە"},"geometry":{"type":"Point","coordinates":[45.0266612,35.4149794]}},{"type":"Feature","id":"osm-natural-valley-a84493a3628175","properties":{"id":"osm-natural-valley-a84493a3628175","name":"شيوي قولة","kind":"natural","tier":"natural","priority":180,"context":"دۆڵ · جمجمال · سلێمانی","category":"دۆڵ"},"geometry":{"type":"Point","coordinates":[45.046887,35.427785]}},{"type":"Feature","id":"osm-natural-valley-19debd3838414f","properties":{"id":"osm-natural-valley-19debd3838414f","name":"شيوي كاني براز","kind":"natural","tier":"natural","priority":180,"context":"دۆڵ · السليمانية · سلێمانی","category":"دۆڵ"},"geometry":{"type":"Point","coordinates":[45.1749,35.48694]}},{"type":"Feature","id":"osm-natural-valley-a8e55df21ebfef","properties":{"id":"osm-natural-valley-a8e55df21ebfef","name":"شيوي كاني مصطفى","kind":"natural","tier":"natural","priority":180,"context":"دۆڵ · جمجمال · سلێمانی","category":"دۆڵ"},"geometry":{"type":"Point","coordinates":[45.085285,35.489655]}},{"type":"Feature","id":"osm-natural-stream-d82244bf0f3a3a","properties":{"id":"osm-natural-stream-d82244bf0f3a3a","name":"شيوي كلايلا","kind":"natural","tier":"natural","priority":180,"context":"جۆگە · جمجمال · سلێمانی","category":"جۆگە"},"geometry":{"type":"Point","coordinates":[45.08442,35.48089]}},{"type":"Feature","id":"osm-natural-stream-bfd5ea133a01c8","properties":{"id":"osm-natural-stream-bfd5ea133a01c8","name":"شيوي كلهرشي بجوك","kind":"natural","tier":"natural","priority":180,"context":"جۆگە · جمجمال · سلێمانی","category":"جۆگە"},"geometry":{"type":"Point","coordinates":[45.1275551,35.3447759]}},{"type":"Feature","id":"osm-natural-valley-2eedb0c6a2222e","properties":{"id":"osm-natural-valley-2eedb0c6a2222e","name":"شيوي كلهرشي بجوك","kind":"natural","tier":"natural","priority":180,"context":"دۆڵ · جمجمال · سلێمانی","category":"دۆڵ"},"geometry":{"type":"Point","coordinates":[45.14058,35.337831]}},{"type":"Feature","id":"osm-natural-stream-b66a414f3e536b","properties":{"id":"osm-natural-stream-b66a414f3e536b","name":"شيوي ناومالان","kind":"natural","tier":"natural","priority":180,"context":"جۆگە · جمجمال · سلێمانی","category":"جۆگە"},"geometry":{"type":"Point","coordinates":[45.10273,35.3536]}},{"type":"Feature","id":"osm-natural-peak-ccdf9957cac2af","properties":{"id":"osm-natural-peak-ccdf9957cac2af","name":"قمة جبل تواركة","kind":"natural","tier":"natural","priority":180,"context":"لوتکە · جمجمال · سلێمانی","category":"لوتکە"},"geometry":{"type":"Point","coordinates":[45.24322,35.3652]}},{"type":"Feature","id":"osm-natural-peak-93d4eda4f4879b","properties":{"id":"osm-natural-peak-93d4eda4f4879b","name":"قمة جبل جالةسبي","kind":"natural","tier":"natural","priority":180,"context":"لوتکە · جمجمال · سلێمانی","category":"لوتکە"},"geometry":{"type":"Point","coordinates":[45.2037,35.36605]}},{"type":"Feature","id":"osm-natural-peak-e26bda2fa8e540","properties":{"id":"osm-natural-peak-e26bda2fa8e540","name":"قمة جبل جزتة هواز","kind":"natural","tier":"natural","priority":180,"context":"لوتکە · جمجمال · سلێمانی","category":"لوتکە"},"geometry":{"type":"Point","coordinates":[45.07839,35.27148]}},{"type":"Feature","id":"osm-natural-peak-d5ea147cf1b25e","properties":{"id":"osm-natural-peak-d5ea147cf1b25e","name":"قمة جبل درمانة","kind":"natural","tier":"natural","priority":180,"context":"لوتکە · جمجمال · سلێمانی","category":"لوتکە"},"geometry":{"type":"Point","coordinates":[45.24937,35.3503]}},{"type":"Feature","id":"osm-natural-peak-4068e7140d8d3c","properties":{"id":"osm-natural-peak-4068e7140d8d3c","name":"قمة جبل سةرجال","kind":"natural","tier":"natural","priority":180,"context":"لوتکە · جمجمال · سلێمانی","category":"لوتکە"},"geometry":{"type":"Point","coordinates":[45.24068,35.36947]}},{"type":"Feature","id":"osm-natural-peak-20ca42bc3a8f51","properties":{"id":"osm-natural-peak-20ca42bc3a8f51","name":"قمة جبل سةريشوري","kind":"natural","tier":"natural","priority":180,"context":"لوتکە · جمجمال · سلێمانی","category":"لوتکە"},"geometry":{"type":"Point","coordinates":[45.20817,35.3885]}},{"type":"Feature","id":"osm-natural-peak-f39fad557cb97e","properties":{"id":"osm-natural-peak-f39fad557cb97e","name":"قمة جبل قوجي ميرهش","kind":"natural","tier":"natural","priority":180,"context":"لوتکە · جمجمال · سلێمانی","category":"لوتکە"},"geometry":{"type":"Point","coordinates":[45.21102,35.40433]}},{"type":"Feature","id":"osm-natural-peak-69b5243ecefb47","properties":{"id":"osm-natural-peak-69b5243ecefb47","name":"قمة جبل كراو غيجة","kind":"natural","tier":"natural","priority":180,"context":"لوتکە · جمجمال · سلێمانی","category":"لوتکە"},"geometry":{"type":"Point","coordinates":[45.21295,35.38144]}},{"type":"Feature","id":"osm-natural-peak-71c9e1692c1a15","properties":{"id":"osm-natural-peak-71c9e1692c1a15","name":"قمة جبل لوفي ميرهش","kind":"natural","tier":"natural","priority":180,"context":"لوتکە · جمجمال · سلێمانی","category":"لوتکە"},"geometry":{"type":"Point","coordinates":[45.221,35.39566]}},{"type":"Feature","id":"osm-natural-hill-cebf534398c575","properties":{"id":"osm-natural-hill-cebf534398c575","name":"قمة شان امام","kind":"natural","tier":"natural","priority":180,"context":"گرد · جمجمال · سلێمانی","category":"گرد"},"geometry":{"type":"Point","coordinates":[45.14858,35.26359]}},{"type":"Feature","id":"osm-natural-hill-5f499bef75f77a","properties":{"id":"osm-natural-hill-5f499bef75f77a","name":"كردا سور","kind":"natural","tier":"natural","priority":180,"context":"گرد · جمجمال · سلێمانی","category":"گرد"},"geometry":{"type":"Point","coordinates":[45.08592,35.4277]}},{"type":"Feature","id":"osm-natural-hill-c67a3ca4aba371","properties":{"id":"osm-natural-hill-c67a3ca4aba371","name":"كردي تختي كلك","kind":"natural","tier":"natural","priority":180,"context":"گرد · جمجمال · سلێمانی","category":"گرد"},"geometry":{"type":"Point","coordinates":[45.08675,35.34637]}},{"type":"Feature","id":"osm-natural-stream-a7973f66140c3b","properties":{"id":"osm-natural-stream-a7973f66140c3b","name":"كردي دلاروش","kind":"natural","tier":"natural","priority":180,"context":"جۆگە · جمجمال · سلێمانی","category":"جۆگە"},"geometry":{"type":"Point","coordinates":[45.1082593,35.3431196]}},{"type":"Feature","id":"osm-natural-hill-e428e45b07a424","properties":{"id":"osm-natural-hill-e428e45b07a424","name":"كردي دوكران","kind":"natural","tier":"natural","priority":180,"context":"گرد · جمجمال · سلێمانی","category":"گرد"},"geometry":{"type":"Point","coordinates":[45.14302,35.38534]}},{"type":"Feature","id":"osm-natural-hill-348cc803a03d73","properties":{"id":"osm-natural-hill-348cc803a03d73","name":"كردي قلا","kind":"natural","tier":"natural","priority":180,"context":"گرد · جمجمال · سلێمانی","category":"گرد"},"geometry":{"type":"Point","coordinates":[45.17442,35.34097]}},{"type":"Feature","id":"osm-natural-hill-3973c99ad168b8","properties":{"id":"osm-natural-hill-3973c99ad168b8","name":"كردي قوتةسو","kind":"natural","tier":"natural","priority":180,"context":"گرد · جمجمال · سلێمانی","category":"گرد"},"geometry":{"type":"Point","coordinates":[45.16511,35.34434]}},{"type":"Feature","id":"osm-natural-hill-8803e5659b4388","properties":{"id":"osm-natural-hill-8803e5659b4388","name":"كردي يرز","kind":"natural","tier":"natural","priority":180,"context":"گرد · جمجمال · سلێمانی","category":"گرد"},"geometry":{"type":"Point","coordinates":[45.15817,35.35071]}},{"type":"Feature","id":"osm-natural-hill-108eaf924b03bf","properties":{"id":"osm-natural-hill-108eaf924b03bf","name":"كودي بيروس جاواكو","kind":"natural","tier":"natural","priority":180,"context":"گرد · جمجمال · سلێمانی","category":"گرد"},"geometry":{"type":"Point","coordinates":[45.13478,35.36713]}},{"type":"Feature","id":"osm-natural-stream-0083abeb35af45","properties":{"id":"osm-natural-stream-0083abeb35af45","name":"نهر تينل جاي","kind":"natural","tier":"natural","priority":180,"context":"جۆگە · السليمانية · سلێمانی","category":"جۆگە"},"geometry":{"type":"Point","coordinates":[45.1814129,35.4547233]}},{"type":"Feature","id":"osm-natural-stream-6ea03bbeffa899","properties":{"id":"osm-natural-stream-6ea03bbeffa899","name":"نهر تينل جاي","kind":"natural","tier":"natural","priority":180,"context":"جۆگە · جمجمال · سلێمانی","category":"جۆگە"},"geometry":{"type":"Point","coordinates":[45.1996715,35.4195229]}},{"type":"Feature","id":"osm-natural-river-1970a135f9ec30","properties":{"id":"osm-natural-river-1970a135f9ec30","name":"نهر جاي داقوق","kind":"natural","tier":"natural","priority":180,"context":"ڕووبار · جمجمال · سلێمانی","category":"ڕووبار"},"geometry":{"type":"Point","coordinates":[45.1691993,35.2802924]}},{"type":"Feature","id":"osm-natural-valley-58e5d01b74628c","properties":{"id":"osm-natural-valley-58e5d01b74628c","name":"وادي أحمد لاوند","kind":"natural","tier":"natural","priority":180,"context":"دۆڵ · جمجمال · سلێمانی","category":"دۆڵ"},"geometry":{"type":"Point","coordinates":[45.005628,35.414854]}},{"type":"Feature","id":"osm-natural-valley-3696eeb5b42769","properties":{"id":"osm-natural-valley-3696eeb5b42769","name":"وادي استيل","kind":"natural","tier":"natural","priority":180,"context":"دۆڵ · جمجمال · سلێمانی","category":"دۆڵ"},"geometry":{"type":"Point","coordinates":[45.20329,35.25841]}},{"type":"Feature","id":"osm-natural-valley-ed361f4f13a43a","properties":{"id":"osm-natural-valley-ed361f4f13a43a","name":"وادي تبة سورة","kind":"natural","tier":"natural","priority":180,"context":"دۆڵ · جمجمال · سلێمانی","category":"دۆڵ"},"geometry":{"type":"Point","coordinates":[45.126823,35.40349]}},{"type":"Feature","id":"osm-natural-valley-4f66b506e78e60","properties":{"id":"osm-natural-valley-4f66b506e78e60","name":"وادي تلي","kind":"natural","tier":"natural","priority":180,"context":"دۆڵ · السليمانية · سلێمانی","category":"دۆڵ"},"geometry":{"type":"Point","coordinates":[45.1927974,35.4622444]}},{"type":"Feature","id":"osm-natural-valley-4f95b654f998e7","properties":{"id":"osm-natural-valley-4f95b654f998e7","name":"وادي خانة سوتاو","kind":"natural","tier":"natural","priority":180,"context":"دۆڵ · جمجمال · سلێمانی","category":"دۆڵ"},"geometry":{"type":"Point","coordinates":[45.22659,35.26387]}},{"type":"Feature","id":"osm-natural-valley-de884f77994f50","properties":{"id":"osm-natural-valley-de884f77994f50","name":"وادي دارة سور","kind":"natural","tier":"natural","priority":180,"context":"دۆڵ · جمجمال · سلێمانی","category":"دۆڵ"},"geometry":{"type":"Point","coordinates":[45.0682688,35.3793377]}},{"type":"Feature","id":"osm-natural-valley-5c5ab035eb8b1d","properties":{"id":"osm-natural-valley-5c5ab035eb8b1d","name":"وادي رازيانة","kind":"natural","tier":"natural","priority":180,"context":"دۆڵ · جمجمال · سلێمانی","category":"دۆڵ"},"geometry":{"type":"Point","coordinates":[45.077541,35.334346]}},{"type":"Feature","id":"osm-natural-valley-4371401949b680","properties":{"id":"osm-natural-valley-4371401949b680","name":"وادي زالة","kind":"natural","tier":"natural","priority":180,"context":"دۆڵ · جمجمال · سلێمانی","category":"دۆڵ"},"geometry":{"type":"Point","coordinates":[45.1325,35.432778]}},{"type":"Feature","id":"osm-natural-valley-0035ea54876cca","properties":{"id":"osm-natural-valley-0035ea54876cca","name":"وادي شوره كه","kind":"natural","tier":"natural","priority":180,"context":"دۆڵ · جمجمال · سلێمانی","category":"دۆڵ"},"geometry":{"type":"Point","coordinates":[45.1554878,35.3195143]}},{"type":"Feature","id":"osm-natural-valley-e296286c86a954","properties":{"id":"osm-natural-valley-e296286c86a954","name":"وادي شوكة و حمزة أروحي","kind":"natural","tier":"natural","priority":180,"context":"دۆڵ · جمجمال · سلێمانی","category":"دۆڵ"},"geometry":{"type":"Point","coordinates":[45.1781879,35.3076074]}},{"type":"Feature","id":"osm-natural-valley-97ac8a877ba4d1","properties":{"id":"osm-natural-valley-97ac8a877ba4d1","name":"وادي شيوة سور","kind":"natural","tier":"natural","priority":180,"context":"دۆڵ · جمجمال · سلێمانی","category":"دۆڵ"},"geometry":{"type":"Point","coordinates":[45.141468,35.322819]}},{"type":"Feature","id":"osm-natural-valley-d5cdd714640b96","properties":{"id":"osm-natural-valley-d5cdd714640b96","name":"وادي قيتول","kind":"natural","tier":"natural","priority":180,"context":"دۆڵ · جمجمال · سلێمانی","category":"دۆڵ"},"geometry":{"type":"Point","coordinates":[45.002459,35.272266]}},{"type":"Feature","id":"osm-natural-valley-852c595408bb68","properties":{"id":"osm-natural-valley-852c595408bb68","name":"وادي كاني بازان","kind":"natural","tier":"natural","priority":180,"context":"دۆڵ · جمجمال · سلێمانی","category":"دۆڵ"},"geometry":{"type":"Point","coordinates":[45.17327,35.34725]}},{"type":"Feature","id":"osm-natural-valley-80ba392ecf7be5","properties":{"id":"osm-natural-valley-80ba392ecf7be5","name":"وادي كفردول","kind":"natural","tier":"natural","priority":180,"context":"دۆڵ · جمجمال · سلێمانی","category":"دۆڵ"},"geometry":{"type":"Point","coordinates":[45.08523,35.2952]}},{"type":"Feature","id":"osm-natural-valley-8dbcc0ca7abe34","properties":{"id":"osm-natural-valley-8dbcc0ca7abe34","name":"وادي كلبةز هناره","kind":"natural","tier":"natural","priority":180,"context":"دۆڵ · جمجمال · سلێمانی","category":"دۆڵ"},"geometry":{"type":"Point","coordinates":[45.17183,35.33024]}},{"type":"Feature","id":"osm-natural-valley-44719cab061882","properties":{"id":"osm-natural-valley-44719cab061882","name":"وادي كلرش","kind":"natural","tier":"natural","priority":180,"context":"دۆڵ · جمجمال · سلێمانی","category":"دۆڵ"},"geometry":{"type":"Point","coordinates":[45.1251004,35.3532019]}},{"type":"Feature","id":"osm-natural-valley-1f9263dbf2bbad","properties":{"id":"osm-natural-valley-1f9263dbf2bbad","name":"وادي كلوزه ميره","kind":"natural","tier":"natural","priority":180,"context":"دۆڵ · جمجمال · سلێمانی","category":"دۆڵ"},"geometry":{"type":"Point","coordinates":[45.00176,35.40257]}},{"type":"Feature","id":"osm-natural-valley-89dabcf331b132","properties":{"id":"osm-natural-valley-89dabcf331b132","name":"وادي كونة به موانة","kind":"natural","tier":"natural","priority":180,"context":"دۆڵ · جمجمال · سلێمانی","category":"دۆڵ"},"geometry":{"type":"Point","coordinates":[45.16101,35.28927]}},{"type":"Feature","id":"osm-natural-valley-0db40f08fe3d47","properties":{"id":"osm-natural-valley-0db40f08fe3d47","name":"وادي كونة قل","kind":"natural","tier":"natural","priority":180,"context":"دۆڵ · جمجمال · سلێمانی","category":"دۆڵ"},"geometry":{"type":"Point","coordinates":[45.147906,35.30611]}},{"type":"Feature","id":"osm-natural-valley-cf171bf778e852","properties":{"id":"osm-natural-valley-cf171bf778e852","name":"وادي مردكان","kind":"natural","tier":"natural","priority":180,"context":"دۆڵ · جمجمال · سلێمانی","category":"دۆڵ"},"geometry":{"type":"Point","coordinates":[45.1715846,35.2964679]}},{"type":"Feature","id":"osm-natural-valley-cb55fb3fcca5e2","properties":{"id":"osm-natural-valley-cb55fb3fcca5e2","name":"وادي موردان","kind":"natural","tier":"natural","priority":180,"context":"دۆڵ · جمجمال · سلێمانی","category":"دۆڵ"},"geometry":{"type":"Point","coordinates":[45.0745,35.4751349]}},{"type":"Feature","id":"osm-natural-valley-cf5179fe9d312e","properties":{"id":"osm-natural-valley-cf5179fe9d312e","name":"وادي نادتوبر","kind":"natural","tier":"natural","priority":180,"context":"دۆڵ · جمجمال · سلێمانی","category":"دۆڵ"},"geometry":{"type":"Point","coordinates":[45.21735,35.27073]}},{"type":"Feature","id":"osm-natural-valley-9fb6cdfb3e4d8b","properties":{"id":"osm-natural-valley-9fb6cdfb3e4d8b","name":"وادي هرينة","kind":"natural","tier":"natural","priority":180,"context":"دۆڵ · جمجمال · سلێمانی","category":"دۆڵ"},"geometry":{"type":"Point","coordinates":[45.03063,35.25405]}},{"type":"Feature","id":"osm-natural-stream-8e2bff1791af0e","properties":{"id":"osm-natural-stream-8e2bff1791af0e","name":"چەم گڵاڵی","kind":"natural","tier":"natural","priority":180,"context":"جۆگە · جمجمال · سلێمانی","category":"جۆگە"},"geometry":{"type":"Point","coordinates":[45.1550505,35.382826]}},{"type":"Feature","id":"road-label-osm-way-1254092893","properties":{"id":"road-label-osm-way-1254092893","name":"سەنگاو - ئاوەسپی","kind":"road","tier":"road","priority":88,"context":"primary · جمجمال · سلێمانی","category":"ڕێگا"},"geometry":{"type":"Point","coordinates":[45.163333,35.273507]}},{"type":"Feature","id":"road-label-osm-way-803854834","properties":{"id":"road-label-osm-way-803854834","name":"ڕێگای قادرکرم","kind":"road","tier":"road","priority":88,"context":"primary · جمجمال · سلێمانی","category":"ڕێگا"},"geometry":{"type":"Point","coordinates":[45.177933,35.278646]}},{"type":"Feature","id":"road-label-osm-way-1282719782","properties":{"id":"road-label-osm-way-1282719782","name":"ڕێگای قادرکرم","kind":"road","tier":"road","priority":88,"context":"primary · جمجمال · سلێمانی","category":"ڕێگا"},"geometry":{"type":"Point","coordinates":[45.18244,35.283584]}},{"type":"Feature","id":"road-label-osm-way-46820949","properties":{"id":"road-label-osm-way-46820949","name":"سەنگاو - قادرکەرەم","kind":"road","tier":"road","priority":72,"context":"secondary · جمجمال · سلێمانی","category":"ڕێگا"},"geometry":{"type":"Point","coordinates":[45.039629,35.320122]}},{"type":"Feature","id":"osm-node-9781114699-ruins","properties":{"id":"osm-node-9781114699-ruins","name":"کانی مستەفای کۆن","kind":"poi","tier":"poi_detail","priority":50.1,"context":"شوێنی شوێنەوار","category":"شوێنی شوێنەوار"},"geometry":{"type":"Point","coordinates":[45.099675,35.4982016]}},{"type":"Feature","id":"osm-node-2485303407-police","properties":{"id":"osm-node-2485303407-police","name":"بنکەی پۆلیسی دەربەند باسەڕە","kind":"poi","tier":"poi_regional","priority":77.1,"context":"بنکەی پۆلیس","category":"بنکەی پۆلیس"},"geometry":{"type":"Point","coordinates":[45.139865,35.440459]}},{"type":"Feature","id":"osm-way-364382836-residential","properties":{"id":"osm-way-364382836-residential","name":"Sengaw","kind":"poi","tier":"poi_local","priority":68.045,"context":"کۆمپاوندی نیشتەجێبوون","category":"کۆمپاوندی نیشتەجێبوون"},"geometry":{"type":"Point","coordinates":[45.183199,35.2846851]}},{"type":"Feature","id":"osm-way-1206607502-residential","properties":{"id":"osm-way-1206607502-residential","name":"ئاوەبۆرەکەی خواروو","kind":"poi","tier":"poi_local","priority":68.045,"context":"کۆمپاوندی نیشتەجێبوون","category":"کۆمپاوندی نیشتەجێبوون"},"geometry":{"type":"Point","coordinates":[45.0233501,35.3162504]}},{"type":"Feature","id":"osm-way-783327824-residential","properties":{"id":"osm-way-783327824-residential","name":"ئاوەبۆرەکەی سەروو","kind":"poi","tier":"poi_local","priority":68.045,"context":"کۆمپاوندی نیشتەجێبوون","category":"کۆمپاوندی نیشتەجێبوون"},"geometry":{"type":"Point","coordinates":[45.0149338,35.3276286]}},{"type":"Feature","id":"osm-way-791279189-residential","properties":{"id":"osm-way-791279189-residential","name":"ئۆغلیجە","kind":"poi","tier":"poi_local","priority":68.045,"context":"کۆمپاوندی نیشتەجێبوون","category":"کۆمپاوندی نیشتەجێبوون"},"geometry":{"type":"Point","coordinates":[45.2176133,35.3824999]}},{"type":"Feature","id":"osm-way-528704306-residential","properties":{"id":"osm-way-528704306-residential","name":"ئەحمەد لەوەند","kind":"poi","tier":"poi_local","priority":68.045,"context":"کۆمپاوندی نیشتەجێبوون","category":"کۆمپاوندی نیشتەجێبوون"},"geometry":{"type":"Point","coordinates":[45.0488877,35.4561363]}},{"type":"Feature","id":"osm-way-788477444-residential","properties":{"id":"osm-way-788477444-residential","name":"باخە گردەڵە","kind":"poi","tier":"poi_local","priority":68.045,"context":"کۆمپاوندی نیشتەجێبوون","category":"کۆمپاوندی نیشتەجێبوون"},"geometry":{"type":"Point","coordinates":[45.1440686,35.2778969]}},{"type":"Feature","id":"osm-way-1214287718-residential","properties":{"id":"osm-way-1214287718-residential","name":"باسەڕە","kind":"poi","tier":"poi_local","priority":68.045,"context":"کۆمپاوندی نیشتەجێبوون","category":"کۆمپاوندی نیشتەجێبوون"},"geometry":{"type":"Point","coordinates":[45.0867781,35.3980363]}},{"type":"Feature","id":"osm-way-824942341-residential","properties":{"id":"osm-way-824942341-residential","name":"تیلەکۆی حەمەڕەزا","kind":"poi","tier":"poi_local","priority":68.045,"context":"کۆمپاوندی نیشتەجێبوون","category":"کۆمپاوندی نیشتەجێبوون"},"geometry":{"type":"Point","coordinates":[45.1499427,35.4303015]}},{"type":"Feature","id":"osm-way-1213993385-residential","properties":{"id":"osm-way-1213993385-residential","name":"تەپەسوورە","kind":"poi","tier":"poi_local","priority":68.045,"context":"کۆمپاوندی نیشتەجێبوون","category":"کۆمپاوندی نیشتەجێبوون"},"geometry":{"type":"Point","coordinates":[45.1449085,35.4127539]}},{"type":"Feature","id":"osm-way-1214971640-residential","properties":{"id":"osm-way-1214971640-residential","name":"جەژنەواری حەمە تالیب","kind":"poi","tier":"poi_local","priority":68.045,"context":"کۆمپاوندی نیشتەجێبوون","category":"کۆمپاوندی نیشتەجێبوون"},"geometry":{"type":"Point","coordinates":[45.1195299,35.338786]}},{"type":"Feature","id":"osm-way-1214970895-residential","properties":{"id":"osm-way-1214970895-residential","name":"جەژنەواری غەیدان","kind":"poi","tier":"poi_local","priority":68.045,"context":"کۆمپاوندی نیشتەجێبوون","category":"کۆمپاوندی نیشتەجێبوون"},"geometry":{"type":"Point","coordinates":[45.1212574,35.3269894]}},{"type":"Feature","id":"osm-way-1214970466-residential","properties":{"id":"osm-way-1214970466-residential","name":"جەژنەواری فەتاح","kind":"poi","tier":"poi_local","priority":68.045,"context":"کۆمپاوندی نیشتەجێبوون","category":"کۆمپاوندی نیشتەجێبوون"},"geometry":{"type":"Point","coordinates":[45.1204829,35.3294415]}},{"type":"Feature","id":"osm-way-1214019937-residential","properties":{"id":"osm-way-1214019937-residential","name":"جەژنەواری قازی","kind":"poi","tier":"poi_local","priority":68.045,"context":"کۆمپاوندی نیشتەجێبوون","category":"کۆمپاوندی نیشتەجێبوون"},"geometry":{"type":"Point","coordinates":[45.1299343,35.3113612]}},{"type":"Feature","id":"osm-way-772250664-residential","properties":{"id":"osm-way-772250664-residential","name":"خاوێ","kind":"poi","tier":"poi_local","priority":68.045,"context":"کۆمپاوندی نیشتەجێبوون","category":"کۆمپاوندی نیشتەجێبوون"},"geometry":{"type":"Point","coordinates":[45.2409246,35.3901898]}},{"type":"Feature","id":"osm-way-1214754170-residential","properties":{"id":"osm-way-1214754170-residential","name":"خدری خواروو","kind":"poi","tier":"poi_local","priority":68.045,"context":"کۆمپاوندی نیشتەجێبوون","category":"کۆمپاوندی نیشتەجێبوون"},"geometry":{"type":"Point","coordinates":[45.1640014,35.3077736]}},{"type":"Feature","id":"osm-way-1213239481-residential","properties":{"id":"osm-way-1213239481-residential","name":"خدری سەروو","kind":"poi","tier":"poi_local","priority":68.045,"context":"کۆمپاوندی نیشتەجێبوون","category":"کۆمپاوندی نیشتەجێبوون"},"geometry":{"type":"Point","coordinates":[45.1787001,35.2972512]}},{"type":"Feature","id":"osm-way-1206604670-residential","properties":{"id":"osm-way-1206604670-residential","name":"خوێڵێنی ئاوەڵێڵەکە","kind":"poi","tier":"poi_local","priority":68.045,"context":"کۆمپاوندی نیشتەجێبوون","category":"کۆمپاوندی نیشتەجێبوون"},"geometry":{"type":"Point","coordinates":[45.0018225,35.3669941]}},{"type":"Feature","id":"osm-way-1213243415-residential","properties":{"id":"osm-way-1213243415-residential","name":"دلکە","kind":"poi","tier":"poi_local","priority":68.045,"context":"کۆمپاوندی نیشتەجێبوون","category":"کۆمپاوندی نیشتەجێبوون"},"geometry":{"type":"Point","coordinates":[45.2019275,35.3595476]}},{"type":"Feature","id":"osm-way-783314783-residential","properties":{"id":"osm-way-783314783-residential","name":"دووەر","kind":"poi","tier":"poi_local","priority":68.045,"context":"کۆمپاوندی نیشتەجێبوون","category":"کۆمپاوندی نیشتەجێبوون"},"geometry":{"type":"Point","coordinates":[45.0783768,35.3870551]}},{"type":"Feature","id":"osm-way-780946802-residential","properties":{"id":"osm-way-780946802-residential","name":"دەربەندە سوتاو","kind":"poi","tier":"poi_local","priority":68.045,"context":"کۆمپاوندی نیشتەجێبوون","category":"کۆمپاوندی نیشتەجێبوون"},"geometry":{"type":"Point","coordinates":[45.1946104,35.4737729]}},{"type":"Feature","id":"osm-way-1213244828-residential","properties":{"id":"osm-way-1213244828-residential","name":"دەروێشانی بچوک","kind":"poi","tier":"poi_local","priority":68.045,"context":"کۆمپاوندی نیشتەجێبوون","category":"کۆمپاوندی نیشتەجێبوون"},"geometry":{"type":"Point","coordinates":[45.1568292,35.3727686]}},{"type":"Feature","id":"osm-way-1213244537-residential","properties":{"id":"osm-way-1213244537-residential","name":"دەروێشانی گەورە","kind":"poi","tier":"poi_local","priority":68.045,"context":"کۆمپاوندی نیشتەجێبوون","category":"کۆمپاوندی نیشتەجێبوون"},"geometry":{"type":"Point","coordinates":[45.1697014,35.3884218]}},{"type":"Feature","id":"osm-way-1212988754-residential","properties":{"id":"osm-way-1212988754-residential","name":"زالواو","kind":"poi","tier":"poi_local","priority":68.045,"context":"کۆمپاوندی نیشتەجێبوون","category":"کۆمپاوندی نیشتەجێبوون"},"geometry":{"type":"Point","coordinates":[45.0701351,35.3100343]}},{"type":"Feature","id":"osm-way-1213994757-residential","properties":{"id":"osm-way-1213994757-residential","name":"زەلەسوتاو","kind":"poi","tier":"poi_local","priority":68.045,"context":"کۆمپاوندی نیشتەجێبوون","category":"کۆمپاوندی نیشتەجێبوون"},"geometry":{"type":"Point","coordinates":[45.068704,35.3754055]}},{"type":"Feature","id":"osm-way-514983568-residential","properties":{"id":"osm-way-514983568-residential","name":"زەنان","kind":"poi","tier":"poi_local","priority":68.045,"context":"کۆمپاوندی نیشتەجێبوون","category":"کۆمپاوندی نیشتەجێبوون"},"geometry":{"type":"Point","coordinates":[45.016171,35.4614487]}},{"type":"Feature","id":"osm-way-528704316-residential","properties":{"id":"osm-way-528704316-residential","name":"سۆفی حەسەن","kind":"poi","tier":"poi_local","priority":68.045,"context":"کۆمپاوندی نیشتەجێبوون","category":"کۆمپاوندی نیشتەجێبوون"},"geometry":{"type":"Point","coordinates":[45.1077027,35.4705024]}},{"type":"Feature","id":"osm-way-1214973428-residential","properties":{"id":"osm-way-1214973428-residential","name":"شاحەسەن","kind":"poi","tier":"poi_local","priority":68.045,"context":"کۆمپاوندی نیشتەجێبوون","category":"کۆمپاوندی نیشتەجێبوون"},"geometry":{"type":"Point","coordinates":[45.1020392,35.3484469]}},{"type":"Feature","id":"osm-way-824950719-residential","properties":{"id":"osm-way-824950719-residential","name":"شاحەسەنی فەریق","kind":"poi","tier":"poi_local","priority":68.045,"context":"کۆمپاوندی نیشتەجێبوون","category":"کۆمپاوندی نیشتەجێبوون"},"geometry":{"type":"Point","coordinates":[45.056512,35.373774]}},{"type":"Feature","id":"osm-way-1212987804-residential","properties":{"id":"osm-way-1212987804-residential","name":"عزەت ئاوا","kind":"poi","tier":"poi_local","priority":68.045,"context":"کۆمپاوندی نیشتەجێبوون","category":"کۆمپاوندی نیشتەجێبوون"},"geometry":{"type":"Point","coordinates":[45.1083182,35.2845665]}},{"type":"Feature","id":"osm-way-783303279-residential","properties":{"id":"osm-way-783303279-residential","name":"عەلی زەنگەنە","kind":"poi","tier":"poi_local","priority":68.045,"context":"کۆمپاوندی نیشتەجێبوون","category":"کۆمپاوندی نیشتەجێبوون"},"geometry":{"type":"Point","coordinates":[45.0850035,35.4674825]}},{"type":"Feature","id":"osm-way-1213993059-residential","properties":{"id":"osm-way-1213993059-residential","name":"فەقێ حاجی","kind":"poi","tier":"poi_local","priority":68.045,"context":"کۆمپاوندی نیشتەجێبوون","category":"کۆمپاوندی نیشتەجێبوون"},"geometry":{"type":"Point","coordinates":[45.125688,35.3873431]}},{"type":"Feature","id":"osm-way-788485527-residential","properties":{"id":"osm-way-788485527-residential","name":"قادرئاوا","kind":"poi","tier":"poi_local","priority":68.045,"context":"کۆمپاوندی نیشتەجێبوون","category":"کۆمپاوندی نیشتەجێبوون"},"geometry":{"type":"Point","coordinates":[45.1453891,35.2550991]}},{"type":"Feature","id":"osm-way-783301264-residential","properties":{"id":"osm-way-783301264-residential","name":"قاسم بەگزادە","kind":"poi","tier":"poi_local","priority":68.045,"context":"کۆمپاوندی نیشتەجێبوون","category":"کۆمپاوندی نیشتەجێبوون"},"geometry":{"type":"Point","coordinates":[45.0134249,35.4246693]}},{"type":"Feature","id":"osm-way-528704315-residential","properties":{"id":"osm-way-528704315-residential","name":"قولە","kind":"poi","tier":"poi_local","priority":68.045,"context":"کۆمپاوندی نیشتەجێبوون","category":"کۆمپاوندی نیشتەجێبوون"},"geometry":{"type":"Point","coordinates":[45.0688724,35.4380024]}},{"type":"Feature","id":"osm-way-381647335-residential","properties":{"id":"osm-way-381647335-residential","name":"قەڵای شێخ ڕەشید","kind":"poi","tier":"poi_local","priority":68.045,"context":"کۆمپاوندی نیشتەجێبوون","category":"کۆمپاوندی نیشتەجێبوون"},"geometry":{"type":"Point","coordinates":[45.1968574,35.2654244]}},{"type":"Feature","id":"osm-way-1206608455-residential","properties":{"id":"osm-way-1206608455-residential","name":"قەیتوول","kind":"poi","tier":"poi_local","priority":68.045,"context":"کۆمپاوندی نیشتەجێبوون","category":"کۆمپاوندی نیشتەجێبوون"},"geometry":{"type":"Point","coordinates":[45.027315,35.2907757]}},{"type":"Feature","id":"osm-way-780948811-residential","properties":{"id":"osm-way-780948811-residential","name":"لەتیفاوە","kind":"poi","tier":"poi_local","priority":68.045,"context":"کۆمپاوندی نیشتەجێبوون","category":"کۆمپاوندی نیشتەجێبوون"},"geometry":{"type":"Point","coordinates":[45.2363595,35.4924425]}},{"type":"Feature","id":"osm-way-746093706-residential","properties":{"id":"osm-way-746093706-residential","name":"میرەیی حەمەحەسەن","kind":"poi","tier":"poi_local","priority":68.045,"context":"کۆمپاوندی نیشتەجێبوون","category":"کۆمپاوندی نیشتەجێبوون"},"geometry":{"type":"Point","coordinates":[45.1375494,35.3003516]}},{"type":"Feature","id":"osm-way-1214018793-residential","properties":{"id":"osm-way-1214018793-residential","name":"میرەیی حەوزەوار","kind":"poi","tier":"poi_local","priority":68.045,"context":"کۆمپاوندی نیشتەجێبوون","category":"کۆمپاوندی نیشتەجێبوون"},"geometry":{"type":"Point","coordinates":[45.1517241,35.2923326]}},{"type":"Feature","id":"osm-way-772253648-residential","properties":{"id":"osm-way-772253648-residential","name":"مێوڵێ","kind":"poi","tier":"poi_local","priority":68.045,"context":"کۆمپاوندی نیشتەجێبوون","category":"کۆمپاوندی نیشتەجێبوون"},"geometry":{"type":"Point","coordinates":[45.2253992,35.4175776]}},{"type":"Feature","id":"osm-way-824948893-residential","properties":{"id":"osm-way-824948893-residential","name":"مەحموودی","kind":"poi","tier":"poi_local","priority":68.045,"context":"کۆمپاوندی نیشتەجێبوون","category":"کۆمپاوندی نیشتەجێبوون"},"geometry":{"type":"Point","coordinates":[45.1086731,35.410163]}},{"type":"Feature","id":"osm-way-783312526-residential","properties":{"id":"osm-way-783312526-residential","name":"مەلا حوسێن","kind":"poi","tier":"poi_local","priority":68.045,"context":"کۆمپاوندی نیشتەجێبوون","category":"کۆمپاوندی نیشتەجێبوون"},"geometry":{"type":"Point","coordinates":[45.0779702,35.3957446]}},{"type":"Feature","id":"osm-way-1206606047-residential","properties":{"id":"osm-way-1206606047-residential","name":"مەملەحەی خوێڵینی گۆم","kind":"poi","tier":"poi_local","priority":68.045,"context":"کۆمپاوندی نیشتەجێبوون","category":"کۆمپاوندی نیشتەجێبوون"},"geometry":{"type":"Point","coordinates":[45.0079017,35.3566288]}},{"type":"Feature","id":"osm-way-1212956572-residential","properties":{"id":"osm-way-1212956572-residential","name":"هەرێنە","kind":"poi","tier":"poi_local","priority":68.045,"context":"کۆمپاوندی نیشتەجێبوون","category":"کۆمپاوندی نیشتەجێبوون"},"geometry":{"type":"Point","coordinates":[45.0414511,35.2540474]}},{"type":"Feature","id":"osm-way-824946145-residential","properties":{"id":"osm-way-824946145-residential","name":"هەشەزینی","kind":"poi","tier":"poi_local","priority":68.045,"context":"کۆمپاوندی نیشتەجێبوون","category":"کۆمپاوندی نیشتەجێبوون"},"geometry":{"type":"Point","coordinates":[45.1176561,35.4051052]}},{"type":"Feature","id":"osm-way-1214975306-residential","properties":{"id":"osm-way-1214975306-residential","name":"پنگڵەی دووەری تازە","kind":"poi","tier":"poi_local","priority":68.045,"context":"کۆمپاوندی نیشتەجێبوون","category":"کۆمپاوندی نیشتەجێبوون"},"geometry":{"type":"Point","coordinates":[45.1163847,35.3698513]}},{"type":"Feature","id":"osm-way-1214975065-residential","properties":{"id":"osm-way-1214975065-residential","name":"پنگەڵەی حاجی سەعید","kind":"poi","tier":"poi_local","priority":68.045,"context":"کۆمپاوندی نیشتەجێبوون","category":"کۆمپاوندی نیشتەجێبوون"},"geometry":{"type":"Point","coordinates":[45.1040335,35.3561257]}},{"type":"Feature","id":"osm-way-1212989574-residential","properties":{"id":"osm-way-1212989574-residential","name":"پونگڵە","kind":"poi","tier":"poi_local","priority":68.045,"context":"کۆمپاوندی نیشتەجێبوون","category":"کۆمپاوندی نیشتەجێبوون"},"geometry":{"type":"Point","coordinates":[45.0451875,35.3218174]}},{"type":"Feature","id":"osm-way-528704312-residential","properties":{"id":"osm-way-528704312-residential","name":"چراغە ڕووتە","kind":"poi","tier":"poi_local","priority":68.045,"context":"کۆمپاوندی نیشتەجێبوون","category":"کۆمپاوندی نیشتەجێبوون"},"geometry":{"type":"Point","coordinates":[45.0280351,35.417491]}},{"type":"Feature","id":"osm-way-1213241109-residential","properties":{"id":"osm-way-1213241109-residential","name":"کانی خاکی","kind":"poi","tier":"poi_local","priority":68.045,"context":"کۆمپاوندی نیشتەجێبوون","category":"کۆمپاوندی نیشتەجێبوون"},"geometry":{"type":"Point","coordinates":[45.2026383,35.333268]}},{"type":"Feature","id":"osm-way-783305286-residential","properties":{"id":"osm-way-783305286-residential","name":"کانی مامە","kind":"poi","tier":"poi_local","priority":68.045,"context":"کۆمپاوندی نیشتەجێبوون","category":"کۆمپاوندی نیشتەجێبوون"},"geometry":{"type":"Point","coordinates":[45.0491738,35.3800219]}},{"type":"Feature","id":"osm-way-737735548-residential","properties":{"id":"osm-way-737735548-residential","name":"کانی مستەفا","kind":"poi","tier":"poi_local","priority":68.045,"context":"کۆمپاوندی نیشتەجێبوون","category":"کۆمپاوندی نیشتەجێبوون"},"geometry":{"type":"Point","coordinates":[45.0947884,35.4950343]}},{"type":"Feature","id":"osm-way-514983538-residential","properties":{"id":"osm-way-514983538-residential","name":"کانی کەوە","kind":"poi","tier":"poi_local","priority":68.045,"context":"کۆمپاوندی نیشتەجێبوون","category":"کۆمپاوندی نیشتەجێبوون"},"geometry":{"type":"Point","coordinates":[45.0443941,35.4786972]}},{"type":"Feature","id":"osm-way-746087040-residential","properties":{"id":"osm-way-746087040-residential","name":"کونە کۆتر","kind":"poi","tier":"poi_local","priority":68.045,"context":"کۆمپاوندی نیشتەجێبوون","category":"کۆمپاوندی نیشتەجێبوون"},"geometry":{"type":"Point","coordinates":[45.0276707,35.4329738]}},{"type":"Feature","id":"osm-way-783317832-residential","properties":{"id":"osm-way-783317832-residential","name":"کەریمەجەل","kind":"poi","tier":"poi_local","priority":68.045,"context":"کۆمپاوندی نیشتەجێبوون","category":"کۆمپاوندی نیشتەجێبوون"},"geometry":{"type":"Point","coordinates":[45.0746472,35.2920098]}},{"type":"Feature","id":"osm-way-788480737-residential","properties":{"id":"osm-way-788480737-residential","name":"کەڵان","kind":"poi","tier":"poi_local","priority":68.045,"context":"کۆمپاوندی نیشتەجێبوون","category":"کۆمپاوندی نیشتەجێبوون"},"geometry":{"type":"Point","coordinates":[45.1180517,35.2658218]}},{"type":"Feature","id":"osm-way-1213239948-residential","properties":{"id":"osm-way-1213239948-residential","name":"کەڵەڕەشی بچووک","kind":"poi","tier":"poi_local","priority":68.045,"context":"کۆمپاوندی نیشتەجێبوون","category":"کۆمپاوندی نیشتەجێبوون"},"geometry":{"type":"Point","coordinates":[45.1687098,35.3318469]}},{"type":"Feature","id":"osm-way-791284246-residential","properties":{"id":"osm-way-791284246-residential","name":"کەڵەڕەشی حەمەسڵێمان","kind":"poi","tier":"poi_local","priority":68.045,"context":"کۆمپاوندی نیشتەجێبوون","category":"کۆمپاوندی نیشتەجێبوون"},"geometry":{"type":"Point","coordinates":[45.1342784,35.3289458]}},{"type":"Feature","id":"osm-way-746085630-residential","properties":{"id":"osm-way-746085630-residential","name":"کەڵەڕەشی ناوبەردەکان","kind":"poi","tier":"poi_local","priority":68.045,"context":"کۆمپاوندی نیشتەجێبوون","category":"کۆمپاوندی نیشتەجێبوون"},"geometry":{"type":"Point","coordinates":[45.1586624,35.3413897]}},{"type":"Feature","id":"osm-way-1213240828-residential","properties":{"id":"osm-way-1213240828-residential","name":"کەڵەڕەشی گەورە","kind":"poi","tier":"poi_local","priority":68.045,"context":"کۆمپاوندی نیشتەجێبوون","category":"کۆمپاوندی نیشتەجێبوون"},"geometry":{"type":"Point","coordinates":[45.1676414,35.3526064]}},{"type":"Feature","id":"osm-way-772253811-residential","properties":{"id":"osm-way-772253811-residential","name":"گوڕباز","kind":"poi","tier":"poi_local","priority":68.045,"context":"کۆمپاوندی نیشتەجێبوون","category":"کۆمپاوندی نیشتەجێبوون"},"geometry":{"type":"Point","coordinates":[45.22993,35.4352241]}},{"type":"Feature","id":"osm-way-1213244164-residential","properties":{"id":"osm-way-1213244164-residential","name":"گۆمەزەرد","kind":"poi","tier":"poi_local","priority":68.045,"context":"کۆمپاوندی نیشتەجێبوون","category":"کۆمپاوندی نیشتەجێبوون"},"geometry":{"type":"Point","coordinates":[45.1753333,35.4012543]}},{"type":"Feature","id":"osm-way-1212990045-residential","properties":{"id":"osm-way-1212990045-residential","name":"گۆیژە","kind":"poi","tier":"poi_local","priority":68.045,"context":"کۆمپاوندی نیشتەجێبوون","category":"کۆمپاوندی نیشتەجێبوون"},"geometry":{"type":"Point","coordinates":[45.1001984,35.3002464]}},{"type":"Feature","id":"osm-way-528704310-residential","properties":{"id":"osm-way-528704310-residential","name":"گەڕاوی حاجی شەریف","kind":"poi","tier":"poi_local","priority":68.045,"context":"کۆمپاوندی نیشتەجێبوون","category":"کۆمپاوندی نیشتەجێبوون"},"geometry":{"type":"Point","coordinates":[45.0153814,35.3986298]}},{"type":"Feature","id":"osm-way-1282552183-industrial","properties":{"id":"osm-way-1282552183-industrial","name":"وێستگەی کارەبای سەنگاو","kind":"poi","tier":"poi_local","priority":66.045,"context":"ناوچەی پیشەسازی","category":"ناوچەی پیشەسازی"},"geometry":{"type":"Point","coordinates":[45.1838617,35.2812823]}},{"type":"Feature","id":"osm-way-1131196863-fire_station","properties":{"id":"osm-way-1131196863-fire_station","name":"ئاگرکوژێنەوەی سەنگاو","kind":"poi","tier":"poi_detail","priority":50.092,"context":"بنکەی ئاگرکوژێنەوە","category":"بنکەی ئاگرکوژێنەوە"},"geometry":{"type":"Point","coordinates":[45.1842405,35.2841242]}},{"type":"Feature","id":"osm-way-1278853473-school","properties":{"id":"osm-way-1278853473-school","name":"خوێندنگەی کانی مستەفا","kind":"poi","tier":"poi_detail","priority":50.092,"context":"قوتابخانە","category":"قوتابخانە"},"geometry":{"type":"Point","coordinates":[45.0951486,35.4962654]}},{"type":"Feature","id":"osm-node-2488303608-windmill","properties":{"id":"osm-node-2488303608-windmill","name":"ئاسیاو","kind":"poi","tier":"poi_detail","priority":50.1,"context":"ئاشی با","category":"ئاشی با"},"geometry":{"type":"Point","coordinates":[45.1992722,35.4665354]}},{"type":"Feature","id":"osm-node-11872284143-artwork","properties":{"id":"osm-node-11872284143-artwork","name":"ئاڵای کوردستان","kind":"poi","tier":"poi_detail","priority":50.1,"context":"هونەری گشتی","category":"هونەری گشتی"},"geometry":{"type":"Point","coordinates":[45.0961757,35.4979192]}},{"type":"Feature","id":"osm-node-2489372306-graveyard","properties":{"id":"osm-node-2489372306-graveyard","name":"شەکەڕەش","kind":"poi","tier":"poi_detail","priority":50.1,"context":"قەبرستان","category":"قەبرستان"},"geometry":{"type":"Point","coordinates":[45.111149,35.318874]}},{"type":"Feature","id":"osm-node-2488278605-graveyard","properties":{"id":"osm-node-2488278605-graveyard","name":"مقبرە بئر محمود","kind":"poi","tier":"poi_detail","priority":50.1,"context":"قەبرستان","category":"قەبرستان"},"geometry":{"type":"Point","coordinates":[45.013624,35.454106]}},{"type":"Feature","id":"osm-node-2489372296-graveyard","properties":{"id":"osm-node-2489372296-graveyard","name":"گۆڕستانی ئیمام","kind":"poi","tier":"poi_detail","priority":50.1,"context":"قەبرستان","category":"قەبرستان"},"geometry":{"type":"Point","coordinates":[45.025529,35.315594]}},{"type":"Feature","id":"osm-node-10596132437-graveyard","properties":{"id":"osm-node-10596132437-graveyard","name":"گۆڕستانی چراغە ڕووتە","kind":"poi","tier":"poi_detail","priority":50.1,"context":"قەبرستان","category":"قەبرستان"},"geometry":{"type":"Point","coordinates":[45.02873,35.4191679]}},{"type":"Feature","id":"osm-node-9280215698-muslim","properties":{"id":"osm-node-9280215698-muslim","name":"مزگەوتی کونەکۆتر","kind":"poi","tier":"poi_detail","priority":50.098,"context":"مزگەوت","category":"مزگەوت"},"geometry":{"type":"Point","coordinates":[45.0275913,35.4322042]}},{"type":"Feature","id":"osm-way-1307126673-picnic_site","properties":{"id":"osm-way-1307126673-picnic_site","name":"سەیرانگای چەپەجنارە","kind":"poi","tier":"poi_detail","priority":50.092,"context":"شوێنی پیکنیک","category":"شوێنی پیکنیک"},"geometry":{"type":"Point","coordinates":[45.1803402,35.4532838]}},{"type":"Feature","id":"osm-way-854450639-water_works","properties":{"id":"osm-way-854450639-water_works","name":"پرۆژەی ئاوی کانی مستەفا","kind":"poi","tier":"poi_detail","priority":50.092,"context":"پاڵاوتنەوەی ئاو","category":"پاڵاوتنەوەی ئاو"},"geometry":{"type":"Point","coordinates":[45.0954975,35.4971915]}},{"type":"Feature","id":"osm-way-737735547-graveyard","properties":{"id":"osm-way-737735547-graveyard","name":"گۆرستانی کانی مستەفا","kind":"poi","tier":"poi_detail","priority":50.092,"context":"قەبرستان","category":"قەبرستان"},"geometry":{"type":"Point","coordinates":[45.0952312,35.4933791]}},{"type":"Feature","id":"osm-way-1204115647-graveyard","properties":{"id":"osm-way-1204115647-graveyard","name":"گۆڕستانی سەنگاو","kind":"poi","tier":"poi_detail","priority":50.092,"context":"قەبرستان","category":"قەبرستان"},"geometry":{"type":"Point","coordinates":[45.1676639,35.2919421]}},{"type":"Feature","id":"osm-way-1098640845-graveyard","properties":{"id":"osm-way-1098640845-graveyard","name":"گۆڕستانی ژاڵە","kind":"poi","tier":"poi_detail","priority":50.092,"context":"قەبرستان","category":"قەبرستان"},"geometry":{"type":"Point","coordinates":[45.1310697,35.460934]}},{"type":"Feature","id":"osm-way-1278854554-muslim","properties":{"id":"osm-way-1278854554-muslim","name":"مزگەوتی کانی مستەفا","kind":"poi","tier":"poi_detail","priority":50.09,"context":"مزگەوت","category":"مزگەوت"},"geometry":{"type":"Point","coordinates":[45.0949414,35.4951372]}},{"type":"Feature","id":"osm-way-782624589-dam","properties":{"id":"osm-way-782624589-dam","name":"بەنداوی هەشەزینی","kind":"poi","tier":"poi_detail","priority":50.086,"context":"بەنداوی ئاو","category":"بەنداوی ئاو"},"geometry":{"type":"Point","coordinates":[45.1092876,35.399096]}}]}