{"type":"FeatureCollection","features":[{"type":"Feature","id":"osm-node-2488318772","properties":{"id":"osm-node-2488318772","name":"زێوکە","kind":"village","tier":"locality","priority":300,"context":"پشدەر · سلێمانی","category":"گوند"},"geometry":{"type":"Point","coordinates":[45.255861,36.3071241]}},{"type":"Feature","id":"osm-node-7321820575","properties":{"id":"osm-node-7321820575","name":"زەڵێ","kind":"village","tier":"locality","priority":300,"context":"پشدەر · سلێمانی","category":"گوند"},"geometry":{"type":"Point","coordinates":[45.2945213,36.2787661]}},{"type":"Feature","id":"osm-node-7321889537","properties":{"id":"osm-node-7321889537","name":"سەرکەند","kind":"village","tier":"locality","priority":300,"context":"پشدەر · سلێمانی","category":"گوند"},"geometry":{"type":"Point","coordinates":[45.2643585,36.2846493]}},{"type":"Feature","id":"geonames-8429845","properties":{"id":"geonames-8429845","name":"شکاوە","kind":"village","tier":"locality","priority":300,"context":"پشدەر · سلێمانی","category":"گوند"},"geometry":{"type":"Point","coordinates":[45.2573,36.30411]}},{"type":"Feature","id":"osm-node-2488318232","properties":{"id":"osm-node-2488318232","name":"شێنێ","kind":"village","tier":"locality","priority":300,"context":"پشدەر · سلێمانی","category":"گوند"},"geometry":{"type":"Point","coordinates":[45.2734415,36.2831445]}},{"type":"Feature","id":"osm-node-7321885737","properties":{"id":"osm-node-7321885737","name":"قوڵەهەرمێ","kind":"village","tier":"locality","priority":300,"context":"پشدەر · سلێمانی","category":"گوند"},"geometry":{"type":"Point","coordinates":[45.2751132,36.2892895]}},{"type":"Feature","id":"osm-node-7321842641","properties":{"id":"osm-node-7321842641","name":"مێشاوە","kind":"village","tier":"locality","priority":300,"context":"پشدەر · سلێمانی","category":"گوند"},"geometry":{"type":"Point","coordinates":[45.2871779,36.284591]}},{"type":"Feature","id":"osm-node-7321860617","properties":{"id":"osm-node-7321860617","name":"ناوزەنگ","kind":"village","tier":"locality","priority":300,"context":"پشدەر · سلێمانی","category":"گوند"},"geometry":{"type":"Point","coordinates":[45.2999659,36.2720835]}},{"type":"Feature","id":"osm-node-7321889036","properties":{"id":"osm-node-7321889036","name":"کانی سنە","kind":"village","tier":"locality","priority":300,"context":"پشدەر · سلێمانی","category":"گوند"},"geometry":{"type":"Point","coordinates":[45.2532152,36.2875043]}},{"type":"Feature","id":"osm-node-7321995732","properties":{"id":"osm-node-7321995732","name":"کونەمارە","kind":"village","tier":"locality","priority":300,"context":"پشدەر · سلێمانی","category":"گوند"},"geometry":{"type":"Point","coordinates":[45.2572181,36.3039454]}},{"type":"Feature","id":"osm-node-7333023113","properties":{"id":"osm-node-7333023113","name":"گۆڕەشێر","kind":"village","tier":"locality","priority":300,"context":"پشدەر · سلێمانی","category":"گوند"},"geometry":{"type":"Point","coordinates":[45.2860088,36.2935856]}},{"type":"Feature","id":"osm-natural-river-26521cf31c8b45","properties":{"id":"osm-natural-river-26521cf31c8b45","name":"Vazne River","kind":"natural","tier":"natural","priority":180,"context":"ڕووبار · بشدر · سلێمانی","category":"ڕووبار"},"geometry":{"type":"Point","coordinates":[45.3063351,36.2733858]}},{"type":"Feature","id":"osm-natural-river-3521fba40ec815","properties":{"id":"osm-natural-river-3521fba40ec815","name":"خڕی ناوزەنگ","kind":"natural","tier":"natural","priority":180,"context":"ڕووبار · بشدر · سلێمانی","category":"ڕووبار"},"geometry":{"type":"Point","coordinates":[45.262354,36.2962244]}},{"type":"Feature","id":"osm-natural-valley-0491f1439085bb","properties":{"id":"osm-natural-valley-0491f1439085bb","name":"خڕی ناوزەنگ","kind":"natural","tier":"natural","priority":180,"context":"دۆڵ · بشدر · سلێمانی","category":"دۆڵ"},"geometry":{"type":"Point","coordinates":[45.2837892,36.2874498]}},{"type":"Feature","id":"osm-way-976282724-military","properties":{"id":"osm-way-976282724-military","name":"پادگان مرزی","kind":"poi","tier":"poi_regional","priority":80.045,"context":"بنکەی سەربازی","category":"بنکەی سەربازی"},"geometry":{"type":"Point","coordinates":[45.2723226,36.3932259]}},{"type":"Feature","id":"osm-way-1507560509-police","properties":{"id":"osm-way-1507560509-police","name":"پاسەوانی سنوور","kind":"poi","tier":"poi_regional","priority":77.092,"context":"بنکەی پۆلیس","category":"بنکەی پۆلیس"},"geometry":{"type":"Point","coordinates":[45.2640607,36.2914818]}},{"type":"Feature","id":"osm-way-1509534689-police","properties":{"id":"osm-way-1509534689-police","name":"پاسەوانی سنوور - زەڵێ","kind":"poi","tier":"poi_regional","priority":77.092,"context":"بنکەی پۆلیس","category":"بنکەی پۆلیس"},"geometry":{"type":"Point","coordinates":[45.3014598,36.2735251]}},{"type":"Feature","id":"osm-way-783892493-residential","properties":{"id":"osm-way-783892493-residential","name":"زێوکە","kind":"poi","tier":"poi_local","priority":68.045,"context":"کۆمپاوندی نیشتەجێبوون","category":"کۆمپاوندی نیشتەجێبوون"},"geometry":{"type":"Point","coordinates":[45.2560872,36.3070173]}},{"type":"Feature","id":"osm-way-783879511-residential","properties":{"id":"osm-way-783879511-residential","name":"زەڵێ","kind":"poi","tier":"poi_local","priority":68.045,"context":"کۆمپاوندی نیشتەجێبوون","category":"کۆمپاوندی نیشتەجێبوون"},"geometry":{"type":"Point","coordinates":[45.2955206,36.2783278]}},{"type":"Feature","id":"osm-way-783882644-residential","properties":{"id":"osm-way-783882644-residential","name":"سەرکەند","kind":"poi","tier":"poi_local","priority":68.045,"context":"کۆمپاوندی نیشتەجێبوون","category":"کۆمپاوندی نیشتەجێبوون"},"geometry":{"type":"Point","coordinates":[45.2643372,36.2845552]}},{"type":"Feature","id":"osm-way-783881119-residential","properties":{"id":"osm-way-783881119-residential","name":"شێنێ","kind":"poi","tier":"poi_local","priority":68.045,"context":"کۆمپاوندی نیشتەجێبوون","category":"کۆمپاوندی نیشتەجێبوون"},"geometry":{"type":"Point","coordinates":[45.2715357,36.2851379]}},{"type":"Feature","id":"osm-way-783881900-residential","properties":{"id":"osm-way-783881900-residential","name":"قوڵەهەرمێ","kind":"poi","tier":"poi_local","priority":68.045,"context":"کۆمپاوندی نیشتەجێبوون","category":"کۆمپاوندی نیشتەجێبوون"},"geometry":{"type":"Point","coordinates":[45.2752476,36.2894058]}},{"type":"Feature","id":"osm-way-783880508-residential","properties":{"id":"osm-way-783880508-residential","name":"مێشاوە","kind":"poi","tier":"poi_local","priority":68.045,"context":"کۆمپاوندی نیشتەجێبوون","category":"کۆمپاوندی نیشتەجێبوون"},"geometry":{"type":"Point","coordinates":[45.2870586,36.2846409]}},{"type":"Feature","id":"osm-way-783879213-residential","properties":{"id":"osm-way-783879213-residential","name":"ناوزەنگ","kind":"poi","tier":"poi_local","priority":68.045,"context":"کۆمپاوندی نیشتەجێبوون","category":"کۆمپاوندی نیشتەجێبوون"},"geometry":{"type":"Point","coordinates":[45.3001721,36.2721061]}},{"type":"Feature","id":"osm-way-783883224-residential","properties":{"id":"osm-way-783883224-residential","name":"کانی سنە","kind":"poi","tier":"poi_local","priority":68.045,"context":"کۆمپاوندی نیشتەجێبوون","category":"کۆمپاوندی نیشتەجێبوون"},"geometry":{"type":"Point","coordinates":[45.2531025,36.2875468]}},{"type":"Feature","id":"osm-way-783892803-residential","properties":{"id":"osm-way-783892803-residential","name":"کونەمارە","kind":"poi","tier":"poi_local","priority":68.045,"context":"کۆمپاوندی نیشتەجێبوون","category":"کۆمپاوندی نیشتەجێبوون"},"geometry":{"type":"Point","coordinates":[45.2571972,36.3041592]}},{"type":"Feature","id":"osm-way-784894580-residential","properties":{"id":"osm-way-784894580-residential","name":"گۆڕەشێر","kind":"poi","tier":"poi_local","priority":68.045,"context":"کۆمپاوندی نیشتەجێبوون","category":"کۆمپاوندی نیشتەجێبوون"},"geometry":{"type":"Point","coordinates":[45.2858379,36.2935183]}}]}