{"type":"FeatureCollection","features":[{"type":"Feature","id":"osm-node-2488545959","properties":{"id":"osm-node-2488545959","name":"ئالیاوە شاکر","kind":"village","tier":"locality","priority":300,"context":"خانەقین · دیالە","category":"گوند"},"geometry":{"type":"Point","coordinates":[45.348497,34.351256]}},{"type":"Feature","id":"osm-node-2488545967","properties":{"id":"osm-node-2488545967","name":"ئەرکەوازی","kind":"village","tier":"locality","priority":300,"context":"خانەقین · دیالە","category":"گوند"},"geometry":{"type":"Point","coordinates":[45.4001456,34.3289583]}},{"type":"Feature","id":"osm-node-2488545962","properties":{"id":"osm-node-2488545962","name":"ئەمین باپیر","kind":"village","tier":"locality","priority":300,"context":"خانەقین · دیالە","category":"گوند"},"geometry":{"type":"Point","coordinates":[45.4111876,34.3944315]}},{"type":"Feature","id":"osm-node-2488546245","properties":{"id":"osm-node-2488546245","name":"باوە پڵاوی","kind":"village","tier":"locality","priority":300,"context":"خانەقین · دیالە","category":"گوند"},"geometry":{"type":"Point","coordinates":[45.3200247,34.4117322]}},{"type":"Feature","id":"osm-node-9459278201","properties":{"id":"osm-node-9459278201","name":"باوە پڵاوی","kind":"village","tier":"locality","priority":300,"context":"خانەقین · دیالە","category":"گوند"},"geometry":{"type":"Point","coordinates":[45.3127722,34.4177219]}},{"type":"Feature","id":"osm-node-2488545992","properties":{"id":"osm-node-2488545992","name":"باڵاجۆ","kind":"village","tier":"locality","priority":300,"context":"خانەقین · دیالە","category":"گوند"},"geometry":{"type":"Point","coordinates":[45.377635,34.363613]}},{"type":"Feature","id":"osm-node-2488545985","properties":{"id":"osm-node-2488545985","name":"بێتاوی","kind":"village","tier":"locality","priority":300,"context":"خانەقین · دیالە","category":"گوند"},"geometry":{"type":"Point","coordinates":[45.289543,34.3476053]}},{"type":"Feature","id":"osm-node-8960932425","properties":{"id":"osm-node-8960932425","name":"تایر عوزێر","kind":"village","tier":"locality","priority":300,"context":"خانەقین · دیالە","category":"گوند"},"geometry":{"type":"Point","coordinates":[45.3922985,34.3792731]}},{"type":"Feature","id":"osm-node-2488546287","properties":{"id":"osm-node-2488546287","name":"تۆڵە فرۆش","kind":"village","tier":"locality","priority":300,"context":"خانەقین · دیالە","category":"گوند"},"geometry":{"type":"Point","coordinates":[45.375808,34.358191]}},{"type":"Feature","id":"osm-node-2488546021","properties":{"id":"osm-node-2488546021","name":"حوسێن بەگ","kind":"village","tier":"locality","priority":300,"context":"خانەقین · دیالە","category":"گوند"},"geometry":{"type":"Point","coordinates":[45.3015238,34.3438645]}},{"type":"Feature","id":"osm-node-11292080171","properties":{"id":"osm-node-11292080171","name":"دارەخورمای سەیدغەریب","kind":"village","tier":"locality","priority":300,"context":"خانەقین · دیالە","category":"گوند"},"geometry":{"type":"Point","coordinates":[45.4016687,34.492234]}},{"type":"Feature","id":"osm-node-11292000395","properties":{"id":"osm-node-11292000395","name":"دۆڵی بەگزاد","kind":"village","tier":"locality","priority":300,"context":"خانەقین · دیالە","category":"گوند"},"geometry":{"type":"Point","coordinates":[45.443186,34.4966769]}},{"type":"Feature","id":"osm-way-337197190","properties":{"id":"osm-way-337197190","name":"دێ","kind":"village","tier":"locality","priority":300,"context":"خانەقین · دیالە","category":"گوند"},"geometry":{"type":"Point","coordinates":[45.3257887094329,34.37592705]}},{"type":"Feature","id":"osm-node-2488545979","properties":{"id":"osm-node-2488545979","name":"راپەرین","kind":"village","tier":"locality","priority":300,"context":"خانەقین · دیالە","category":"گوند"},"geometry":{"type":"Point","coordinates":[45.3834205,34.3192832]}},{"type":"Feature","id":"osm-node-11297374779","properties":{"id":"osm-node-11297374779","name":"سیاوڵەی شێخ نەجم","kind":"village","tier":"locality","priority":300,"context":"خانەقین · دیالە","category":"گوند"},"geometry":{"type":"Point","coordinates":[45.3319742,34.4973772]}},{"type":"Feature","id":"osm-node-11297351013","properties":{"id":"osm-node-11297351013","name":"سیاوڵەی ڕەشید","kind":"village","tier":"locality","priority":300,"context":"خانەقین · دیالە","category":"گوند"},"geometry":{"type":"Point","coordinates":[45.3414543,34.4803782]}},{"type":"Feature","id":"osm-node-2488546261","properties":{"id":"osm-node-2488546261","name":"سەلیم باجەڵان","kind":"village","tier":"locality","priority":300,"context":"خانەقین · دیالە","category":"گوند"},"geometry":{"type":"Point","coordinates":[45.3468,34.3538985]}},{"type":"Feature","id":"osm-node-11295589698","properties":{"id":"osm-node-11295589698","name":"سەوزبڵاخی بچووک","kind":"village","tier":"locality","priority":300,"context":"خانەقین · دیالە","category":"گوند"},"geometry":{"type":"Point","coordinates":[45.346139,34.4865513]}},{"type":"Feature","id":"osm-node-2488631585","properties":{"id":"osm-node-2488631585","name":"سەید","kind":"village","tier":"locality","priority":300,"context":"خانەقین · دیالە","category":"گوند"},"geometry":{"type":"Point","coordinates":[45.332564,34.446418]}},{"type":"Feature","id":"osm-node-11294198456","properties":{"id":"osm-node-11294198456","name":"سەید سیخی","kind":"village","tier":"locality","priority":300,"context":"خانەقین · دیالە","category":"گوند"},"geometry":{"type":"Point","coordinates":[45.2950759,34.4855011]}},{"type":"Feature","id":"osm-node-2488546265","properties":{"id":"osm-node-2488546265","name":"شا بزرگ","kind":"village","tier":"locality","priority":300,"context":"خانەقین · دیالە","category":"گوند"},"geometry":{"type":"Point","coordinates":[45.4440263,34.3584597]}},{"type":"Feature","id":"osm-node-2488546270","properties":{"id":"osm-node-2488546270","name":"شا محەمەد","kind":"village","tier":"locality","priority":300,"context":"خانەقین · دیالە","category":"گوند"},"geometry":{"type":"Point","coordinates":[45.3622383,34.329872]}},{"type":"Feature","id":"osm-node-2488546238","properties":{"id":"osm-node-2488546238","name":"شێخ ڕەحیم","kind":"village","tier":"locality","priority":300,"context":"خانەقین · دیالە","category":"گوند"},"geometry":{"type":"Point","coordinates":[45.306477,34.391937]}},{"type":"Feature","id":"osm-node-13696292961","properties":{"id":"osm-node-13696292961","name":"قەڕڕامی قەڕامین","kind":"village","tier":"locality","priority":300,"context":"خانەقین · دیالە","category":"گوند"},"geometry":{"type":"Point","coordinates":[45.2904299,34.4215931]}},{"type":"Feature","id":"osm-node-2488631256","properties":{"id":"osm-node-2488631256","name":"قەڵای میر","kind":"village","tier":"locality","priority":300,"context":"خانەقین · دیالە","category":"گوند"},"geometry":{"type":"Point","coordinates":[45.3828715,34.4316724]}},{"type":"Feature","id":"osm-node-11292037967","properties":{"id":"osm-node-11292037967","name":"قەڵەمە","kind":"village","tier":"locality","priority":300,"context":"خانەقین · دیالە","category":"گوند"},"geometry":{"type":"Point","coordinates":[45.45299,34.4927796]}},{"type":"Feature","id":"osm-node-6695545632","properties":{"id":"osm-node-6695545632","name":"مێخاس","kind":"village","tier":"locality","priority":300,"context":"خانەقین · دیالە","category":"گوند"},"geometry":{"type":"Point","coordinates":[45.3528841,34.3964999]}},{"type":"Feature","id":"osm-node-2488546117","properties":{"id":"osm-node-2488546117","name":"مەردان قاسم","kind":"village","tier":"locality","priority":300,"context":"خانەقین · دیالە","category":"گوند"},"geometry":{"type":"Point","coordinates":[45.3036783,34.36782]}},{"type":"Feature","id":"osm-node-2488546141","properties":{"id":"osm-node-2488546141","name":"مەلا عەزیز","kind":"village","tier":"locality","priority":300,"context":"خانەقین · دیالە","category":"گوند"},"geometry":{"type":"Point","coordinates":[45.4173172,34.3224042]}},{"type":"Feature","id":"osm-node-2488546318","properties":{"id":"osm-node-2488546318","name":"مەلا ڕەحمان","kind":"village","tier":"locality","priority":300,"context":"خانەقین · دیالە","category":"گوند"},"geometry":{"type":"Point","coordinates":[45.3560873,34.3944297]}},{"type":"Feature","id":"osm-node-2488546116","properties":{"id":"osm-node-2488546116","name":"مەلەک شا","kind":"village","tier":"locality","priority":300,"context":"خانەقین · دیالە","category":"گوند"},"geometry":{"type":"Point","coordinates":[45.3672608,34.3452]}},{"type":"Feature","id":"osm-node-13697606622","properties":{"id":"osm-node-13697606622","name":"پاشا حمود","kind":"village","tier":"locality","priority":300,"context":"خانەقین · دیالە","category":"گوند"},"geometry":{"type":"Point","coordinates":[45.3921842,34.3839437]}},{"type":"Feature","id":"osm-node-9653325225","properties":{"id":"osm-node-9653325225","name":"ڕەمەزان عەبدڵا فەتاح","kind":"village","tier":"locality","priority":300,"context":"خانەقین · دیالە","category":"گوند"},"geometry":{"type":"Point","coordinates":[45.310508,34.357923]}},{"type":"Feature","id":"osm-node-2488546252","properties":{"id":"osm-node-2488546252","name":"ڕەهمەڵە","kind":"village","tier":"locality","priority":300,"context":"خانەقین · دیالە","category":"گوند"},"geometry":{"type":"Point","coordinates":[45.2814148,34.3669358]}},{"type":"Feature","id":"osm-node-2488546063","properties":{"id":"osm-node-2488546063","name":"کارێز خوار","kind":"village","tier":"locality","priority":300,"context":"خانەقین · دیالە","category":"گوند"},"geometry":{"type":"Point","coordinates":[45.3804601,34.3326512]}},{"type":"Feature","id":"osm-node-2488631261","properties":{"id":"osm-node-2488631261","name":"کتاب","kind":"village","tier":"locality","priority":300,"context":"خانەقین · دیالە","category":"گوند"},"geometry":{"type":"Point","coordinates":[45.287962,34.440337]}},{"type":"Feature","id":"osm-node-2488546066","properties":{"id":"osm-node-2488546066","name":"کوندی کەلهوڕی. کەیخا","kind":"village","tier":"locality","priority":300,"context":"خانەقین · دیالە","category":"گوند"},"geometry":{"type":"Point","coordinates":[45.327872,34.321117]}},{"type":"Feature","id":"osm-node-2488631250","properties":{"id":"osm-node-2488631250","name":"کەلای میرە","kind":"village","tier":"locality","priority":300,"context":"خانەقین · دیالە","category":"گوند"},"geometry":{"type":"Point","coordinates":[45.3546801,34.4451641]}},{"type":"Feature","id":"osm-node-7370178346","properties":{"id":"osm-node-7370178346","name":"گەڕەپوولە","kind":"village","tier":"locality","priority":300,"context":"خانەقین · دیالە","category":"گوند"},"geometry":{"type":"Point","coordinates":[45.4512097,34.4705198]}},{"type":"Feature","id":"osm-node-2488630861","properties":{"id":"osm-node-2488630861","name":"باوە پڵاوی","kind":"locality","tier":"locality","priority":200,"context":"خانەقین · دیالە","category":"شوێنی ناوخۆیی"},"geometry":{"type":"Point","coordinates":[45.324783,34.422216]}},{"type":"Feature","id":"osm-node-2488629793","properties":{"id":"osm-node-2488629793","name":"کارێز","kind":"locality","tier":"locality","priority":200,"context":"خانەقین · دیالە","category":"شوێنی ناوخۆیی"},"geometry":{"type":"Point","coordinates":[45.261672,34.47522]}},{"type":"Feature","id":"osm-node-2488546084","properties":{"id":"osm-node-2488546084","name":"کوێخا ڕۆستەم","kind":"locality","tier":"locality","priority":200,"context":"خانەقین · دیالە","category":"شوێنی ناوخۆیی"},"geometry":{"type":"Point","coordinates":[45.3289052,34.3988498]}},{"type":"Feature","id":"osm-natural-stream-b6d71008a2f2cb","properties":{"id":"osm-natural-stream-b6d71008a2f2cb","name":"Ab-e Halavan","kind":"natural","tier":"natural","priority":180,"context":"جۆگە · خانەقین · دیالە","category":"جۆگە"},"geometry":{"type":"Point","coordinates":[45.419,34.3191]}},{"type":"Feature","id":"osm-natural-hill-2e795b1f382799","properties":{"id":"osm-natural-hill-2e795b1f382799","name":"Tall 'Ali","kind":"natural","tier":"natural","priority":180,"context":"گرد · خانەقین · دیالە","category":"گرد"},"geometry":{"type":"Point","coordinates":[45.28333,34.4]}},{"type":"Feature","id":"osm-natural-hill-f85e7aff9851bf","properties":{"id":"osm-natural-hill-f85e7aff9851bf","name":"Tall Malak","kind":"natural","tier":"natural","priority":180,"context":"گرد · خانەقین · دیالە","category":"گرد"},"geometry":{"type":"Point","coordinates":[45.38333,34.28333]}},{"type":"Feature","id":"osm-natural-stream-d6e448a5f9fc5f","properties":{"id":"osm-natural-stream-d6e448a5f9fc5f","name":"Wadi Mirza Bak","kind":"natural","tier":"natural","priority":180,"context":"جۆگە · خانەقین · دیالە","category":"جۆگە"},"geometry":{"type":"Point","coordinates":[45.33333,34.41667]}},{"type":"Feature","id":"osm-natural-stream-03acfd79b17d80","properties":{"id":"osm-natural-stream-03acfd79b17d80","name":"Wadi Naknah","kind":"natural","tier":"natural","priority":180,"context":"جۆگە · خانەقین · دیالە","category":"جۆگە"},"geometry":{"type":"Point","coordinates":[45.46611,34.28361]}},{"type":"Feature","id":"osm-natural-reservoir-d93ff9175ddcdd","properties":{"id":"osm-natural-reservoir-d93ff9175ddcdd","name":"بەنداوی ئەڵوەند","kind":"natural","tier":"natural","priority":180,"context":"بەنداوی ئاو · خانەقین · دیالە","category":"بەنداوی ئاو"},"geometry":{"type":"Point","coordinates":[45.451545,34.3107653]}},{"type":"Feature","id":"osm-natural-hill-2660d80dab591b","properties":{"id":"osm-natural-hill-2660d80dab591b","name":"تل ابو صخر","kind":"natural","tier":"natural","priority":180,"context":"گرد · خانەقین · دیالە","category":"گرد"},"geometry":{"type":"Point","coordinates":[45.25213,34.3901]}},{"type":"Feature","id":"osm-natural-hill-2eb981a93eadc7","properties":{"id":"osm-natural-hill-2eb981a93eadc7","name":"تل ابيض","kind":"natural","tier":"natural","priority":180,"context":"گرد · خانەقین · دیالە","category":"گرد"},"geometry":{"type":"Point","coordinates":[45.32808,34.38099]}},{"type":"Feature","id":"osm-natural-hill-5581d45e5536b2","properties":{"id":"osm-natural-hill-5581d45e5536b2","name":"تل التنية","kind":"natural","tier":"natural","priority":180,"context":"گرد · خانەقین · دیالە","category":"گرد"},"geometry":{"type":"Point","coordinates":[45.36185,34.33901]}},{"type":"Feature","id":"osm-natural-hill-5d68b0f5d6b3f8","properties":{"id":"osm-natural-hill-5d68b0f5d6b3f8","name":"تل الصواريخ","kind":"natural","tier":"natural","priority":180,"context":"گرد · خانەقین · دیالە","category":"گرد"},"geometry":{"type":"Point","coordinates":[45.31985,34.49097]}},{"type":"Feature","id":"osm-natural-hill-51355f3f2bc528","properties":{"id":"osm-natural-hill-51355f3f2bc528","name":"تل رمضان","kind":"natural","tier":"natural","priority":180,"context":"گرد · خانەقین · دیالە","category":"گرد"},"geometry":{"type":"Point","coordinates":[45.33898,34.39175]}},{"type":"Feature","id":"osm-natural-mountain-4a92d4a7ac778d","properties":{"id":"osm-natural-mountain-4a92d4a7ac778d","name":"جبال دراوشكه","kind":"natural","tier":"natural","priority":180,"context":"شاخ · خانەقین · دیالە","category":"شاخ"},"geometry":{"type":"Point","coordinates":[45.26632,34.27375]}},{"type":"Feature","id":"osm-natural-mountain-707c96cae96ad3","properties":{"id":"osm-natural-mountain-707c96cae96ad3","name":"جبل مرويد","kind":"natural","tier":"natural","priority":180,"context":"شاخ · خانەقین · دیالە","category":"شاخ"},"geometry":{"type":"Point","coordinates":[45.29302,34.46234]}},{"type":"Feature","id":"osm-natural-stream-6886f64f8d6192","properties":{"id":"osm-natural-stream-6886f64f8d6192","name":"جدول بلاجو","kind":"natural","tier":"natural","priority":180,"context":"جۆگە · خانەقین · دیالە","category":"جۆگە"},"geometry":{"type":"Point","coordinates":[45.36683,34.37148]}},{"type":"Feature","id":"osm-natural-river-3604db62e5485c","properties":{"id":"osm-natural-river-3604db62e5485c","name":"رووباری ئەڵوەن","kind":"natural","tier":"natural","priority":180,"context":"ڕووبار · خانەقین · دیالە","category":"ڕووبار"},"geometry":{"type":"Point","coordinates":[45.2915779,34.3535043]}},{"type":"Feature","id":"osm-natural-reservoir-1774aed3e85158","properties":{"id":"osm-natural-reservoir-1774aed3e85158","name":"فسيله","kind":"natural","tier":"natural","priority":180,"context":"بەنداوی ئاو · خانەقین · دیالە","category":"بەنداوی ئاو"},"geometry":{"type":"Point","coordinates":[45.27388,34.26205]}},{"type":"Feature","id":"osm-natural-stream-c39d794d71aa29","properties":{"id":"osm-natural-stream-c39d794d71aa29","name":"قناة خانقين","kind":"natural","tier":"natural","priority":180,"context":"جۆگە · خانەقین · دیالە","category":"جۆگە"},"geometry":{"type":"Point","coordinates":[45.35943,34.41987]}},{"type":"Feature","id":"osm-natural-stream-52d3b81ff1fc80","properties":{"id":"osm-natural-stream-52d3b81ff1fc80","name":"كاني زيد","kind":"natural","tier":"natural","priority":180,"context":"جۆگە · خانەقین · دیالە","category":"جۆگە"},"geometry":{"type":"Point","coordinates":[45.3346029,34.4821601]}},{"type":"Feature","id":"osm-natural-stream-ee10f53c695d96","properties":{"id":"osm-natural-stream-ee10f53c695d96","name":"مشروع خانقين الأروائي","kind":"natural","tier":"natural","priority":180,"context":"جۆگە · خانەقین · دیالە","category":"جۆگە"},"geometry":{"type":"Point","coordinates":[45.3631191,34.4034009]}},{"type":"Feature","id":"osm-natural-stream-ce182ec227b9e1","properties":{"id":"osm-natural-stream-ce182ec227b9e1","name":"نهر خري بيكة","kind":"natural","tier":"natural","priority":180,"context":"جۆگە · خانەقین · دیالە","category":"جۆگە"},"geometry":{"type":"Point","coordinates":[45.40862,34.31399]}},{"type":"Feature","id":"osm-natural-stream-93be10c83bba3b","properties":{"id":"osm-natural-stream-93be10c83bba3b","name":"نهر رحاملة","kind":"natural","tier":"natural","priority":180,"context":"جۆگە · خانەقین · دیالە","category":"جۆگە"},"geometry":{"type":"Point","coordinates":[45.3348937,34.3752899]}},{"type":"Feature","id":"osm-natural-valley-05a53bed80d5e2","properties":{"id":"osm-natural-valley-05a53bed80d5e2","name":"وادي درونجق","kind":"natural","tier":"natural","priority":180,"context":"دۆڵ · خانەقین · دیالە","category":"دۆڵ"},"geometry":{"type":"Point","coordinates":[45.36751,34.35518]}},{"type":"Feature","id":"osm-natural-valley-8511f3f6cd6525","properties":{"id":"osm-natural-valley-8511f3f6cd6525","name":"وادي قرزه رقه","kind":"natural","tier":"natural","priority":180,"context":"دۆڵ · خانەقین · دیالە","category":"دۆڵ"},"geometry":{"type":"Point","coordinates":[45.29406,34.33187]}},{"type":"Feature","id":"osm-natural-stream-9158525ea55f5c","properties":{"id":"osm-natural-stream-9158525ea55f5c","name":"وادي قوزه رقه","kind":"natural","tier":"natural","priority":180,"context":"جۆگە · خانەقین · دیالە","category":"جۆگە"},"geometry":{"type":"Point","coordinates":[45.26693,34.33232]}},{"type":"Feature","id":"osm-natural-stream-7cee32e5d22be7","properties":{"id":"osm-natural-stream-7cee32e5d22be7","name":"وادي كوردرة","kind":"natural","tier":"natural","priority":180,"context":"جۆگە · خانەقین · دیالە","category":"جۆگە"},"geometry":{"type":"Point","coordinates":[45.3243839,34.4201721]}},{"type":"Feature","id":"osm-natural-valley-50fd0d18e596a7","properties":{"id":"osm-natural-valley-50fd0d18e596a7","name":"وادي نهر خرخرداغ","kind":"natural","tier":"natural","priority":180,"context":"دۆڵ · خانەقین · دیالە","category":"دۆڵ"},"geometry":{"type":"Point","coordinates":[45.36639,34.45948]}},{"type":"Feature","id":"road-label-osm-way-51863805","properties":{"id":"road-label-osm-way-51863805","name":"ڕێگای کەلار خانقین","kind":"road","tier":"road","priority":88,"context":"primary · خانەقین · دیالە","category":"ڕێگا"},"geometry":{"type":"Point","coordinates":[45.348053,34.402258]}},{"type":"Feature","id":"osm-node-6264895685-hospital","properties":{"id":"osm-node-6264895685-hospital","name":"بەهار تازە","kind":"poi","tier":"poi_landmark","priority":95.1,"context":"نەخۆشخانە","category":"نەخۆشخانە"},"geometry":{"type":"Point","coordinates":[45.3510008,34.3033372]}},{"type":"Feature","id":"osm-node-8961357217-hospital","properties":{"id":"osm-node-8961357217-hospital","name":"تحلیلات","kind":"poi","tier":"poi_landmark","priority":95.1,"context":"نەخۆشخانە","category":"نەخۆشخانە"},"geometry":{"type":"Point","coordinates":[45.375434,34.3573816]}},{"type":"Feature","id":"osm-way-1101666823-hospital","properties":{"id":"osm-way-1101666823-hospital","name":"نەخۆشخانەی گشتی خانەقین","kind":"poi","tier":"poi_landmark","priority":95.092,"context":"نەخۆشخانە","category":"نەخۆشخانە"},"geometry":{"type":"Point","coordinates":[45.3930178,34.3504914]}},{"type":"Feature","id":"osm-way-1101517433-building","properties":{"id":"osm-way-1101517433-building","name":"مستشفی العزل خانقین","kind":"poi","tier":"poi_landmark","priority":95.055,"context":"نەخۆشخانە","category":"نەخۆشخانە"},"geometry":{"type":"Point","coordinates":[45.3937865,34.351473]}},{"type":"Feature","id":"osm-node-10255508309-bank","properties":{"id":"osm-node-10255508309-bank","name":"اللواء الاول الفوج الثالث","kind":"poi","tier":"poi_regional","priority":80.1,"context":"بنکەی سەربازی","category":"بنکەی سەربازی"},"geometry":{"type":"Point","coordinates":[45.3533486,34.2662191]}},{"type":"Feature","id":"osm-way-340583575-military","properties":{"id":"osm-way-340583575-military","name":"Military Check Point","kind":"poi","tier":"poi_regional","priority":80.045,"context":"بنکەی سەربازی","category":"بنکەی سەربازی"},"geometry":{"type":"Point","coordinates":[45.2785391,34.2665477]}},{"type":"Feature","id":"osm-way-260947920-stadium","properties":{"id":"osm-way-260947920-stadium","name":"یاریگای شەهید حوسێن مەنسوور","kind":"poi","tier":"poi_regional","priority":76.092,"context":"یاریگا","category":"یاریگا"},"geometry":{"type":"Point","coordinates":[45.399672,34.3386382]}},{"type":"Feature","id":"osm-node-5589119750-attraction","properties":{"id":"osm-node-5589119750-attraction","name":"باخچەی خۆشی","kind":"poi","tier":"poi_detail","priority":50.1,"context":"شوێنی گەشتیاری","category":"شوێنی گەشتیاری"},"geometry":{"type":"Point","coordinates":[45.3930021,34.3242954]}},{"type":"Feature","id":"osm-node-6064576087-college","properties":{"id":"osm-node-6064576087-college","name":"زانکۆی تەکنەلۆژیای زانیاری خانەقین","kind":"poi","tier":"poi_detail","priority":50.1,"context":"کۆلێژ","category":"کۆلێژ"},"geometry":{"type":"Point","coordinates":[45.4044724,34.3513974]}},{"type":"Feature","id":"osm-node-4761659722-attraction","properties":{"id":"osm-node-4761659722-attraction","name":"سیطرە السقیفە","kind":"poi","tier":"poi_detail","priority":50.1,"context":"شوێنی گەشتیاری","category":"شوێنی گەشتیاری"},"geometry":{"type":"Point","coordinates":[45.2785587,34.2665622]}},{"type":"Feature","id":"osm-node-7007618486-attraction","properties":{"id":"osm-node-7007618486-attraction","name":"قاطع عملیات لواء الاول خانقین","kind":"poi","tier":"poi_detail","priority":50.1,"context":"شوێنی گەشتیاری","category":"شوێنی گەشتیاری"},"geometry":{"type":"Point","coordinates":[45.3534635,34.2662424]}},{"type":"Feature","id":"osm-node-7226074385-college","properties":{"id":"osm-node-7226074385-college","name":"کولیزی زمان زانسته مرویەکانی خانەقین","kind":"poi","tier":"poi_detail","priority":50.1,"context":"کۆلێژ","category":"کۆلێژ"},"geometry":{"type":"Point","coordinates":[45.3541179,34.4033434]}},{"type":"Feature","id":"osm-node-13761400561-ruins","properties":{"id":"osm-node-13761400561-ruins","name":"گەڕەپولە","kind":"poi","tier":"poi_detail","priority":50.1,"context":"شوێنی شوێنەوار","category":"شوێنی شوێنەوار"},"geometry":{"type":"Point","coordinates":[45.450748,34.4709061]}},{"type":"Feature","id":"osm-node-9732959517-fuel","properties":{"id":"osm-node-9732959517-fuel","name":"اکلیل الجبل المشیدە","kind":"poi","tier":"poi_regional","priority":82.094,"context":"وێستگەی سووتەمەنی","category":"وێستگەی سووتەمەنی"},"geometry":{"type":"Point","coordinates":[45.4357557,34.3554971]}},{"type":"Feature","id":"osm-node-5771124256-fuel","properties":{"id":"osm-node-5771124256-fuel","name":"بانزین خانەی حکومی","kind":"poi","tier":"poi_regional","priority":82.094,"context":"وێستگەی سووتەمەنی","category":"وێستگەی سووتەمەنی"},"geometry":{"type":"Point","coordinates":[45.3903098,34.3476172]}},{"type":"Feature","id":"osm-node-9903394517-fuel","properties":{"id":"osm-node-9903394517-fuel","name":"بەنزینخانەی ئۆرانۆس","kind":"poi","tier":"poi_regional","priority":82.094,"context":"وێستگەی سووتەمەنی","category":"وێستگەی سووتەمەنی"},"geometry":{"type":"Point","coordinates":[45.4075333,34.3425782]}},{"type":"Feature","id":"osm-node-5028181521-fuel","properties":{"id":"osm-node-5028181521-fuel","name":"بەنزینخانەی شەهیدان","kind":"poi","tier":"poi_regional","priority":82.094,"context":"وێستگەی سووتەمەنی","category":"وێستگەی سووتەمەنی"},"geometry":{"type":"Point","coordinates":[45.40147,34.3375494]}},{"type":"Feature","id":"osm-node-9732984418-fuel","properties":{"id":"osm-node-9732984418-fuel","name":"حیدر","kind":"poi","tier":"poi_regional","priority":82.094,"context":"وێستگەی سووتەمەنی","category":"وێستگەی سووتەمەنی"},"geometry":{"type":"Point","coordinates":[45.3954315,34.3343992]}},{"type":"Feature","id":"osm-node-9733002617-fuel","properties":{"id":"osm-node-9733002617-fuel","name":"خلیفە","kind":"poi","tier":"poi_regional","priority":82.094,"context":"وێستگەی سووتەمەنی","category":"وێستگەی سووتەمەنی"},"geometry":{"type":"Point","coordinates":[45.3173256,34.2968222]}},{"type":"Feature","id":"osm-node-9732959417-fuel","properties":{"id":"osm-node-9732959417-fuel","name":"محطە وقود الصنوبر المشیدە","kind":"poi","tier":"poi_regional","priority":82.094,"context":"وێستگەی سووتەمەنی","category":"وێستگەی سووتەمەنی"},"geometry":{"type":"Point","coordinates":[45.3226282,34.2856804]}},{"type":"Feature","id":"osm-node-5191755621-bus_station","properties":{"id":"osm-node-5191755621-bus_station","name":"کراج بغداد","kind":"poi","tier":"poi_regional","priority":80.096,"context":"وێستگەی پاس","category":"وێستگەی پاس"},"geometry":{"type":"Point","coordinates":[45.3654476,34.3286224]}},{"type":"Feature","id":"osm-node-11492404069-police","properties":{"id":"osm-node-11492404069-police","name":"لواء ٨ حدود","kind":"poi","tier":"poi_regional","priority":77.1,"context":"بنکەی پۆلیس","category":"بنکەی پۆلیس"},"geometry":{"type":"Point","coordinates":[45.3836479,34.3832175]}},{"type":"Feature","id":"osm-node-2488631359-police","properties":{"id":"osm-node-2488631359-police","name":"مخفر حدود الحسین","kind":"poi","tier":"poi_regional","priority":77.1,"context":"بنکەی پۆلیس","category":"بنکەی پۆلیس"},"geometry":{"type":"Point","coordinates":[45.440853,34.4649008]}},{"type":"Feature","id":"osm-node-2488631393-police","properties":{"id":"osm-node-2488631393-police","name":"مخفر حدود المقداد","kind":"poi","tier":"poi_regional","priority":77.1,"context":"بنکەی پۆلیس","category":"بنکەی پۆلیس"},"geometry":{"type":"Point","coordinates":[45.4524877,34.4304817]}},{"type":"Feature","id":"osm-node-2488546108-police","properties":{"id":"osm-node-2488546108-police","name":"مخفر حدود المنذریە","kind":"poi","tier":"poi_regional","priority":77.1,"context":"بنکەی پۆلیس","category":"بنکەی پۆلیس"},"geometry":{"type":"Point","coordinates":[45.464968,34.3804781]}},{"type":"Feature","id":"osm-node-2488546112-police","properties":{"id":"osm-node-2488546112-police","name":"مخفر حدود الیاسین","kind":"poi","tier":"poi_regional","priority":77.1,"context":"بنکەی پۆلیس","category":"بنکەی پۆلیس"},"geometry":{"type":"Point","coordinates":[45.4642659,34.3558262]}},{"type":"Feature","id":"osm-node-5856741185-police","properties":{"id":"osm-node-5856741185-police","name":"هاتوچوی خانه قین","kind":"poi","tier":"poi_regional","priority":77.1,"context":"بنکەی پۆلیس","category":"بنکەی پۆلیس"},"geometry":{"type":"Point","coordinates":[45.3921982,34.3530385]}},{"type":"Feature","id":"osm-way-1102556182-police","properties":{"id":"osm-way-1102556182-police","name":"بنکەی پۆلیسی خانەقین","kind":"poi","tier":"poi_regional","priority":77.092,"context":"بنکەی پۆلیس","category":"بنکەی پۆلیس"},"geometry":{"type":"Point","coordinates":[45.381573,34.3454533]}},{"type":"Feature","id":"osm-way-319045407-police","properties":{"id":"osm-way-319045407-police","name":"پاسگاه","kind":"poi","tier":"poi_regional","priority":77.092,"context":"بنکەی پۆلیس","category":"بنکەی پۆلیس"},"geometry":{"type":"Point","coordinates":[45.471288,34.3855694]}},{"type":"Feature","id":"osm-way-319045403-police","properties":{"id":"osm-way-319045403-police","name":"پاسگاه مرزی دربند جوق","kind":"poi","tier":"poi_regional","priority":77.092,"context":"بنکەی پۆلیس","category":"بنکەی پۆلیس"},"geometry":{"type":"Point","coordinates":[45.4516933,34.4439493]}},{"type":"Feature","id":"osm-node-8961357320-car_dealership","properties":{"id":"osm-node-8961357320-car_dealership","name":"معرض لاهور","kind":"poi","tier":"poi_regional","priority":76.1,"context":"پێشانگای ئۆتۆمبیل","category":"پێشانگای ئۆتۆمبیل"},"geometry":{"type":"Point","coordinates":[45.3895607,34.3549972]}},{"type":"Feature","id":"osm-way-326430312-residential","properties":{"id":"osm-way-326430312-residential","name":"small town","kind":"poi","tier":"poi_local","priority":68.045,"context":"کۆمپاوندی نیشتەجێبوون","category":"کۆمپاوندی نیشتەجێبوون"},"geometry":{"type":"Point","coordinates":[45.2620576,34.3291379]}},{"type":"Feature","id":"osm-way-1218639729-residential","properties":{"id":"osm-way-1218639729-residential","name":"دارەخورمای سەیدغەریب","kind":"poi","tier":"poi_local","priority":68.045,"context":"کۆمپاوندی نیشتەجێبوون","category":"کۆمپاوندی نیشتەجێبوون"},"geometry":{"type":"Point","coordinates":[45.4019308,34.4922983]}},{"type":"Feature","id":"osm-way-1218636075-residential","properties":{"id":"osm-way-1218636075-residential","name":"دۆڵی بەگزاد","kind":"poi","tier":"poi_local","priority":68.045,"context":"کۆمپاوندی نیشتەجێبوون","category":"کۆمپاوندی نیشتەجێبوون"},"geometry":{"type":"Point","coordinates":[45.4430657,34.4966979]}},{"type":"Feature","id":"osm-way-788239183-residential","properties":{"id":"osm-way-788239183-residential","name":"سیاوڵەی ڕەشید","kind":"poi","tier":"poi_local","priority":68.045,"context":"کۆمپاوندی نیشتەجێبوون","category":"کۆمپاوندی نیشتەجێبوون"},"geometry":{"type":"Point","coordinates":[45.3414561,34.4803744]}},{"type":"Feature","id":"osm-way-1218897200-residential","properties":{"id":"osm-way-1218897200-residential","name":"سەید سیخی","kind":"poi","tier":"poi_local","priority":68.045,"context":"کۆمپاوندی نیشتەجێبوون","category":"کۆمپاوندی نیشتەجێبوون"},"geometry":{"type":"Point","coordinates":[45.2954789,34.485489]}},{"type":"Feature","id":"osm-way-1218635892-residential","properties":{"id":"osm-way-1218635892-residential","name":"قەڵەمە","kind":"poi","tier":"poi_local","priority":68.045,"context":"کۆمپاوندی نیشتەجێبوون","category":"کۆمپاوندی نیشتەجێبوون"},"geometry":{"type":"Point","coordinates":[45.4530688,34.4927025]}},{"type":"Feature","id":"osm-way-1219262834-residential","properties":{"id":"osm-way-1219262834-residential","name":"موساعوسمان","kind":"poi","tier":"poi_local","priority":68.045,"context":"کۆمپاوندی نیشتەجێبوون","category":"کۆمپاوندی نیشتەجێبوون"},"geometry":{"type":"Point","coordinates":[45.3415649,34.4650252]}},{"type":"Feature","id":"osm-way-337164858-industrial","properties":{"id":"osm-way-337164858-industrial","name":"Khanaqin 132kV Substation","kind":"poi","tier":"poi_local","priority":66.045,"context":"ناوچەی پیشەسازی","category":"ناوچەی پیشەسازی"},"geometry":{"type":"Point","coordinates":[45.3695719,34.3303624]}},{"type":"Feature","id":"osm-way-341544815-industrial","properties":{"id":"osm-way-341544815-industrial","name":"Khanqin Brick Factory","kind":"poi","tier":"poi_local","priority":66.045,"context":"ناوچەی پیشەسازی","category":"ناوچەی پیشەسازی"},"geometry":{"type":"Point","coordinates":[45.4353302,34.3100552]}},{"type":"Feature","id":"osm-way-332693932-industrial","properties":{"id":"osm-way-332693932-industrial","name":"Radio Tower","kind":"poi","tier":"poi_local","priority":66.045,"context":"ناوچەی پیشەسازی","category":"ناوچەی پیشەسازی"},"geometry":{"type":"Point","coordinates":[45.2763584,34.2652779]}},{"type":"Feature","id":"osm-node-4578251439-school","properties":{"id":"osm-node-4578251439-school","name":"اعدادیە صناعە خانقین","kind":"poi","tier":"poi_detail","priority":50.1,"context":"قوتابخانە","category":"قوتابخانە"},"geometry":{"type":"Point","coordinates":[45.4030012,34.3510592]}},{"type":"Feature","id":"osm-node-4464769089-school","properties":{"id":"osm-node-4464769089-school","name":"بیشکان","kind":"poi","tier":"poi_detail","priority":50.1,"context":"قوتابخانە","category":"قوتابخانە"},"geometry":{"type":"Point","coordinates":[45.346762,34.328945]}},{"type":"Feature","id":"osm-node-10653027105-supermarket","properties":{"id":"osm-node-10653027105-supermarket","name":"توب مارت","kind":"poi","tier":"poi_detail","priority":50.1,"context":"سۆپەرمارکێت","category":"سۆپەرمارکێت"},"geometry":{"type":"Point","coordinates":[45.3715923,34.3338055]}},{"type":"Feature","id":"osm-node-6578243287-school","properties":{"id":"osm-node-6578243287-school","name":"ثانویە روشنبیر","kind":"poi","tier":"poi_detail","priority":50.1,"context":"قوتابخانە","category":"قوتابخانە"},"geometry":{"type":"Point","coordinates":[45.3636739,34.3207167]}},{"type":"Feature","id":"osm-node-4471200493-pharmacy","properties":{"id":"osm-node-4471200493-pharmacy","name":"ده رمانخانه ی بلند","kind":"poi","tier":"poi_detail","priority":50.1,"context":"دەرمانخانە","category":"دەرمانخانە"},"geometry":{"type":"Point","coordinates":[45.3840242,34.3427632]}},{"type":"Feature","id":"osm-node-8961358717-supermarket","properties":{"id":"osm-node-8961358717-supermarket","name":"ساڤار","kind":"poi","tier":"poi_detail","priority":50.1,"context":"سۆپەرمارکێت","category":"سۆپەرمارکێت"},"geometry":{"type":"Point","coordinates":[45.3745591,34.3560235]}},{"type":"Feature","id":"osm-node-12556857001-supermarket","properties":{"id":"osm-node-12556857001-supermarket","name":"سوبر مارکت ژیار","kind":"poi","tier":"poi_detail","priority":50.1,"context":"سۆپەرمارکێت","category":"سۆپەرمارکێت"},"geometry":{"type":"Point","coordinates":[45.4016838,34.3283417]}},{"type":"Feature","id":"osm-node-7275172386-supermarket","properties":{"id":"osm-node-7275172386-supermarket","name":"سێوی سەوز","kind":"poi","tier":"poi_detail","priority":50.1,"context":"سۆپەرمارکێت","category":"سۆپەرمارکێت"},"geometry":{"type":"Point","coordinates":[45.3807316,34.341666]}},{"type":"Feature","id":"osm-node-7275172485-supermarket","properties":{"id":"osm-node-7275172485-supermarket","name":"سەناریا","kind":"poi","tier":"poi_detail","priority":50.1,"context":"سۆپەرمارکێت","category":"سۆپەرمارکێت"},"geometry":{"type":"Point","coordinates":[45.3808848,34.3417132]}},{"type":"Feature","id":"osm-node-11469020870-pharmacy","properties":{"id":"osm-node-11469020870-pharmacy","name":"صیدلیه معاون طبی ازاد","kind":"poi","tier":"poi_detail","priority":50.1,"context":"دەرمانخانە","category":"دەرمانخانە"},"geometry":{"type":"Point","coordinates":[45.3817819,34.3228878]}},{"type":"Feature","id":"osm-node-11046900906-supermarket","properties":{"id":"osm-node-11046900906-supermarket","name":"عطاریات الحجی","kind":"poi","tier":"poi_detail","priority":50.1,"context":"سۆپەرمارکێت","category":"سۆپەرمارکێت"},"geometry":{"type":"Point","coordinates":[45.3813603,34.3451652]}},{"type":"Feature","id":"osm-node-7313896885-school","properties":{"id":"osm-node-7313896885-school","name":"قوتابخانی جیهان","kind":"poi","tier":"poi_detail","priority":50.1,"context":"قوتابخانە","category":"قوتابخانە"},"geometry":{"type":"Point","coordinates":[45.3991025,34.3467399]}},{"type":"Feature","id":"osm-node-8961276519-supermarket","properties":{"id":"osm-node-8961276519-supermarket","name":"مارکت فرمان","kind":"poi","tier":"poi_detail","priority":50.1,"context":"سۆپەرمارکێت","category":"سۆپەرمارکێت"},"geometry":{"type":"Point","coordinates":[45.3754827,34.3587778]}},{"type":"Feature","id":"osm-node-9964942959-school","properties":{"id":"osm-node-9964942959-school","name":"مدرسە خدیجە الکبری","kind":"poi","tier":"poi_detail","priority":50.1,"context":"قوتابخانە","category":"قوتابخانە"},"geometry":{"type":"Point","coordinates":[45.3817122,34.3233092]}},{"type":"Feature","id":"osm-node-11469020869-school","properties":{"id":"osm-node-11469020869-school","name":"مدرسە قانع+خدیجە الکبری","kind":"poi","tier":"poi_detail","priority":50.1,"context":"قوتابخانە","category":"قوتابخانە"},"geometry":{"type":"Point","coordinates":[45.3816714,34.3233111]}},{"type":"Feature","id":"osm-node-8961357317-clinic","properties":{"id":"osm-node-8961357317-clinic","name":"معاون طبی","kind":"poi","tier":"poi_detail","priority":50.1,"context":"کلینیک","category":"کلینیک"},"geometry":{"type":"Point","coordinates":[45.3790144,34.3562084]}},{"type":"Feature","id":"osm-node-8961357323-supermarket","properties":{"id":"osm-node-8961357323-supermarket","name":"مول و مسبح مرواری","kind":"poi","tier":"poi_detail","priority":50.1,"context":"سۆپەرمارکێت","category":"سۆپەرمارکێت"},"geometry":{"type":"Point","coordinates":[45.3825126,34.3563945]}},{"type":"Feature","id":"osm-node-4442589089-supermarket","properties":{"id":"osm-node-4442589089-supermarket","name":"مینی مارکیت","kind":"poi","tier":"poi_detail","priority":50.1,"context":"سۆپەرمارکێت","category":"سۆپەرمارکێت"},"geometry":{"type":"Point","coordinates":[45.4183119,34.3496296]}},{"type":"Feature","id":"osm-node-5753891522-supermarket","properties":{"id":"osm-node-5753891522-supermarket","name":"هەرزان بازاڕی دایک","kind":"poi","tier":"poi_detail","priority":50.1,"context":"سۆپەرمارکێت","category":"سۆپەرمارکێت"},"geometry":{"type":"Point","coordinates":[45.3925218,34.3475265]}},{"type":"Feature","id":"osm-node-8961276618-restaurant","properties":{"id":"osm-node-8961276618-restaurant","name":"کباب","kind":"poi","tier":"poi_detail","priority":50.1,"context":"چێشتخانە","category":"چێشتخانە"},"geometry":{"type":"Point","coordinates":[45.3770307,34.3558673]}},{"type":"Feature","id":"osm-way-1100613413-school","properties":{"id":"osm-way-1100613413-school","name":"ئامادەیی خانەقین - کوڕان","kind":"poi","tier":"poi_detail","priority":50.092,"context":"قوتابخانە","category":"قوتابخانە"},"geometry":{"type":"Point","coordinates":[45.3844232,34.3415159]}},{"type":"Feature","id":"osm-way-337765837-clinic","properties":{"id":"osm-way-337765837-clinic","name":"بنکەی تەندروستی خانەقین","kind":"poi","tier":"poi_detail","priority":50.092,"context":"کلینیک","category":"کلینیک"},"geometry":{"type":"Point","coordinates":[45.3856672,34.343096]}},{"type":"Feature","id":"osm-way-337767886-supermarket","properties":{"id":"osm-way-337767886-supermarket","name":"بەهەشتی شار","kind":"poi","tier":"poi_detail","priority":50.092,"context":"سۆپەرمارکێت","category":"سۆپەرمارکێت"},"geometry":{"type":"Point","coordinates":[45.3828272,34.3425874]}},{"type":"Feature","id":"osm-way-1097750161-school","properties":{"id":"osm-way-1097750161-school","name":"خوێندنگەی بالیسان","kind":"poi","tier":"poi_detail","priority":50.092,"context":"قوتابخانە","category":"قوتابخانە"},"geometry":{"type":"Point","coordinates":[45.3802347,34.3589842]}},{"type":"Feature","id":"osm-way-1097717980-school","properties":{"id":"osm-way-1097717980-school","name":"خوێندنگەی زاگرۆس","kind":"poi","tier":"poi_detail","priority":50.092,"context":"قوتابخانە","category":"قوتابخانە"},"geometry":{"type":"Point","coordinates":[45.4009933,34.3473448]}},{"type":"Feature","id":"osm-way-1101666837-school","properties":{"id":"osm-way-1101666837-school","name":"قوتابخانەی بنەڕەتی لەرێ - کوڕان","kind":"poi","tier":"poi_detail","priority":50.092,"context":"قوتابخانە","category":"قوتابخانە"},"geometry":{"type":"Point","coordinates":[45.3765535,34.3639814]}},{"type":"Feature","id":"osm-way-337763967-school","properties":{"id":"osm-way-337763967-school","name":"مدرسە","kind":"poi","tier":"poi_detail","priority":50.092,"context":"قوتابخانە","category":"قوتابخانە"},"geometry":{"type":"Point","coordinates":[45.3846411,34.3433715]}},{"type":"Feature","id":"osm-way-1102431001-school","properties":{"id":"osm-way-1102431001-school","name":"مدرسە الجریر الابتدائیە","kind":"poi","tier":"poi_detail","priority":50.092,"context":"قوتابخانە","category":"قوتابخانە"},"geometry":{"type":"Point","coordinates":[45.3746498,34.3590664]}},{"type":"Feature","id":"osm-way-337762702-building","properties":{"id":"osm-way-337762702-building","name":"مدرسە","kind":"poi","tier":"poi_detail","priority":50.055,"context":"قوتابخانە","category":"قوتابخانە"},"geometry":{"type":"Point","coordinates":[45.3848881,34.3408103]}},{"type":"Feature","id":"osm-way-337767887-building","properties":{"id":"osm-way-337767887-building","name":"مدرسە","kind":"poi","tier":"poi_detail","priority":50.055,"context":"قوتابخانە","category":"قوتابخانە"},"geometry":{"type":"Point","coordinates":[45.386342,34.340309]}},{"type":"Feature","id":"osm-node-11146202040-community_centre","properties":{"id":"osm-node-11146202040-community_centre","name":"البیت الثقافی خانقین","kind":"poi","tier":"poi_detail","priority":50.1,"context":"ناوەندی کۆمەڵایەتی","category":"ناوەندی کۆمەڵایەتی"},"geometry":{"type":"Point","coordinates":[45.3951934,34.3525118]}},{"type":"Feature","id":"osm-node-11765450701-convenience","properties":{"id":"osm-node-11765450701-convenience","name":"التفاح الاخضر","kind":"poi","tier":"poi_detail","priority":50.1,"context":"دوکانی نزیک","category":"دوکانی نزیک"},"geometry":{"type":"Point","coordinates":[45.3804432,34.3416643]}},{"type":"Feature","id":"osm-node-5589052513-veterinary","properties":{"id":"osm-node-5589052513-veterinary","name":"العیادە البیطریە","kind":"poi","tier":"poi_detail","priority":50.1,"context":"کلینیکی ڤێتەرنەری","category":"کلینیکی ڤێتەرنەری"},"geometry":{"type":"Point","coordinates":[45.3816382,34.3465632]}},{"type":"Feature","id":"osm-node-2488546039-graveyard","properties":{"id":"osm-node-2488546039-graveyard","name":"امام رضا","kind":"poi","tier":"poi_detail","priority":50.1,"context":"قەبرستان","category":"قەبرستان"},"geometry":{"type":"Point","coordinates":[45.3229375,34.3485809]}},{"type":"Feature","id":"osm-node-2488546036-memorial","properties":{"id":"osm-node-2488546036-memorial","name":"امام محمد","kind":"poi","tier":"poi_detail","priority":50.1,"context":"یادەوەری","category":"یادەوەری"},"geometry":{"type":"Point","coordinates":[45.2994346,34.3497592]}},{"type":"Feature","id":"osm-node-7313896985-viewpoint","properties":{"id":"osm-node-7313896985-viewpoint","name":"باخ علی غالب","kind":"poi","tier":"poi_detail","priority":50.1,"context":"شوێنی سەیران","category":"شوێنی سەیران"},"geometry":{"type":"Point","coordinates":[45.388999,34.3492557]}},{"type":"Feature","id":"osm-node-11949980469-community_centre","properties":{"id":"osm-node-11949980469-community_centre","name":"بنایە امانج احسان;مجمع امانج احسان بیک","kind":"poi","tier":"poi_detail","priority":50.1,"context":"ناوەندی کۆمەڵایەتی","category":"ناوەندی کۆمەڵایەتی"},"geometry":{"type":"Point","coordinates":[45.3877997,34.3401687]}},{"type":"Feature","id":"osm-node-10312692993-artwork","properties":{"id":"osm-node-10312692993-artwork","name":"تمثال اللواء حسین منصور","kind":"poi","tier":"poi_detail","priority":50.1,"context":"هونەری گشتی","category":"هونەری گشتی"},"geometry":{"type":"Point","coordinates":[45.3681929,34.3324231]}},{"type":"Feature","id":"osm-node-6278312985-cafe","properties":{"id":"osm-node-6278312985-cafe","name":"تی کافێ","kind":"poi","tier":"poi_detail","priority":50.1,"context":"کافێ","category":"کافێ"},"geometry":{"type":"Point","coordinates":[45.3818884,34.3407422]}},{"type":"Feature","id":"osm-node-10937316806-mobile_phone_shop","properties":{"id":"osm-node-10937316806-mobile_phone_shop","name":"سالار موبایل خانه قین","kind":"poi","tier":"poi_detail","priority":50.1,"context":"دوکانی مۆبایل","category":"دوکانی مۆبایل"},"geometry":{"type":"Point","coordinates":[45.3877752,34.3457437]}},{"type":"Feature","id":"osm-node-7055368685-hairdresser","properties":{"id":"osm-node-7055368685-hairdresser","name":"سەرتاشخانەی جمعه","kind":"poi","tier":"poi_detail","priority":50.1,"context":"سەرتاشخانە","category":"سەرتاشخانە"},"geometry":{"type":"Point","coordinates":[45.3621863,34.3197165]}},{"type":"Feature","id":"osm-node-10116451617-clothes","properties":{"id":"osm-node-10116451617-clothes","name":"شاکر رضی","kind":"poi","tier":"poi_detail","priority":50.1,"context":"جلوبەرگ فرۆشی","category":"جلوبەرگ فرۆشی"},"geometry":{"type":"Point","coordinates":[45.3868296,34.3451283]}},{"type":"Feature","id":"osm-node-6578243291-memorial","properties":{"id":"osm-node-6578243291-memorial","name":"عزیز پشتوان","kind":"poi","tier":"poi_detail","priority":50.1,"context":"یادەوەری","category":"یادەوەری"},"geometry":{"type":"Point","coordinates":[45.384127,34.3425199]}},{"type":"Feature","id":"osm-node-11469020969-fitness_centre","properties":{"id":"osm-node-11469020969-fitness_centre","name":"فتنس سنتر للرشاقه و کمال اجسام","kind":"poi","tier":"poi_detail","priority":50.1,"context":"جیم","category":"جیم"},"geometry":{"type":"Point","coordinates":[45.3831357,34.3245334]}},{"type":"Feature","id":"osm-node-8961358817-fast_food","properties":{"id":"osm-node-8961358817-fast_food","name":"فراید جکن","kind":"poi","tier":"poi_detail","priority":50.1,"context":"خواردنی خێرا","category":"خواردنی خێرا"},"geometry":{"type":"Point","coordinates":[45.3922729,34.3344817]}},{"type":"Feature","id":"osm-node-8961357319-fast_food","properties":{"id":"osm-node-8961357319-fast_food","name":"فلافل","kind":"poi","tier":"poi_detail","priority":50.1,"context":"خواردنی خێرا","category":"خواردنی خێرا"},"geometry":{"type":"Point","coordinates":[45.3803393,34.3567343]}},{"type":"Feature","id":"osm-node-5607959522-memorial","properties":{"id":"osm-node-5607959522-memorial","name":"فلکە کلدنی","kind":"poi","tier":"poi_detail","priority":50.1,"context":"یادەوەری","category":"یادەوەری"},"geometry":{"type":"Point","coordinates":[45.3848399,34.3454184]}},{"type":"Feature","id":"osm-node-4453464492-town_hall","properties":{"id":"osm-node-4453464492-town_hall","name":"قاعە افراح","kind":"poi","tier":"poi_detail","priority":50.1,"context":"شارەوانی","category":"شارەوانی"},"geometry":{"type":"Point","coordinates":[45.4025646,34.3173124]}},{"type":"Feature","id":"osm-node-6716305593-fitness_centre","properties":{"id":"osm-node-6716305593-fitness_centre","name":"قاعە عباس لکمال الاجسام","kind":"poi","tier":"poi_detail","priority":50.1,"context":"جیم","category":"جیم"},"geometry":{"type":"Point","coordinates":[45.3910359,34.3470244]}},{"type":"Feature","id":"osm-node-6578243289-monument","properties":{"id":"osm-node-6578243289-monument","name":"لیلی قاسم","kind":"poi","tier":"poi_detail","priority":50.1,"context":"پەیکەر","category":"پەیکەر"},"geometry":{"type":"Point","coordinates":[45.3705703,34.334533]}},{"type":"Feature","id":"osm-node-11949980570-community_centre","properties":{"id":"osm-node-11949980570-community_centre","name":"مجمع امانج احسان بیک","kind":"poi","tier":"poi_detail","priority":50.1,"context":"ناوەندی کۆمەڵایەتی","category":"ناوەندی کۆمەڵایەتی"},"geometry":{"type":"Point","coordinates":[45.3877875,34.3402789]}},{"type":"Feature","id":"osm-node-11359170570-nursing_home","properties":{"id":"osm-node-11359170570-nursing_home","name":"مرکز صحی بانمیل","kind":"poi","tier":"poi_detail","priority":50.1,"context":"خانەی بەساڵاچووان","category":"خانەی بەساڵاچووان"},"geometry":{"type":"Point","coordinates":[45.3981923,34.3206466]}},{"type":"Feature","id":"osm-node-8961357325-furniture_shop","properties":{"id":"osm-node-8961357325-furniture_shop","name":"معرض زاهد للاثاث","kind":"poi","tier":"poi_detail","priority":50.1,"context":"کەل و پەلی ماڵ فرۆشی","category":"کەل و پەلی ماڵ فرۆشی"},"geometry":{"type":"Point","coordinates":[45.3811454,34.3565864]}},{"type":"Feature","id":"osm-node-7922134085-furniture_shop","properties":{"id":"osm-node-7922134085-furniture_shop","name":"معرض سمیر للاثاث","kind":"poi","tier":"poi_detail","priority":50.1,"context":"کەل و پەلی ماڵ فرۆشی","category":"کەل و پەلی ماڵ فرۆشی"},"geometry":{"type":"Point","coordinates":[45.4016579,34.3518869]}},{"type":"Feature","id":"osm-node-7539462585-fitness_centre","properties":{"id":"osm-node-7539462585-fitness_centre","name":"معهد الصقر الذهبی","kind":"poi","tier":"poi_detail","priority":50.1,"context":"جیم","category":"جیم"},"geometry":{"type":"Point","coordinates":[45.3820632,34.3407871]}},{"type":"Feature","id":"osm-node-11088471705-car_wash","properties":{"id":"osm-node-11088471705-car_wash","name":"مغسله سیارات","kind":"poi","tier":"poi_detail","priority":50.1,"context":"شۆردنەوەی ئۆتۆمبیل","category":"شۆردنەوەی ئۆتۆمبیل"},"geometry":{"type":"Point","coordinates":[45.3869357,34.3305117]}},{"type":"Feature","id":"osm-node-6511925285-tower","properties":{"id":"osm-node-6511925285-tower","name":"مکان برج تولە","kind":"poi","tier":"poi_detail","priority":50.1,"context":"بورج","category":"بورج"},"geometry":{"type":"Point","coordinates":[45.3187462,34.4720749]}},{"type":"Feature","id":"osm-node-8867643617-computer_shop","properties":{"id":"osm-node-8867643617-computer_shop","name":"مکتب الوند غالب ستلایت","kind":"poi","tier":"poi_detail","priority":50.1,"context":"دوکانی کۆمپیوتەر","category":"دوکانی کۆمپیوتەر"},"geometry":{"type":"Point","coordinates":[45.3825056,34.3453585]}},{"type":"Feature","id":"osm-node-9673091058-post_office","properties":{"id":"osm-node-9673091058-post_office","name":"مکتب برید المنذریه","kind":"poi","tier":"poi_detail","priority":50.1,"context":"پۆستە","category":"پۆستە"},"geometry":{"type":"Point","coordinates":[45.46,34.380046]}},{"type":"Feature","id":"osm-node-9673091051-post_office","properties":{"id":"osm-node-9673091051-post_office","name":"مکتب برید خانقین","kind":"poi","tier":"poi_detail","priority":50.1,"context":"پۆستە","category":"پۆستە"},"geometry":{"type":"Point","coordinates":[45.382251,34.341934]}},{"type":"Feature","id":"osm-node-11656213574-mobile_phone_shop","properties":{"id":"osm-node-11656213574-mobile_phone_shop","name":"مکتب علی الرسام للالکترونیات","kind":"poi","tier":"poi_detail","priority":50.1,"context":"دوکانی مۆبایل","category":"دوکانی مۆبایل"},"geometry":{"type":"Point","coordinates":[45.381653,34.344025]}},{"type":"Feature","id":"osm-node-8309407218-library","properties":{"id":"osm-node-8309407218-library","name":"مکتبە اراز","kind":"poi","tier":"poi_detail","priority":50.1,"context":"کتێبخانە","category":"کتێبخانە"},"geometry":{"type":"Point","coordinates":[45.3849563,34.3452476]}},{"type":"Feature","id":"osm-node-11656213823-stationery","properties":{"id":"osm-node-11656213823-stationery","name":"مکتبە وقرطاسیە حیدر","kind":"poi","tier":"poi_detail","priority":50.1,"context":"نووسینگە و کاغەز فرۆشی","category":"نووسینگە و کاغەز فرۆشی"},"geometry":{"type":"Point","coordinates":[45.386215,34.344463]}},{"type":"Feature","id":"osm-node-7187849987-cafe","properties":{"id":"osm-node-7187849987-cafe","name":"نان خواردن","kind":"poi","tier":"poi_detail","priority":50.1,"context":"کافێ","category":"کافێ"},"geometry":{"type":"Point","coordinates":[45.3846975,34.3451232]}},{"type":"Feature","id":"osm-node-8961267817-bakery","properties":{"id":"osm-node-8961267817-bakery","name":"نانەواخانە","kind":"poi","tier":"poi_detail","priority":50.1,"context":"نانەواخانە","category":"نانەواخانە"},"geometry":{"type":"Point","coordinates":[45.3803306,34.356405]}},{"type":"Feature","id":"osm-node-9290304050-memorial","properties":{"id":"osm-node-9290304050-memorial","name":"نصب الجندی البولندی","kind":"poi","tier":"poi_detail","priority":50.1,"context":"یادەوەری","category":"یادەوەری"},"geometry":{"type":"Point","coordinates":[45.4209405,34.313396]}},{"type":"Feature","id":"osm-node-10701458506-doityourself","properties":{"id":"osm-node-10701458506-doityourself","name":"نهاد کروب","kind":"poi","tier":"poi_detail","priority":50.1,"context":"کەلوپەلی بیناسازی","category":"کەلوپەلی بیناسازی"},"geometry":{"type":"Point","coordinates":[45.3755517,34.3551959]}},{"type":"Feature","id":"osm-node-8892287119-convenience","properties":{"id":"osm-node-8892287119-convenience","name":"نوسینکەی ئه لوند غالب ستلایت","kind":"poi","tier":"poi_detail","priority":50.1,"context":"دوکانی نزیک","category":"دوکانی نزیک"},"geometry":{"type":"Point","coordinates":[45.382214,34.3450163]}},{"type":"Feature","id":"osm-node-7275172585-doctors","properties":{"id":"osm-node-7275172585-doctors","name":"نەخۆشخانەی هیوا","kind":"poi","tier":"poi_detail","priority":50.1,"context":"ناوەندی پزیشکی","category":"ناوەندی پزیشکی"},"geometry":{"type":"Point","coordinates":[45.3808456,34.3413755]}},{"type":"Feature","id":"osm-node-6769514985-fitness_centre","properties":{"id":"osm-node-6769514985-fitness_centre","name":"هولی جومان","kind":"poi","tier":"poi_detail","priority":50.1,"context":"جیم","category":"جیم"},"geometry":{"type":"Point","coordinates":[45.381614,34.3406344]}},{"type":"Feature","id":"osm-node-7188131985-doctors","properties":{"id":"osm-node-7188131985-doctors","name":"پزیشکی دەدان","kind":"poi","tier":"poi_detail","priority":50.1,"context":"ناوەندی پزیشکی","category":"ناوەندی پزیشکی"},"geometry":{"type":"Point","coordinates":[45.3846116,34.3439607]}},{"type":"Feature","id":"osm-node-5167299321-doityourself","properties":{"id":"osm-node-5167299321-doityourself","name":"پیشانگای گەیلان زەهاوی","kind":"poi","tier":"poi_detail","priority":50.1,"context":"کەلوپەلی بیناسازی","category":"کەلوپەلی بیناسازی"},"geometry":{"type":"Point","coordinates":[45.3804637,34.3447848]}},{"type":"Feature","id":"osm-node-6264026885-drinking_water","properties":{"id":"osm-node-6264026885-drinking_water","name":"ڕۆژگار","kind":"poi","tier":"poi_detail","priority":50.1,"context":"ئاوی خواردنەوە","category":"ئاوی خواردنەوە"},"geometry":{"type":"Point","coordinates":[45.3290889,34.4322494]}},{"type":"Feature","id":"osm-node-7055368686-fast_food","properties":{"id":"osm-node-7055368686-fast_food","name":"ڕێستورانتی تودای","kind":"poi","tier":"poi_detail","priority":50.1,"context":"خواردنی خێرا","category":"خواردنی خێرا"},"geometry":{"type":"Point","coordinates":[45.3845985,34.3445815]}},{"type":"Feature","id":"osm-node-7187840485-doityourself","properties":{"id":"osm-node-7187840485-doityourself","name":"کاک ئەمید","kind":"poi","tier":"poi_detail","priority":50.1,"context":"کەلوپەلی بیناسازی","category":"کەلوپەلی بیناسازی"},"geometry":{"type":"Point","coordinates":[45.3821663,34.3449216]}},{"type":"Feature","id":"osm-node-5856742293-library","properties":{"id":"osm-node-5856742293-library","name":"کتیبخانه ی خانه قین","kind":"poi","tier":"poi_detail","priority":50.1,"context":"کتێبخانە","category":"کتێبخانە"},"geometry":{"type":"Point","coordinates":[45.3922618,34.3491621]}},{"type":"Feature","id":"osm-node-8961276818-dentist","properties":{"id":"osm-node-8961276818-dentist","name":"کلینکی ئەڵوەند","kind":"poi","tier":"poi_detail","priority":50.1,"context":"کلینیکی ددان","category":"کلینیکی ددان"},"geometry":{"type":"Point","coordinates":[45.3758391,34.3567579]}},{"type":"Feature","id":"osm-node-9163146117-cafe","properties":{"id":"osm-node-9163146117-cafe","name":"گازینو لاس فیگاس","kind":"poi","tier":"poi_detail","priority":50.1,"context":"کافێ","category":"کافێ"},"geometry":{"type":"Point","coordinates":[45.3794808,34.3455481]}},{"type":"Feature","id":"osm-node-9878435621-muslim","properties":{"id":"osm-node-9878435621-muslim","name":"Al-Shahid Mosque","kind":"poi","tier":"poi_detail","priority":50.098,"context":"مزگەوت","category":"مزگەوت"},"geometry":{"type":"Point","coordinates":[45.4063368,34.3469697]}},{"type":"Feature","id":"osm-node-2488546029-muslim","properties":{"id":"osm-node-2488546029-muslim","name":"امام عباس","kind":"poi","tier":"poi_detail","priority":50.098,"context":"مزگەوت","category":"مزگەوت"},"geometry":{"type":"Point","coordinates":[45.3577933,34.3475827]}},{"type":"Feature","id":"osm-node-9964980880-service","properties":{"id":"osm-node-9964980880-service","name":"حی عمال","kind":"poi","tier":"poi_detail","priority":50.094,"context":"شوێنی خزمەتگوزاری ڕێگا","category":"شوێنی خزمەتگوزاری ڕێگا"},"geometry":{"type":"Point","coordinates":[45.3993468,34.3449765]}},{"type":"Feature","id":"osm-way-1007020935-graveyard","properties":{"id":"osm-way-1007020935-graveyard","name":"Polish War Cemetery","kind":"poi","tier":"poi_detail","priority":50.092,"context":"قەبرستان","category":"قەبرستان"},"geometry":{"type":"Point","coordinates":[45.4209895,34.3134159]}},{"type":"Feature","id":"osm-way-1489280026-park","properties":{"id":"osm-way-1489280026-park","name":"small garden","kind":"poi","tier":"poi_detail","priority":50.092,"context":"پارک","category":"پارک"},"geometry":{"type":"Point","coordinates":[45.4110668,34.3404319]}},{"type":"Feature","id":"osm-way-337697586-graveyard","properties":{"id":"osm-way-337697586-graveyard","name":"خدرزنه","kind":"poi","tier":"poi_detail","priority":50.092,"context":"قەبرستان","category":"قەبرستان"},"geometry":{"type":"Point","coordinates":[45.4099336,34.3202709]}},{"type":"Feature","id":"osm-way-1097727417-courthouse","properties":{"id":"osm-way-1097727417-courthouse","name":"دادگای خانەقین","kind":"poi","tier":"poi_detail","priority":50.092,"context":"دادگا","category":"دادگا"},"geometry":{"type":"Point","coordinates":[45.3965472,34.3504669]}},{"type":"Feature","id":"osm-way-1510501923-artwork","properties":{"id":"osm-way-1510501923-artwork","name":"زمی سەوز","kind":"poi","tier":"poi_detail","priority":50.092,"context":"هونەری گشتی","category":"هونەری گشتی"},"geometry":{"type":"Point","coordinates":[45.3953627,34.3833726]}},{"type":"Feature","id":"osm-way-337173681-graveyard","properties":{"id":"osm-way-337173681-graveyard","name":"مقبرە باشا کوبری","kind":"poi","tier":"poi_detail","priority":50.092,"context":"قەبرستان","category":"قەبرستان"},"geometry":{"type":"Point","coordinates":[45.3946728,34.3470871]}},{"type":"Feature","id":"osm-way-1331386151-park","properties":{"id":"osm-way-1331386151-park","name":"پارکی باخچەی خۆشی","kind":"poi","tier":"poi_detail","priority":50.092,"context":"پارک","category":"پارک"},"geometry":{"type":"Point","coordinates":[45.3935,34.3243954]}},{"type":"Feature","id":"osm-way-1295095731-theme_park","properties":{"id":"osm-way-1295095731-theme_park","name":"پارکی خانقین","kind":"poi","tier":"poi_detail","priority":50.092,"context":"پارکی یاری","category":"پارکی یاری"},"geometry":{"type":"Point","coordinates":[45.412049,34.3319925]}},{"type":"Feature","id":"osm-way-337189093-water_works","properties":{"id":"osm-way-337189093-water_works","name":"پرۆژەی ئاوی خانەقین","kind":"poi","tier":"poi_detail","priority":50.092,"context":"پاڵاوتنەوەی ئاو","category":"پاڵاوتنەوەی ئاو"},"geometry":{"type":"Point","coordinates":[45.3911731,34.3566119]}},{"type":"Feature","id":"osm-way-1469742281-cafe","properties":{"id":"osm-way-1469742281-cafe","name":"کازینو صغیر","kind":"poi","tier":"poi_detail","priority":50.092,"context":"کافێ","category":"کافێ"},"geometry":{"type":"Point","coordinates":[45.3932963,34.3366845]}},{"type":"Feature","id":"osm-way-569148706-muslim_sunni","properties":{"id":"osm-way-569148706-muslim_sunni","name":"جامع الکبیر","kind":"poi","tier":"poi_detail","priority":50.09,"context":"مزگەوت","category":"مزگەوت"},"geometry":{"type":"Point","coordinates":[45.3806809,34.3426749]}},{"type":"Feature","id":"osm-way-569149448-muslim_sunni","properties":{"id":"osm-way-569149448-muslim_sunni","name":"مزگەوتی مستەفا بەگ","kind":"poi","tier":"poi_detail","priority":50.09,"context":"مزگەوت","category":"مزگەوت"},"geometry":{"type":"Point","coordinates":[45.3813078,34.3446375]}},{"type":"Feature","id":"osm-way-569148707-muslim_sunni","properties":{"id":"osm-way-569148707-muslim_sunni","name":"مزگەوتی مەجید بەگ","kind":"poi","tier":"poi_detail","priority":50.09,"context":"مزگەوت","category":"مزگەوت"},"geometry":{"type":"Point","coordinates":[45.3798502,34.3469377]}},{"type":"Feature","id":"osm-way-535008669-muslim_shia","properties":{"id":"osm-way-535008669-muslim_shia","name":"مسجد جامع خسروی","kind":"poi","tier":"poi_detail","priority":50.09,"context":"مزگەوت","category":"مزگەوت"},"geometry":{"type":"Point","coordinates":[45.4709929,34.3898322]}},{"type":"Feature","id":"osm-way-569148705-muslim_sunni","properties":{"id":"osm-way-569148705-muslim_sunni","name":"مسجد شیخ فتاح","kind":"poi","tier":"poi_detail","priority":50.09,"context":"مزگەوت","category":"مزگەوت"},"geometry":{"type":"Point","coordinates":[45.3830427,34.3436704]}},{"type":"Feature","id":"osm-way-569149449-muslim_sunni","properties":{"id":"osm-way-569149449-muslim_sunni","name":"مسجد هدایە","kind":"poi","tier":"poi_detail","priority":50.09,"context":"مزگەوت","category":"مزگەوت"},"geometry":{"type":"Point","coordinates":[45.3885375,34.3461132]}},{"type":"Feature","id":"osm-way-337193042-dam","properties":{"id":"osm-way-337193042-dam","name":"سد الوند","kind":"poi","tier":"poi_detail","priority":50.086,"context":"بەنداوی ئاو","category":"بەنداوی ئاو"},"geometry":{"type":"Point","coordinates":[45.4390601,34.3129363]}},{"type":"Feature","id":"osm-way-337587007-service","properties":{"id":"osm-way-337587007-service","name":"مخفر حدود المنذریە","kind":"poi","tier":"poi_detail","priority":50.086,"context":"شوێنی خزمەتگوزاری ڕێگا","category":"شوێنی خزمەتگوزاری ڕێگا"},"geometry":{"type":"Point","coordinates":[45.465418,34.3815637]}},{"type":"Feature","id":"osm-way-1092589506-service","properties":{"id":"osm-way-1092589506-service","name":"پایانه مرزی خسروی","kind":"poi","tier":"poi_detail","priority":50.086,"context":"شوێنی خزمەتگوزاری ڕێگا","category":"شوێنی خزمەتگوزاری ڕێگا"},"geometry":{"type":"Point","coordinates":[45.4688034,34.3836849]}},{"type":"Feature","id":"osm-way-1535781281-landfill","properties":{"id":"osm-way-1535781281-landfill","name":"Khanaqin Landfill","kind":"poi","tier":"poi_detail","priority":50.045,"context":"شوێنی پاشماوە","category":"شوێنی پاشماوە"},"geometry":{"type":"Point","coordinates":[45.4097665,34.3097923]}},{"type":"Feature","id":"osm-way-338143556-landfill","properties":{"id":"osm-way-338143556-landfill","name":"Khanaqin Landfill","kind":"poi","tier":"poi_detail","priority":50.045,"context":"شوێنی پاشماوە","category":"شوێنی پاشماوە"},"geometry":{"type":"Point","coordinates":[45.4111764,34.3124251]}}]}