{"type":"FeatureCollection","features":[{"type":"Feature","id":"osm-node-2489392442","properties":{"id":"osm-node-2489392442","name":"ئیمام محەمەد","kind":"village","tier":"locality","priority":300,"context":"کەلار · سلێمانی","category":"گوند"},"geometry":{"type":"Point","coordinates":[45.3921743,35.0147633]}},{"type":"Feature","id":"osm-node-2489392353","properties":{"id":"osm-node-2489392353","name":"ئەستێڵی سەروو","kind":"village","tier":"locality","priority":300,"context":"سلێمانی · سلێمانی","category":"گوند"},"geometry":{"type":"Point","coordinates":[45.402477,35.247222]}},{"type":"Feature","id":"osm-node-6121741720","properties":{"id":"osm-node-6121741720","name":"بانی مۆرد","kind":"village","tier":"locality","priority":300,"context":"چەمچەماڵ · سلێمانی","category":"گوند"},"geometry":{"type":"Point","coordinates":[45.3840837,35.1814753]}},{"type":"Feature","id":"osm-node-7646163603","properties":{"id":"osm-node-7646163603","name":"براوەگەڵ","kind":"village","tier":"locality","priority":300,"context":"چەمچەماڵ · سلێمانی","category":"گوند"},"geometry":{"type":"Point","coordinates":[45.4169145,35.0947337]}},{"type":"Feature","id":"osm-node-2489369198","properties":{"id":"osm-node-2489369198","name":"بێستانە","kind":"village","tier":"locality","priority":300,"context":"کەلار · سلێمانی","category":"گوند"},"geometry":{"type":"Point","coordinates":[45.4581238,35.0276897]}},{"type":"Feature","id":"osm-node-2488606483","properties":{"id":"osm-node-2488606483","name":"بەردێ","kind":"village","tier":"locality","priority":300,"context":"سلێمانی · سلێمانی","category":"گوند"},"geometry":{"type":"Point","coordinates":[45.4737102,35.1967276]}},{"type":"Feature","id":"osm-node-2488606470","properties":{"id":"osm-node-2488606470","name":"بەلەکجاڕ","kind":"village","tier":"locality","priority":300,"context":"سلێمانی · سلێمانی","category":"گوند"},"geometry":{"type":"Point","coordinates":[45.467738,35.193482]}},{"type":"Feature","id":"osm-node-2489369194","properties":{"id":"osm-node-2489369194","name":"بەکر بایف","kind":"village","tier":"locality","priority":300,"context":"کەلار · سلێمانی","category":"گوند"},"geometry":{"type":"Point","coordinates":[45.4524851,35.0462286]}},{"type":"Feature","id":"osm-node-2489392503","properties":{"id":"osm-node-2489392503","name":"تاڵەوان","kind":"village","tier":"locality","priority":300,"context":"کەلار · سلێمانی","category":"گوند"},"geometry":{"type":"Point","coordinates":[45.3815582,35.0353452]}},{"type":"Feature","id":"osm-node-2489369213","properties":{"id":"osm-node-2489369213","name":"تمتەمە","kind":"village","tier":"locality","priority":300,"context":"چەمچەماڵ · سلێمانی","category":"گوند"},"geometry":{"type":"Point","coordinates":[45.4294164,35.086741]}},{"type":"Feature","id":"osm-node-2489392504","properties":{"id":"osm-node-2489392504","name":"تورکە","kind":"village","tier":"locality","priority":300,"context":"کەلار · سلێمانی","category":"گوند"},"geometry":{"type":"Point","coordinates":[45.3683232,35.0022117]}},{"type":"Feature","id":"osm-node-2489378462","properties":{"id":"osm-node-2489378462","name":"تورەجاڕ","kind":"village","tier":"locality","priority":300,"context":"چەمچەماڵ · سلێمانی","category":"گوند"},"geometry":{"type":"Point","coordinates":[45.3104226,35.0635389]}},{"type":"Feature","id":"osm-node-2489392490","properties":{"id":"osm-node-2489392490","name":"تیلەکۆی قەلەندەر","kind":"village","tier":"locality","priority":300,"context":"چەمچەماڵ · سلێمانی","category":"گوند"},"geometry":{"type":"Point","coordinates":[45.3810584,35.092173]}},{"type":"Feature","id":"osm-node-11196678916","properties":{"id":"osm-node-11196678916","name":"تەپەگاڕووس","kind":"village","tier":"locality","priority":300,"context":"چەمچەماڵ · سلێمانی","category":"گوند"},"geometry":{"type":"Point","coordinates":[45.4191241,35.140707]}},{"type":"Feature","id":"osm-node-2488606508","properties":{"id":"osm-node-2488606508","name":"تەکیە","kind":"village","tier":"locality","priority":300,"context":"سلێمانی · سلێمانی","category":"گوند"},"geometry":{"type":"Point","coordinates":[45.4476707,35.2040736]}},{"type":"Feature","id":"osm-node-11927690580","properties":{"id":"osm-node-11927690580","name":"حەمەی هەواس","kind":"village","tier":"locality","priority":300,"context":"چەمچەماڵ · سلێمانی","category":"گوند"},"geometry":{"type":"Point","coordinates":[45.4775287,35.1548018]}},{"type":"Feature","id":"osm-node-11240529895","properties":{"id":"osm-node-11240529895","name":"داربەڕوو","kind":"village","tier":"locality","priority":300,"context":"چەمچەماڵ · سلێمانی","category":"گوند"},"geometry":{"type":"Point","coordinates":[45.3612762,35.2083432]}},{"type":"Feature","id":"osm-node-2489369208","properties":{"id":"osm-node-2489369208","name":"دارەوەنکە","kind":"village","tier":"locality","priority":300,"context":"چەمچەماڵ · سلێمانی","category":"گوند"},"geometry":{"type":"Point","coordinates":[45.4639496,35.0800121]}},{"type":"Feature","id":"osm-node-2489378142","properties":{"id":"osm-node-2489378142","name":"درۆزنە","kind":"village","tier":"locality","priority":300,"context":"چەمچەماڵ · سلێمانی","category":"گوند"},"geometry":{"type":"Point","coordinates":[45.2796578,35.1259092]}},{"type":"Feature","id":"osm-node-2489378151","properties":{"id":"osm-node-2489378151","name":"دەرزیلە","kind":"village","tier":"locality","priority":300,"context":"چەمچەماڵ · سلێمانی","category":"گوند"},"geometry":{"type":"Point","coordinates":[45.2877125,35.1415104]}},{"type":"Feature","id":"osm-node-2489392407","properties":{"id":"osm-node-2489392407","name":"دەروارە خواروو","kind":"village","tier":"locality","priority":300,"context":"چەمچەماڵ · سلێمانی","category":"گوند"},"geometry":{"type":"Point","coordinates":[45.3650484,35.1295606]}},{"type":"Feature","id":"osm-node-11240497084","properties":{"id":"osm-node-11240497084","name":"دەروارەی سەروو","kind":"village","tier":"locality","priority":300,"context":"چەمچەماڵ · سلێمانی","category":"گوند"},"geometry":{"type":"Point","coordinates":[45.3967875,35.1571258]}},{"type":"Feature","id":"osm-node-2489378574","properties":{"id":"osm-node-2489378574","name":"زینانە","kind":"village","tier":"locality","priority":300,"context":"چەمچەماڵ · سلێمانی","category":"گوند"},"geometry":{"type":"Point","coordinates":[45.2787677,35.1892716]}},{"type":"Feature","id":"osm-node-11196652227","properties":{"id":"osm-node-11196652227","name":"زەردەلیکاو","kind":"village","tier":"locality","priority":300,"context":"چەمچەماڵ · سلێمانی","category":"گوند"},"geometry":{"type":"Point","coordinates":[45.4747155,35.1274283]}},{"type":"Feature","id":"osm-node-2489378411","properties":{"id":"osm-node-2489378411","name":"سێ گومەتان","kind":"village","tier":"locality","priority":300,"context":"چەمچەماڵ · سلێمانی","category":"گوند"},"geometry":{"type":"Point","coordinates":[45.3342035,35.1438531]}},{"type":"Feature","id":"osm-node-2489392499","properties":{"id":"osm-node-2489392499","name":"شیوەباز","kind":"village","tier":"locality","priority":300,"context":"چەمچەماڵ · سلێمانی","category":"گوند"},"geometry":{"type":"Point","coordinates":[45.3706477,35.2006546]}},{"type":"Feature","id":"osm-node-2489392492","properties":{"id":"osm-node-2489392492","name":"شەریف ئاوا","kind":"village","tier":"locality","priority":300,"context":"چەمچەماڵ · سلێمانی","category":"گوند"},"geometry":{"type":"Point","coordinates":[45.4003628,35.1722124]}},{"type":"Feature","id":"osm-node-11240502887","properties":{"id":"osm-node-11240502887","name":"شەلەیی","kind":"village","tier":"locality","priority":300,"context":"چەمچەماڵ · سلێمانی","category":"گوند"},"geometry":{"type":"Point","coordinates":[45.305795,35.1441615]}},{"type":"Feature","id":"geonames-417015","properties":{"id":"geonames-417015","name":"عومەر ئاغا","kind":"village","tier":"locality","priority":300,"context":"کەلار · سلێمانی","category":"گوند"},"geometry":{"type":"Point","coordinates":[45.33588,35.01832]}},{"type":"Feature","id":"osm-node-11240569337","properties":{"id":"osm-node-11240569337","name":"قەڵاگە","kind":"village","tier":"locality","priority":300,"context":"چەمچەماڵ · سلێمانی","category":"گوند"},"geometry":{"type":"Point","coordinates":[45.3698359,35.189663]}},{"type":"Feature","id":"osm-node-11196655319","properties":{"id":"osm-node-11196655319","name":"قەڵای تەپەگاڕووس","kind":"village","tier":"locality","priority":300,"context":"چەمچەماڵ · سلێمانی","category":"گوند"},"geometry":{"type":"Point","coordinates":[45.4312816,35.1388536]}},{"type":"Feature","id":"geonames-417031","properties":{"id":"geonames-417031","name":"ماسۆی بەرگەچ","kind":"village","tier":"locality","priority":300,"context":"چەمچەماڵ · سلێمانی","category":"گوند"},"geometry":{"type":"Point","coordinates":[45.26105,35.09643]}},{"type":"Feature","id":"osm-node-11202319392","properties":{"id":"osm-node-11202319392","name":"مەسۆیی بەرگەچ","kind":"village","tier":"locality","priority":300,"context":"چەمچەماڵ · سلێمانی","category":"گوند"},"geometry":{"type":"Point","coordinates":[45.2589551,35.0961961]}},{"type":"Feature","id":"osm-node-2489378471","properties":{"id":"osm-node-2489378471","name":"هۆمەرخەجانی والی","kind":"village","tier":"locality","priority":300,"context":"کەلار · سلێمانی","category":"گوند"},"geometry":{"type":"Point","coordinates":[45.3400137,35.0177385]}},{"type":"Feature","id":"osm-node-2489378479","properties":{"id":"osm-node-2489378479","name":"هۆمەرەخەجانی علی حسێن","kind":"village","tier":"locality","priority":300,"context":"کەلار · سلێمانی","category":"گوند"},"geometry":{"type":"Point","coordinates":[45.3354318,35.0456021]}},{"type":"Feature","id":"osm-node-2489378262","properties":{"id":"osm-node-2489378262","name":"هەزار کانی","kind":"village","tier":"locality","priority":300,"context":"چەمچەماڵ · سلێمانی","category":"گوند"},"geometry":{"type":"Point","coordinates":[45.3244037,35.1826096]}},{"type":"Feature","id":"osm-node-11240508620","properties":{"id":"osm-node-11240508620","name":"هەنجیرە","kind":"village","tier":"locality","priority":300,"context":"چەمچەماڵ · سلێمانی","category":"گوند"},"geometry":{"type":"Point","coordinates":[45.3211679,35.1544863]}},{"type":"Feature","id":"osm-node-2489378134","properties":{"id":"osm-node-2489378134","name":"چیاچەرمک","kind":"village","tier":"locality","priority":300,"context":"کەلار · سلێمانی","category":"گوند"},"geometry":{"type":"Point","coordinates":[45.3522501,35.0618489]}},{"type":"Feature","id":"osm-node-2489369203","properties":{"id":"osm-node-2489369203","name":"چەمی شۆراوە","kind":"village","tier":"locality","priority":300,"context":"کەلار · سلێمانی","category":"گوند"},"geometry":{"type":"Point","coordinates":[45.4316977,35.0030072]}},{"type":"Feature","id":"geonames-97429","properties":{"id":"geonames-97429","name":"چەمی شۆڕ","kind":"village","tier":"locality","priority":300,"context":"کەلار · سلێمانی","category":"گوند"},"geometry":{"type":"Point","coordinates":[45.43186,35.00354]}},{"type":"Feature","id":"osm-node-11240582203","properties":{"id":"osm-node-11240582203","name":"ڕەبات","kind":"village","tier":"locality","priority":300,"context":"چەمچەماڵ · سلێمانی","category":"گوند"},"geometry":{"type":"Point","coordinates":[45.3458369,35.2253014]}},{"type":"Feature","id":"osm-node-11240580682","properties":{"id":"osm-node-11240580682","name":"ژاڵەی کرپچنە","kind":"village","tier":"locality","priority":300,"context":"چەمچەماڵ · سلێمانی","category":"گوند"},"geometry":{"type":"Point","coordinates":[45.3125727,35.243089]}},{"type":"Feature","id":"osm-node-2489378266","properties":{"id":"osm-node-2489378266","name":"کارێزەی ڕەبات","kind":"village","tier":"locality","priority":300,"context":"چەمچەماڵ · سلێمانی","category":"گوند"},"geometry":{"type":"Point","coordinates":[45.312249,35.2208306]}},{"type":"Feature","id":"geonames-94967","properties":{"id":"geonames-94967","name":"کانی بەیتاش","kind":"village","tier":"locality","priority":300,"context":"چەمچەماڵ · سلێمانی","category":"گوند"},"geometry":{"type":"Point","coordinates":[45.31892,35.16103]}},{"type":"Feature","id":"osm-node-2489378281","properties":{"id":"osm-node-2489378281","name":"کانی پەیتەش","kind":"village","tier":"locality","priority":300,"context":"چەمچەماڵ · سلێمانی","category":"گوند"},"geometry":{"type":"Point","coordinates":[45.3190156,35.1611684]}},{"type":"Feature","id":"osm-node-2489378359","properties":{"id":"osm-node-2489378359","name":"کوردە میری حاجی حسێن","kind":"village","tier":"locality","priority":300,"context":"کەلار · سلێمانی","category":"گوند"},"geometry":{"type":"Point","coordinates":[45.2845468,35.0399509]}},{"type":"Feature","id":"osm-node-2489378232","properties":{"id":"osm-node-2489378232","name":"کوردەمیر حەمە سڵێمان","kind":"village","tier":"locality","priority":300,"context":"کەلار · سلێمانی","category":"گوند"},"geometry":{"type":"Point","coordinates":[45.2912936,35.0590823]}},{"type":"Feature","id":"osm-node-2489378351","properties":{"id":"osm-node-2489378351","name":"کوردەمیری حاجی حەمەئەمین","kind":"village","tier":"locality","priority":300,"context":"کەلار · سلێمانی","category":"گوند"},"geometry":{"type":"Point","coordinates":[45.2990364,35.0212538]}},{"type":"Feature","id":"osm-node-2489376512","properties":{"id":"osm-node-2489376512","name":"کوردەمیری قەڵوەزولوقمان","kind":"village","tier":"locality","priority":300,"context":"کەلار · سلێمانی","category":"گوند"},"geometry":{"type":"Point","coordinates":[45.2522669,35.0526633]}},{"type":"Feature","id":"osm-node-11197608844","properties":{"id":"osm-node-11197608844","name":"کوردەمیری مارف سەیدات","kind":"village","tier":"locality","priority":300,"context":"کەلار · سلێمانی","category":"گوند"},"geometry":{"type":"Point","coordinates":[45.3032134,35.0046586]}},{"type":"Feature","id":"osm-node-2488606494","properties":{"id":"osm-node-2488606494","name":"کۆشکی خواروو","kind":"village","tier":"locality","priority":300,"context":"سلێمانی · سلێمانی","category":"گوند"},"geometry":{"type":"Point","coordinates":[45.4486787,35.2296338]}},{"type":"Feature","id":"osm-node-2489381898","properties":{"id":"osm-node-2489381898","name":"کۆشکی سەروو","kind":"village","tier":"locality","priority":300,"context":"سلێمانی · سلێمانی","category":"گوند"},"geometry":{"type":"Point","coordinates":[45.4621546,35.2435506]}},{"type":"Feature","id":"osm-node-2489378297","properties":{"id":"osm-node-2489378297","name":"کێلەبەرزە","kind":"village","tier":"locality","priority":300,"context":"چەمچەماڵ · سلێمانی","category":"گوند"},"geometry":{"type":"Point","coordinates":[45.3538251,35.178369]}},{"type":"Feature","id":"osm-node-2489369217","properties":{"id":"osm-node-2489369217","name":"گوڵەکەوە","kind":"village","tier":"locality","priority":300,"context":"کەلار · سلێمانی","category":"گوند"},"geometry":{"type":"Point","coordinates":[45.4980354,35.0910344]}},{"type":"Feature","id":"osm-node-2489369215","properties":{"id":"osm-node-2489369215","name":"گۆڕی ئەسپ","kind":"village","tier":"locality","priority":300,"context":"کەلار · سلێمانی","category":"گوند"},"geometry":{"type":"Point","coordinates":[45.4119984,35.0542452]}},{"type":"Feature","id":"osm-node-11240560587","properties":{"id":"osm-node-11240560587","name":"گەڕەچیا","kind":"village","tier":"locality","priority":300,"context":"چەمچەماڵ · سلێمانی","category":"گوند"},"geometry":{"type":"Point","coordinates":[45.3575331,35.2175301]}},{"type":"Feature","id":"osm-node-11707723112","properties":{"id":"osm-node-11707723112","name":"تاقەماڵ","kind":"locality","tier":"locality","priority":200,"context":"کەلار · سلێمانی","category":"شوێنی ناوخۆیی"},"geometry":{"type":"Point","coordinates":[45.2964566,35.04543]}},{"type":"Feature","id":"osm-natural-stream-0ce4588ceceebc","properties":{"id":"osm-natural-stream-0ce4588ceceebc","name":"Cham-i Barawal","kind":"natural","tier":"natural","priority":180,"context":"جۆگە · جمجمال · سلێمانی","category":"جۆگە"},"geometry":{"type":"Point","coordinates":[45.3,35.06667]}},{"type":"Feature","id":"osm-natural-stream-acb4895941c794","properties":{"id":"osm-natural-stream-acb4895941c794","name":"Cham-i Darawela","kind":"natural","tier":"natural","priority":180,"context":"جۆگە · جمجمال · سلێمانی","category":"جۆگە"},"geometry":{"type":"Point","coordinates":[45.32917,35.08194]}},{"type":"Feature","id":"osm-natural-stream-102406539e744e","properties":{"id":"osm-natural-stream-102406539e744e","name":"Cham-i Gilarash","kind":"natural","tier":"natural","priority":180,"context":"جۆگە · كلار · سلێمانی","category":"جۆگە"},"geometry":{"type":"Point","coordinates":[45.32194,35.0175]}},{"type":"Feature","id":"osm-natural-reservoir-6dc41308d60b8a","properties":{"id":"osm-natural-reservoir-6dc41308d60b8a","name":"Drozna Dam","kind":"natural","tier":"natural","priority":180,"context":"بەنداوی ئاو · جمجمال · سلێمانی","category":"بەنداوی ئاو"},"geometry":{"type":"Point","coordinates":[45.274907,35.1268791]}},{"type":"Feature","id":"osm-natural-mountain-ec528075b4db95","properties":{"id":"osm-natural-mountain-ec528075b4db95","name":"Jabal Kahalwahzah Rahsh","kind":"natural","tier":"natural","priority":180,"context":"شاخ · كلار · سلێمانی","category":"شاخ"},"geometry":{"type":"Point","coordinates":[45.48251,35.07271]}},{"type":"Feature","id":"osm-natural-mountain-a32e4a88f87e47","properties":{"id":"osm-natural-mountain-a32e4a88f87e47","name":"Jabal Kahlawsh","kind":"natural","tier":"natural","priority":180,"context":"شاخ · السليمانية · سلێمانی","category":"شاخ"},"geometry":{"type":"Point","coordinates":[45.49473,35.23922]}},{"type":"Feature","id":"osm-natural-mountain-525238e7c51fbd","properties":{"id":"osm-natural-mountain-525238e7c51fbd","name":"Jabal Sagirmah","kind":"natural","tier":"natural","priority":180,"context":"شاخ · السليمانية · سلێمانی","category":"شاخ"},"geometry":{"type":"Point","coordinates":[45.38127,35.24509]}},{"type":"Feature","id":"osm-natural-mountain-aba433272860a9","properties":{"id":"osm-natural-mountain-aba433272860a9","name":"Jabal Zahrdah","kind":"natural","tier":"natural","priority":180,"context":"شاخ · جمجمال · سلێمانی","category":"شاخ"},"geometry":{"type":"Point","coordinates":[45.49005,35.13774]}},{"type":"Feature","id":"osm-natural-forest-1a6ca9cd6a66bb","properties":{"id":"osm-natural-forest-1a6ca9cd6a66bb","name":"Kalosh کەڵۆش","kind":"natural","tier":"natural","priority":180,"context":"دارستان · السليمانية · سلێمانی","category":"دارستان"},"geometry":{"type":"Point","coordinates":[45.4964225,35.2362688]}},{"type":"Feature","id":"osm-natural-peak-6640941a2c9db6","properties":{"id":"osm-natural-peak-6640941a2c9db6","name":"Qimmat Jalah Rahsh","kind":"natural","tier":"natural","priority":180,"context":"لوتکە · جمجمال · سلێمانی","category":"لوتکە"},"geometry":{"type":"Point","coordinates":[45.47576,35.14211]}},{"type":"Feature","id":"osm-natural-valley-984e79fed60753","properties":{"id":"osm-natural-valley-984e79fed60753","name":"Wadi Ashah Spi","kind":"natural","tier":"natural","priority":180,"context":"دۆڵ · جمجمال · سلێمانی","category":"دۆڵ"},"geometry":{"type":"Point","coordinates":[45.25456,35.23649]}},{"type":"Feature","id":"osm-natural-valley-dd3c64b1522028","properties":{"id":"osm-natural-valley-dd3c64b1522028","name":"Wadi Cham Darahwar","kind":"natural","tier":"natural","priority":180,"context":"دۆڵ · جمجمال · سلێمانی","category":"دۆڵ"},"geometry":{"type":"Point","coordinates":[45.36393,35.10079]}},{"type":"Feature","id":"osm-natural-valley-492e7a008b61a5","properties":{"id":"osm-natural-valley-492e7a008b61a5","name":"Wadi Sangaw","kind":"natural","tier":"natural","priority":180,"context":"دۆڵ · جمجمال · سلێمانی","category":"دۆڵ"},"geometry":{"type":"Point","coordinates":[45.28742,35.14035]}},{"type":"Feature","id":"osm-natural-hill-d4cd484cf984e0","properties":{"id":"osm-natural-hill-d4cd484cf984e0","name":"تل كوبه كلور","kind":"natural","tier":"natural","priority":180,"context":"گرد · كلار · سلێمانی","category":"گرد"},"geometry":{"type":"Point","coordinates":[45.28175,35.00463]}},{"type":"Feature","id":"osm-natural-mountain-283fba138eaa0c","properties":{"id":"osm-natural-mountain-283fba138eaa0c","name":"جبل اسبي","kind":"natural","tier":"natural","priority":180,"context":"شاخ · السليمانية · سلێمانی","category":"شاخ"},"geometry":{"type":"Point","coordinates":[45.44217,35.18642]}},{"type":"Feature","id":"osm-natural-mountain-0a381d01f37ea6","properties":{"id":"osm-natural-mountain-0a381d01f37ea6","name":"جبل حمدة سيد","kind":"natural","tier":"natural","priority":180,"context":"شاخ · كلار · سلێمانی","category":"شاخ"},"geometry":{"type":"Point","coordinates":[45.4954,35.03853]}},{"type":"Feature","id":"osm-natural-mountain-4c4b29c9cf2516","properties":{"id":"osm-natural-mountain-4c4b29c9cf2516","name":"جبل نيل","kind":"natural","tier":"natural","priority":180,"context":"شاخ · السليمانية · سلێمانی","category":"شاخ"},"geometry":{"type":"Point","coordinates":[45.41836,35.21195]}},{"type":"Feature","id":"osm-natural-stream-7057f09e1ee3a3","properties":{"id":"osm-natural-stream-7057f09e1ee3a3","name":"جمي تمتمة","kind":"natural","tier":"natural","priority":180,"context":"جۆگە · جمجمال · سلێمانی","category":"جۆگە"},"geometry":{"type":"Point","coordinates":[45.4338255,35.0898461]}},{"type":"Feature","id":"osm-natural-stream-f5fe36863ba496","properties":{"id":"osm-natural-stream-f5fe36863ba496","name":"جمي سور","kind":"natural","tier":"natural","priority":180,"context":"جۆگە · كلار · سلێمانی","category":"جۆگە"},"geometry":{"type":"Point","coordinates":[45.4256156,35.0070393]}},{"type":"Feature","id":"osm-natural-stream-84beda138c35cd","properties":{"id":"osm-natural-stream-84beda138c35cd","name":"جمي ههرينة","kind":"natural","tier":"natural","priority":180,"context":"جۆگە · كلار · سلێمانی","category":"جۆگە"},"geometry":{"type":"Point","coordinates":[45.4991651,35.0962849]}},{"type":"Feature","id":"osm-natural-reservoir-c4d9b00558574b","properties":{"id":"osm-natural-reservoir-c4d9b00558574b","name":"دەریاچەی تورەجاڕ","kind":"natural","tier":"natural","priority":180,"context":"بەنداوی ئاو · جمجمال · سلێمانی","category":"بەنداوی ئاو"},"geometry":{"type":"Point","coordinates":[45.3071795,35.0710156]}},{"type":"Feature","id":"osm-natural-valley-a3a297cc049ff0","properties":{"id":"osm-natural-valley-a3a297cc049ff0","name":"شيوي مامران","kind":"natural","tier":"natural","priority":180,"context":"دۆڵ · جمجمال · سلێمانی","category":"دۆڵ"},"geometry":{"type":"Point","coordinates":[45.4338,35.10822]}},{"type":"Feature","id":"osm-natural-peak-f327e2a0f55a0a","properties":{"id":"osm-natural-peak-f327e2a0f55a0a","name":"قمة بياوه ري","kind":"natural","tier":"natural","priority":180,"context":"لوتکە · جمجمال · سلێمانی","category":"لوتکە"},"geometry":{"type":"Point","coordinates":[45.44831,35.15679]}},{"type":"Feature","id":"osm-natural-peak-047299a1407f1d","properties":{"id":"osm-natural-peak-047299a1407f1d","name":"قمة جريب","kind":"natural","tier":"natural","priority":180,"context":"لوتکە · جمجمال · سلێمانی","category":"لوتکە"},"geometry":{"type":"Point","coordinates":[45.38614,35.21363]}},{"type":"Feature","id":"osm-natural-peak-0b7b16e352395d","properties":{"id":"osm-natural-peak-0b7b16e352395d","name":"قمة قوبي قرةداغ","kind":"natural","tier":"natural","priority":180,"context":"لوتکە · جمجمال · سلێمانی","category":"لوتکە"},"geometry":{"type":"Point","coordinates":[45.49243,35.15417]}},{"type":"Feature","id":"osm-natural-peak-1ea69e34a8d6e2","properties":{"id":"osm-natural-peak-1ea69e34a8d6e2","name":"قمة كلاي","kind":"natural","tier":"natural","priority":180,"context":"لوتکە · جمجمال · سلێمانی","category":"لوتکە"},"geometry":{"type":"Point","coordinates":[45.36569,35.23486]}},{"type":"Feature","id":"osm-natural-stream-820c80dfa12732","properties":{"id":"osm-natural-stream-820c80dfa12732","name":"نهر كاني كوة","kind":"natural","tier":"natural","priority":180,"context":"جۆگە · جمجمال · سلێمانی","category":"جۆگە"},"geometry":{"type":"Point","coordinates":[45.3037512,35.1397938]}},{"type":"Feature","id":"osm-natural-valley-1e72ef05bc6392","properties":{"id":"osm-natural-valley-1e72ef05bc6392","name":"وادي بروه ل","kind":"natural","tier":"natural","priority":180,"context":"دۆڵ · جمجمال · سلێمانی","category":"دۆڵ"},"geometry":{"type":"Point","coordinates":[45.40958,35.08767]}},{"type":"Feature","id":"osm-natural-valley-4bca8908850e24","properties":{"id":"osm-natural-valley-4bca8908850e24","name":"وادي بكر بايف","kind":"natural","tier":"natural","priority":180,"context":"دۆڵ · كلار · سلێمانی","category":"دۆڵ"},"geometry":{"type":"Point","coordinates":[45.44053,35.00123]}},{"type":"Feature","id":"osm-natural-valley-23ee47cd72b153","properties":{"id":"osm-natural-valley-23ee47cd72b153","name":"وادي بنور","kind":"natural","tier":"natural","priority":180,"context":"دۆڵ · جمجمال · سلێمانی","category":"دۆڵ"},"geometry":{"type":"Point","coordinates":[45.37197,35.07295]}},{"type":"Feature","id":"osm-natural-valley-853145a0954d73","properties":{"id":"osm-natural-valley-853145a0954d73","name":"وادي بو محمد","kind":"natural","tier":"natural","priority":180,"context":"دۆڵ · كلار · سلێمانی","category":"دۆڵ"},"geometry":{"type":"Point","coordinates":[45.25931,35.01487]}},{"type":"Feature","id":"osm-natural-valley-ec2a0831201b4a","properties":{"id":"osm-natural-valley-ec2a0831201b4a","name":"وادي بورشكه","kind":"natural","tier":"natural","priority":180,"context":"دۆڵ · كلار · سلێمانی","category":"دۆڵ"},"geometry":{"type":"Point","coordinates":[45.32089,35.01735]}},{"type":"Feature","id":"osm-natural-valley-f1b4bb3eb6a50e","properties":{"id":"osm-natural-valley-f1b4bb3eb6a50e","name":"وادي ترشاو","kind":"natural","tier":"natural","priority":180,"context":"دۆڵ · جمجمال · سلێمانی","category":"دۆڵ"},"geometry":{"type":"Point","coordinates":[45.28013,35.14209]}},{"type":"Feature","id":"osm-natural-valley-7435721a2bab36","properties":{"id":"osm-natural-valley-7435721a2bab36","name":"وادي تويلكة","kind":"natural","tier":"natural","priority":180,"context":"دۆڵ · جمجمال · سلێمانی","category":"دۆڵ"},"geometry":{"type":"Point","coordinates":[45.25694,35.12488]}},{"type":"Feature","id":"osm-natural-valley-585c109c78b6df","properties":{"id":"osm-natural-valley-585c109c78b6df","name":"وادي جم مامران","kind":"natural","tier":"natural","priority":180,"context":"دۆڵ · جمجمال · سلێمانی","category":"دۆڵ"},"geometry":{"type":"Point","coordinates":[45.304289,35.07697]}},{"type":"Feature","id":"osm-natural-valley-c9f2d42ffd621d","properties":{"id":"osm-natural-valley-c9f2d42ffd621d","name":"وادي داري","kind":"natural","tier":"natural","priority":180,"context":"دۆڵ · جمجمال · سلێمانی","category":"دۆڵ"},"geometry":{"type":"Point","coordinates":[45.4251,35.11817]}},{"type":"Feature","id":"osm-natural-valley-807a6159818532","properties":{"id":"osm-natural-valley-807a6159818532","name":"وادي شم كونة شير","kind":"natural","tier":"natural","priority":180,"context":"دۆڵ · جمجمال · سلێمانی","category":"دۆڵ"},"geometry":{"type":"Point","coordinates":[45.329779,35.090602]}},{"type":"Feature","id":"osm-natural-valley-d022a366615338","properties":{"id":"osm-natural-valley-d022a366615338","name":"وادي شور","kind":"natural","tier":"natural","priority":180,"context":"دۆڵ · جمجمال · سلێمانی","category":"دۆڵ"},"geometry":{"type":"Point","coordinates":[45.25756,35.12441]}},{"type":"Feature","id":"osm-natural-valley-e62fffbae6a44d","properties":{"id":"osm-natural-valley-e62fffbae6a44d","name":"وادي شيوي طويلكا","kind":"natural","tier":"natural","priority":180,"context":"دۆڵ · جمجمال · سلێمانی","category":"دۆڵ"},"geometry":{"type":"Point","coordinates":[45.29355,35.15077]}},{"type":"Feature","id":"osm-natural-valley-c902066d62fb86","properties":{"id":"osm-natural-valley-c902066d62fb86","name":"وادي كلارش","kind":"natural","tier":"natural","priority":180,"context":"دۆڵ · كلار · سلێمانی","category":"دۆڵ"},"geometry":{"type":"Point","coordinates":[45.31178,35.04827]}},{"type":"Feature","id":"osm-natural-valley-551e73e76ed735","properties":{"id":"osm-natural-valley-551e73e76ed735","name":"وادي كلوه داره","kind":"natural","tier":"natural","priority":180,"context":"دۆڵ · جمجمال · سلێمانی","category":"دۆڵ"},"geometry":{"type":"Point","coordinates":[45.30452,35.07084]}},{"type":"Feature","id":"osm-natural-valley-827b0c51aaa7d2","properties":{"id":"osm-natural-valley-827b0c51aaa7d2","name":"وادي واره قوله","kind":"natural","tier":"natural","priority":180,"context":"دۆڵ · جمجمال · سلێمانی","category":"دۆڵ"},"geometry":{"type":"Point","coordinates":[45.27312,35.08223]}},{"type":"Feature","id":"osm-natural-valley-3b59d2584b7fe4","properties":{"id":"osm-natural-valley-3b59d2584b7fe4","name":"وادي ياقوه كوسا","kind":"natural","tier":"natural","priority":180,"context":"دۆڵ · كلار · سلێمانی","category":"دۆڵ"},"geometry":{"type":"Point","coordinates":[45.42523,35.00601]}},{"type":"Feature","id":"osm-natural-valley-bd36219ff111ef","properties":{"id":"osm-natural-valley-bd36219ff111ef","name":"چەم باوەیس","kind":"natural","tier":"natural","priority":180,"context":"دۆڵ · جمجمال · سلێمانی","category":"دۆڵ"},"geometry":{"type":"Point","coordinates":[45.2594304,35.0859724]}},{"type":"Feature","id":"osm-natural-stream-913e462cbdd7b2","properties":{"id":"osm-natural-stream-913e462cbdd7b2","name":"چەمی تاقەماڵ","kind":"natural","tier":"natural","priority":180,"context":"جۆگە · جمجمال · سلێمانی","category":"جۆگە"},"geometry":{"type":"Point","coordinates":[45.286748,35.0645276]}},{"type":"Feature","id":"osm-natural-stream-83ed058b947941","properties":{"id":"osm-natural-stream-83ed058b947941","name":"چەمی تاقەماڵ","kind":"natural","tier":"natural","priority":180,"context":"جۆگە · كلار · سلێمانی","category":"جۆگە"},"geometry":{"type":"Point","coordinates":[45.2952156,35.0354821]}},{"type":"Feature","id":"osm-natural-stream-f537b50691f07f","properties":{"id":"osm-natural-stream-f537b50691f07f","name":"چەمی گڵەڕەش","kind":"natural","tier":"natural","priority":180,"context":"جۆگە · كلار · سلێمانی","category":"جۆگە"},"geometry":{"type":"Point","coordinates":[45.3214541,35.0213477]}},{"type":"Feature","id":"road-label-osm-way-179104500","properties":{"id":"road-label-osm-way-179104500","name":"Qaradagh - Darbandikhan Road","kind":"road","tier":"road","priority":88,"context":"primary · السليمانية · سلێمانی","category":"ڕێگا"},"geometry":{"type":"Point","coordinates":[45.476818,35.222036]}},{"type":"Feature","id":"osm-node-11580323270-hospital","properties":{"id":"osm-node-11580323270-hospital","name":"نەخۆشخانەی سێوسێنان","kind":"poi","tier":"poi_landmark","priority":95.1,"context":"نەخۆشخانە","category":"نەخۆشخانە"},"geometry":{"type":"Point","coordinates":[45.4976607,35.2171137]}},{"type":"Feature","id":"osm-node-3686514391-attraction","properties":{"id":"osm-node-3686514391-attraction","name":"باوە کوڕوو","kind":"poi","tier":"poi_detail","priority":50.1,"context":"شوێنی گەشتیاری","category":"شوێنی گەشتیاری"},"geometry":{"type":"Point","coordinates":[45.3883867,35.2177881]}},{"type":"Feature","id":"osm-node-6303247108-archaeological","properties":{"id":"osm-node-6303247108-archaeological","name":"بێستانسوور","kind":"poi","tier":"poi_detail","priority":50.1,"context":"شوێنی شوێنەوار","category":"شوێنی شوێنەوار"},"geometry":{"type":"Point","coordinates":[45.3841747,35.2233889]}},{"type":"Feature","id":"osm-node-10738240205-attraction","properties":{"id":"osm-node-10738240205-attraction","name":"قەراغ","kind":"poi","tier":"poi_detail","priority":50.1,"context":"شوێنی گەشتیاری","category":"شوێنی گەشتیاری"},"geometry":{"type":"Point","coordinates":[45.4695517,35.2287331]}},{"type":"Feature","id":"osm-node-8006278085-archaeological","properties":{"id":"osm-node-8006278085-archaeological","name":"پاشای لۆلۆ","kind":"poi","tier":"poi_detail","priority":50.1,"context":"شوێنی شوێنەوار","category":"شوێنی شوێنەوار"},"geometry":{"type":"Point","coordinates":[45.413774,35.2184701]}},{"type":"Feature","id":"osm-way-326456774-residential","properties":{"id":"osm-way-326456774-residential","name":"Şêx Tewîl","kind":"poi","tier":"poi_local","priority":68.045,"context":"کۆمپاوندی نیشتەجێبوون","category":"کۆمپاوندی نیشتەجێبوون"},"geometry":{"type":"Point","coordinates":[45.4625027,35.0199541]}},{"type":"Feature","id":"osm-way-383291658-residential","properties":{"id":"osm-way-383291658-residential","name":"بانی مۆرد","kind":"poi","tier":"poi_local","priority":68.045,"context":"کۆمپاوندی نیشتەجێبوون","category":"کۆمپاوندی نیشتەجێبوون"},"geometry":{"type":"Point","coordinates":[45.3838861,35.181913]}},{"type":"Feature","id":"osm-way-326456775-residential","properties":{"id":"osm-way-326456775-residential","name":"بێستانە","kind":"poi","tier":"poi_local","priority":68.045,"context":"کۆمپاوندی نیشتەجێبوون","category":"کۆمپاوندی نیشتەجێبوون"},"geometry":{"type":"Point","coordinates":[45.4584189,35.0270685]}},{"type":"Feature","id":"osm-way-772243339-residential","properties":{"id":"osm-way-772243339-residential","name":"بەردێ","kind":"poi","tier":"poi_local","priority":68.045,"context":"کۆمپاوندی نیشتەجێبوون","category":"کۆمپاوندی نیشتەجێبوون"},"geometry":{"type":"Point","coordinates":[45.4734524,35.1966987]}},{"type":"Feature","id":"osm-way-772243938-residential","properties":{"id":"osm-way-772243938-residential","name":"بەلەکجاڕ","kind":"poi","tier":"poi_local","priority":68.045,"context":"کۆمپاوندی نیشتەجێبوون","category":"کۆمپاوندی نیشتەجێبوون"},"geometry":{"type":"Point","coordinates":[45.468687,35.1934469]}},{"type":"Feature","id":"osm-way-1208868491-residential","properties":{"id":"osm-way-1208868491-residential","name":"بەکربایف","kind":"poi","tier":"poi_local","priority":68.045,"context":"کۆمپاوندی نیشتەجێبوون","category":"کۆمپاوندی نیشتەجێبوون"},"geometry":{"type":"Point","coordinates":[45.4524023,35.0471883]}},{"type":"Feature","id":"osm-way-1208474792-residential","properties":{"id":"osm-way-1208474792-residential","name":"تورەجاڕ","kind":"poi","tier":"poi_local","priority":68.045,"context":"کۆمپاوندی نیشتەجێبوون","category":"کۆمپاوندی نیشتەجێبوون"},"geometry":{"type":"Point","coordinates":[45.3110153,35.0633432]}},{"type":"Feature","id":"osm-way-379095187-residential","properties":{"id":"osm-way-379095187-residential","name":"تیلەکۆی قەلەندەر","kind":"poi","tier":"poi_local","priority":68.045,"context":"کۆمپاوندی نیشتەجێبوون","category":"کۆمپاوندی نیشتەجێبوون"},"geometry":{"type":"Point","coordinates":[45.3812504,35.0928726]}},{"type":"Feature","id":"osm-way-1213237103-residential","properties":{"id":"osm-way-1213237103-residential","name":"تیمار","kind":"poi","tier":"poi_local","priority":68.045,"context":"کۆمپاوندی نیشتەجێبوون","category":"کۆمپاوندی نیشتەجێبوون"},"geometry":{"type":"Point","coordinates":[45.2622783,35.2057384]}},{"type":"Feature","id":"osm-way-772237667-residential","properties":{"id":"osm-way-772237667-residential","name":"حەمەی هەواس","kind":"poi","tier":"poi_local","priority":68.045,"context":"کۆمپاوندی نیشتەجێبوون","category":"کۆمپاوندی نیشتەجێبوون"},"geometry":{"type":"Point","coordinates":[45.4775148,35.1548818]}},{"type":"Feature","id":"osm-way-383296354-residential","properties":{"id":"osm-way-383296354-residential","name":"داربەڕوو","kind":"poi","tier":"poi_local","priority":68.045,"context":"کۆمپاوندی نیشتەجێبوون","category":"کۆمپاوندی نیشتەجێبوون"},"geometry":{"type":"Point","coordinates":[45.360927,35.2084899]}},{"type":"Feature","id":"osm-way-378866379-residential","properties":{"id":"osm-way-378866379-residential","name":"درۆزنە","kind":"poi","tier":"poi_local","priority":68.045,"context":"کۆمپاوندی نیشتەجێبوون","category":"کۆمپاوندی نیشتەجێبوون"},"geometry":{"type":"Point","coordinates":[45.279231,35.1258471]}},{"type":"Feature","id":"osm-way-1208482751-residential","properties":{"id":"osm-way-1208482751-residential","name":"دڕکەی سەروو","kind":"poi","tier":"poi_local","priority":68.045,"context":"کۆمپاوندی نیشتەجێبوون","category":"کۆمپاوندی نیشتەجێبوون"},"geometry":{"type":"Point","coordinates":[45.4993587,35.0001846]}},{"type":"Feature","id":"osm-way-381647326-residential","properties":{"id":"osm-way-381647326-residential","name":"دەروارەی خواروو","kind":"poi","tier":"poi_local","priority":68.045,"context":"کۆمپاوندی نیشتەجێبوون","category":"کۆمپاوندی نیشتەجێبوون"},"geometry":{"type":"Point","coordinates":[45.3651296,35.1291873]}},{"type":"Feature","id":"osm-way-381647324-residential","properties":{"id":"osm-way-381647324-residential","name":"دەروارەی سەروو","kind":"poi","tier":"poi_local","priority":68.045,"context":"کۆمپاوندی نیشتەجێبوون","category":"کۆمپاوندی نیشتەجێبوون"},"geometry":{"type":"Point","coordinates":[45.3972997,35.1573264]}},{"type":"Feature","id":"osm-way-1213236768-residential","properties":{"id":"osm-way-1213236768-residential","name":"زینانە","kind":"poi","tier":"poi_local","priority":68.045,"context":"کۆمپاوندی نیشتەجێبوون","category":"کۆمپاوندی نیشتەجێبوون"},"geometry":{"type":"Point","coordinates":[45.2784621,35.1893387]}},{"type":"Feature","id":"osm-way-370413487-residential","properties":{"id":"osm-way-370413487-residential","name":"زەردەلیکاو","kind":"poi","tier":"poi_local","priority":68.045,"context":"کۆمپاوندی نیشتەجێبوون","category":"کۆمپاوندی نیشتەجێبوون"},"geometry":{"type":"Point","coordinates":[45.4752296,35.128196]}},{"type":"Feature","id":"osm-way-383263147-residential","properties":{"id":"osm-way-383263147-residential","name":"سێ گومەتان","kind":"poi","tier":"poi_local","priority":68.045,"context":"کۆمپاوندی نیشتەجێبوون","category":"کۆمپاوندی نیشتەجێبوون"},"geometry":{"type":"Point","coordinates":[45.3348328,35.143962]}},{"type":"Feature","id":"osm-way-364613888-residential","properties":{"id":"osm-way-364613888-residential","name":"سێوسێنان","kind":"poi","tier":"poi_local","priority":68.045,"context":"کۆمپاوندی نیشتەجێبوون","category":"کۆمپاوندی نیشتەجێبوون"},"geometry":{"type":"Point","coordinates":[45.4989349,35.2174821]}},{"type":"Feature","id":"osm-way-1213231440-residential","properties":{"id":"osm-way-1213231440-residential","name":"شەریف ئاوا","kind":"poi","tier":"poi_local","priority":68.045,"context":"کۆمپاوندی نیشتەجێبوون","category":"کۆمپاوندی نیشتەجێبوون"},"geometry":{"type":"Point","coordinates":[45.3999178,35.1721452]}},{"type":"Feature","id":"osm-way-383263105-residential","properties":{"id":"osm-way-383263105-residential","name":"شەلەیی","kind":"poi","tier":"poi_local","priority":68.045,"context":"کۆمپاوندی نیشتەجێبوون","category":"کۆمپاوندی نیشتەجێبوون"},"geometry":{"type":"Point","coordinates":[45.3058182,35.1443363]}},{"type":"Feature","id":"osm-way-1213233345-residential","properties":{"id":"osm-way-1213233345-residential","name":"قەڵاگە","kind":"poi","tier":"poi_local","priority":68.045,"context":"کۆمپاوندی نیشتەجێبوون","category":"کۆمپاوندی نیشتەجێبوون"},"geometry":{"type":"Point","coordinates":[45.3701455,35.1900155]}},{"type":"Feature","id":"osm-way-383267468-residential","properties":{"id":"osm-way-383267468-residential","name":"مامران","kind":"poi","tier":"poi_local","priority":68.045,"context":"کۆمپاوندی نیشتەجێبوون","category":"کۆمپاوندی نیشتەجێبوون"},"geometry":{"type":"Point","coordinates":[45.304068,35.1037208]}},{"type":"Feature","id":"osm-way-379077201-residential","properties":{"id":"osm-way-379077201-residential","name":"مەسۆیی بەرگەچ","kind":"poi","tier":"poi_local","priority":68.045,"context":"کۆمپاوندی نیشتەجێبوون","category":"کۆمپاوندی نیشتەجێبوون"},"geometry":{"type":"Point","coordinates":[45.2595809,35.0966744]}},{"type":"Feature","id":"osm-way-379097808-residential","properties":{"id":"osm-way-379097808-residential","name":"هۆمەرەخەجانی علی حسێن","kind":"poi","tier":"poi_local","priority":68.045,"context":"کۆمپاوندی نیشتەجێبوون","category":"کۆمپاوندی نیشتەجێبوون"},"geometry":{"type":"Point","coordinates":[45.335028,35.0451648]}},{"type":"Feature","id":"osm-way-1209484676-residential","properties":{"id":"osm-way-1209484676-residential","name":"هۆمەرەخەجانی والی","kind":"poi","tier":"poi_local","priority":68.045,"context":"کۆمپاوندی نیشتەجێبوون","category":"کۆمپاوندی نیشتەجێبوون"},"geometry":{"type":"Point","coordinates":[45.3399981,35.0177538]}},{"type":"Feature","id":"osm-way-1213234373-residential","properties":{"id":"osm-way-1213234373-residential","name":"هەزارکانی","kind":"poi","tier":"poi_local","priority":68.045,"context":"کۆمپاوندی نیشتەجێبوون","category":"کۆمپاوندی نیشتەجێبوون"},"geometry":{"type":"Point","coordinates":[45.3245458,35.1830083]}},{"type":"Feature","id":"osm-way-383469178-residential","properties":{"id":"osm-way-383469178-residential","name":"هەنجیرە","kind":"poi","tier":"poi_local","priority":68.045,"context":"کۆمپاوندی نیشتەجێبوون","category":"کۆمپاوندی نیشتەجێبوون"},"geometry":{"type":"Point","coordinates":[45.321228,35.1545902]}},{"type":"Feature","id":"osm-way-379097791-residential","properties":{"id":"osm-way-379097791-residential","name":"چیاچەرمک","kind":"poi","tier":"poi_local","priority":68.045,"context":"کۆمپاوندی نیشتەجێبوون","category":"کۆمپاوندی نیشتەجێبوون"},"geometry":{"type":"Point","coordinates":[45.3522039,35.0618642]}},{"type":"Feature","id":"osm-way-1208483979-residential","properties":{"id":"osm-way-1208483979-residential","name":"چەمی شۆراوە","kind":"poi","tier":"poi_local","priority":68.045,"context":"کۆمپاوندی نیشتەجێبوون","category":"کۆمپاوندی نیشتەجێبوون"},"geometry":{"type":"Point","coordinates":[45.4323574,35.0037315]}},{"type":"Feature","id":"osm-way-1213235668-residential","properties":{"id":"osm-way-1213235668-residential","name":"ڕەبات","kind":"poi","tier":"poi_local","priority":68.045,"context":"کۆمپاوندی نیشتەجێبوون","category":"کۆمپاوندی نیشتەجێبوون"},"geometry":{"type":"Point","coordinates":[45.3454906,35.2245523]}},{"type":"Feature","id":"osm-way-383296351-residential","properties":{"id":"osm-way-383296351-residential","name":"ژاڵەی کرپچنە","kind":"poi","tier":"poi_local","priority":68.045,"context":"کۆمپاوندی نیشتەجێبوون","category":"کۆمپاوندی نیشتەجێبوون"},"geometry":{"type":"Point","coordinates":[45.3131383,35.2436952]}},{"type":"Feature","id":"osm-way-383296352-residential","properties":{"id":"osm-way-383296352-residential","name":"کارێزەی ڕەبات","kind":"poi","tier":"poi_local","priority":68.045,"context":"کۆمپاوندی نیشتەجێبوون","category":"کۆمپاوندی نیشتەجێبوون"},"geometry":{"type":"Point","coordinates":[45.3121527,35.2207107]}},{"type":"Feature","id":"osm-way-381647337-residential","properties":{"id":"osm-way-381647337-residential","name":"کانی پەیتەش","kind":"poi","tier":"poi_local","priority":68.045,"context":"کۆمپاوندی نیشتەجێبوون","category":"کۆمپاوندی نیشتەجێبوون"},"geometry":{"type":"Point","coordinates":[45.3194387,35.1610584]}},{"type":"Feature","id":"osm-way-1208475737-residential","properties":{"id":"osm-way-1208475737-residential","name":"کوردەمیری حاجی حەمەئەمین","kind":"poi","tier":"poi_local","priority":68.045,"context":"کۆمپاوندی نیشتەجێبوون","category":"کۆمپاوندی نیشتەجێبوون"},"geometry":{"type":"Point","coordinates":[45.2991427,35.0214726]}},{"type":"Feature","id":"osm-way-379098902-residential","properties":{"id":"osm-way-379098902-residential","name":"کوردەمیری حەمەسڵێمان","kind":"poi","tier":"poi_local","priority":68.045,"context":"کۆمپاوندی نیشتەجێبوون","category":"کۆمپاوندی نیشتەجێبوون"},"geometry":{"type":"Point","coordinates":[45.291147,35.0590666]}},{"type":"Feature","id":"osm-way-383446041-residential","properties":{"id":"osm-way-383446041-residential","name":"کوردەمیری فەقێ حسێن","kind":"poi","tier":"poi_local","priority":68.045,"context":"کۆمپاوندی نیشتەجێبوون","category":"کۆمپاوندی نیشتەجێبوون"},"geometry":{"type":"Point","coordinates":[45.284838,35.0399764]}},{"type":"Feature","id":"osm-way-1208476889-residential","properties":{"id":"osm-way-1208476889-residential","name":"کوردەمیری قەڵوەزولوقمان","kind":"poi","tier":"poi_local","priority":68.045,"context":"کۆمپاوندی نیشتەجێبوون","category":"کۆمپاوندی نیشتەجێبوون"},"geometry":{"type":"Point","coordinates":[45.2525561,35.0526972]}},{"type":"Feature","id":"osm-way-380476667-residential","properties":{"id":"osm-way-380476667-residential","name":"کوردەمیری مارف سەیدات","kind":"poi","tier":"poi_local","priority":68.045,"context":"کۆمپاوندی نیشتەجێبوون","category":"کۆمپاوندی نیشتەجێبوون"},"geometry":{"type":"Point","coordinates":[45.303344,35.0048524]}},{"type":"Feature","id":"osm-way-381647328-residential","properties":{"id":"osm-way-381647328-residential","name":"کێلەبەرزە","kind":"poi","tier":"poi_local","priority":68.045,"context":"کۆمپاوندی نیشتەجێبوون","category":"کۆمپاوندی نیشتەجێبوون"},"geometry":{"type":"Point","coordinates":[45.3538784,35.1784599]}},{"type":"Feature","id":"osm-way-1208377530-residential","properties":{"id":"osm-way-1208377530-residential","name":"گوڵەکەوە","kind":"poi","tier":"poi_local","priority":68.045,"context":"کۆمپاوندی نیشتەجێبوون","category":"کۆمپاوندی نیشتەجێبوون"},"geometry":{"type":"Point","coordinates":[45.4980531,35.0909427]}},{"type":"Feature","id":"osm-way-1213235287-residential","properties":{"id":"osm-way-1213235287-residential","name":"گەڕەچیا","kind":"poi","tier":"poi_local","priority":68.045,"context":"کۆمپاوندی نیشتەجێبوون","category":"کۆمپاوندی نیشتەجێبوون"},"geometry":{"type":"Point","coordinates":[45.3575459,35.2177705]}},{"type":"Feature","id":"osm-way-924958813-industrial","properties":{"id":"osm-way-924958813-industrial","name":"Well pad","kind":"poi","tier":"poi_local","priority":66.045,"context":"ناوچەی پیشەسازی","category":"ناوچەی پیشەسازی"},"geometry":{"type":"Point","coordinates":[45.2928992,35.0432213]}},{"type":"Feature","id":"osm-node-5115259222-supermarket","properties":{"id":"osm-node-5115259222-supermarket","name":"mrishk","kind":"poi","tier":"poi_detail","priority":50.1,"context":"سۆپەرمارکێت","category":"سۆپەرمارکێت"},"geometry":{"type":"Point","coordinates":[45.4943971,35.2176966]}},{"type":"Feature","id":"osm-node-11580312670-school","properties":{"id":"osm-node-11580312670-school","name":"ئامادەیی سێوسێنان","kind":"poi","tier":"poi_detail","priority":50.1,"context":"قوتابخانە","category":"قوتابخانە"},"geometry":{"type":"Point","coordinates":[45.4991259,35.2158601]}},{"type":"Feature","id":"osm-node-11580330769-school","properties":{"id":"osm-node-11580330769-school","name":"باخچەی ساوایانی سێوسێنان","kind":"poi","tier":"poi_detail","priority":50.1,"context":"قوتابخانە","category":"قوتابخانە"},"geometry":{"type":"Point","coordinates":[45.4980575,35.2169491]}},{"type":"Feature","id":"osm-way-1272271676-school","properties":{"id":"osm-way-1272271676-school","name":"قوتابخانەی زەردەلیکاو","kind":"poi","tier":"poi_detail","priority":50.092,"context":"قوتابخانە","category":"قوتابخانە"},"geometry":{"type":"Point","coordinates":[45.4726024,35.1263604]}},{"type":"Feature","id":"osm-node-2485265902-windmill","properties":{"id":"osm-node-2485265902-windmill","name":"طاحونە علی الشیخ کریم","kind":"poi","tier":"poi_detail","priority":50.1,"context":"ئاشی با","category":"ئاشی با"},"geometry":{"type":"Point","coordinates":[45.2762935,35.1374666]}},{"type":"Feature","id":"osm-node-2489376545-graveyard","properties":{"id":"osm-node-2489376545-graveyard","name":"مقبرە فیلکە","kind":"poi","tier":"poi_detail","priority":50.1,"context":"قەبرستان","category":"قەبرستان"},"geometry":{"type":"Point","coordinates":[45.251985,35.116039]}},{"type":"Feature","id":"osm-node-11580312769-monument","properties":{"id":"osm-node-11580312769-monument","name":"مۆنۆمێنتی سێوسێنان","kind":"poi","tier":"poi_detail","priority":50.1,"context":"پەیکەر","category":"پەیکەر"},"geometry":{"type":"Point","coordinates":[45.4952989,35.2168916]}},{"type":"Feature","id":"osm-way-1190018067-graveyard","properties":{"id":"osm-way-1190018067-graveyard","name":"گۆڕستان","kind":"poi","tier":"poi_detail","priority":50.092,"context":"قەبرستان","category":"قەبرستان"},"geometry":{"type":"Point","coordinates":[45.2523802,35.2445337]}},{"type":"Feature","id":"osm-way-1287200200-pitch","properties":{"id":"osm-way-1287200200-pitch","name":"یاریگای شێخ تەویل","kind":"poi","tier":"poi_detail","priority":50.092,"context":"ناوەندی وەرزش","category":"ناوەندی وەرزش"},"geometry":{"type":"Point","coordinates":[45.4674557,35.0245014]}}]}