{"type":"FeatureCollection","features":[{"type":"Feature","id":"osm-node-2488516722","properties":{"id":"osm-node-2488516722","name":"رودخانە و کانی شیخ","kind":"locality","tier":"locality","priority":200,"context":"مەندەلی · بەلەدڕوز · دیالە","category":"شوێنی ناوخۆیی"},"geometry":{"type":"Point","coordinates":[45.648658,33.731494]}},{"type":"Feature","id":"osm-natural-river-15fd169a258bbf","properties":{"id":"osm-natural-river-15fd169a258bbf","name":"نهر سد مندلي","kind":"natural","tier":"natural","priority":180,"context":"ڕووبار · مەندەلی · دیالە","category":"ڕووبار"},"geometry":{"type":"Point","coordinates":[45.6022314,33.7323252]}},{"type":"Feature","id":"road-label-osm-way-25165440","properties":{"id":"road-label-osm-way-25165440","name":"82","kind":"road","tier":"road","priority":95,"context":"trunk · مەندەلی · دیالە","category":"ڕێگا"},"geometry":{"type":"Point","coordinates":[45.544256,33.745297]}},{"type":"Feature","id":"road-label-osm-way-385634554","properties":{"id":"road-label-osm-way-385634554","name":"13","kind":"road","tier":"road","priority":72,"context":"secondary · مەندەلی · دیالە","category":"ڕێگا"},"geometry":{"type":"Point","coordinates":[45.565298,33.703675]}},{"type":"Feature","id":"osm-node-2488516714-police","properties":{"id":"osm-node-2488516714-police","name":"مخفر حدود العبسی","kind":"poi","tier":"poi_regional","priority":77.1,"context":"بنکەی پۆلیس","category":"بنکەی پۆلیس"},"geometry":{"type":"Point","coordinates":[45.6372647,33.7230123]}},{"type":"Feature","id":"osm-node-6918588285-school","properties":{"id":"osm-node-6918588285-school","name":"مدرسە الزهیریە الابتدائیە","kind":"poi","tier":"poi_detail","priority":50.1,"context":"قوتابخانە","category":"قوتابخانە"},"geometry":{"type":"Point","coordinates":[45.5855002,33.7209661]}},{"type":"Feature","id":"osm-node-8264034718-caravan_site","properties":{"id":"osm-node-8264034718-caravan_site","name":"الهواسیە","kind":"poi","tier":"poi_detail","priority":50.1,"context":"شوێنی کاراڤان","category":"شوێنی کاراڤان"},"geometry":{"type":"Point","coordinates":[45.6106193,33.7189252]}},{"type":"Feature","id":"osm-node-2488521722-memorial","properties":{"id":"osm-node-2488521722-memorial","name":"امام زادە عباس","kind":"poi","tier":"poi_detail","priority":50.1,"context":"یادەوەری","category":"یادەوەری"},"geometry":{"type":"Point","coordinates":[45.504972,33.696455]}},{"type":"Feature","id":"osm-node-8264034717-car_wash","properties":{"id":"osm-node-8264034717-car_wash","name":"قلم حاج","kind":"poi","tier":"poi_detail","priority":50.1,"context":"شۆردنەوەی ئۆتۆمبیل","category":"شۆردنەوەی ئۆتۆمبیل"},"geometry":{"type":"Point","coordinates":[45.5546438,33.7430998]}},{"type":"Feature","id":"osm-node-12142067727-memorial","properties":{"id":"osm-node-12142067727-memorial","name":"پەیکەری بووکی مەندەلی","kind":"poi","tier":"poi_detail","priority":50.1,"context":"یادەوەری","category":"یادەوەری"},"geometry":{"type":"Point","coordinates":[45.5221175,33.7422782]}},{"type":"Feature","id":"osm-node-8264034719-caravan_site","properties":{"id":"osm-node-8264034719-caravan_site","name":"کبرات","kind":"poi","tier":"poi_detail","priority":50.1,"context":"شوێنی کاراڤان","category":"شوێنی کاراڤان"},"geometry":{"type":"Point","coordinates":[45.5708756,33.7401318]}},{"type":"Feature","id":"osm-node-4510279789-muslim_shia","properties":{"id":"osm-node-4510279789-muslim_shia","name":"مرقد الامام العباس ابن علی الهادی علیهما السلام","kind":"poi","tier":"poi_detail","priority":50.098,"context":"مزگەوت","category":"مزگەوت"},"geometry":{"type":"Point","coordinates":[45.50423,33.701264]}},{"type":"Feature","id":"osm-way-385553297-graveyard","properties":{"id":"osm-way-385553297-graveyard","name":"سەید ڕەحمان","kind":"poi","tier":"poi_detail","priority":50.092,"context":"قەبرستان","category":"قەبرستان"},"geometry":{"type":"Point","coordinates":[45.5457759,33.7457234]}}]}