{"type":"FeatureCollection","features":[{"type":"Feature","id":"osm-natural-hill-e5b2a25dfcbcea","properties":{"id":"osm-natural-hill-e5b2a25dfcbcea","name":"تل قرياجي","kind":"natural","tier":"natural","priority":180,"context":"گرد · خانەقین · دیالە","category":"گرد"},"geometry":{"type":"Point","coordinates":[45.55011,34.22716]}},{"type":"Feature","id":"osm-natural-mountain-8c2c27eb34052e","properties":{"id":"osm-natural-mountain-8c2c27eb34052e","name":"زين القوس","kind":"natural","tier":"natural","priority":180,"context":"شاخ · خانەقین · دیالە","category":"شاخ"},"geometry":{"type":"Point","coordinates":[45.51552,34.22572]}},{"type":"Feature","id":"osm-node-2489331885-police","properties":{"id":"osm-node-2489331885-police","name":"مخفر حدود اسکیبان","kind":"poi","tier":"poi_regional","priority":77.1,"context":"بنکەی پۆلیس","category":"بنکەی پۆلیس"},"geometry":{"type":"Point","coordinates":[45.543622,34.178906]}},{"type":"Feature","id":"osm-node-2489331887-police","properties":{"id":"osm-node-2489331887-police","name":"مخفر حدود سربند","kind":"poi","tier":"poi_regional","priority":77.1,"context":"بنکەی پۆلیس","category":"بنکەی پۆلیس"},"geometry":{"type":"Point","coordinates":[45.536139,34.2069993]}},{"type":"Feature","id":"osm-node-2489332118-police","properties":{"id":"osm-node-2489332118-police","name":"مخفر حدود طه الجدید","kind":"poi","tier":"poi_regional","priority":77.1,"context":"بنکەی پۆلیس","category":"بنکەی پۆلیس"},"geometry":{"type":"Point","coordinates":[45.557719,34.230805]}},{"type":"Feature","id":"osm-node-2489332119-police","properties":{"id":"osm-node-2489332119-police","name":"مخفر حدود طه القدیم","kind":"poi","tier":"poi_regional","priority":77.1,"context":"بنکەی پۆلیس","category":"بنکەی پۆلیس"},"geometry":{"type":"Point","coordinates":[45.551136,34.231961]}},{"type":"Feature","id":"osm-node-2489331884-police","properties":{"id":"osm-node-2489331884-police","name":"مخفر حدود عقبە بن نافع","kind":"poi","tier":"poi_regional","priority":77.1,"context":"بنکەی پۆلیس","category":"بنکەی پۆلیس"},"geometry":{"type":"Point","coordinates":[45.522078,34.179431]}},{"type":"Feature","id":"osm-node-11228707395-police","properties":{"id":"osm-node-11228707395-police","name":"مخفر عقبە بن نافع","kind":"poi","tier":"poi_regional","priority":77.1,"context":"بنکەی پۆلیس","category":"بنکەی پۆلیس"},"geometry":{"type":"Point","coordinates":[45.5357417,34.1582437]}}]}