{"type":"FeatureCollection","features":[{"type":"Feature","id":"osm-node-7126088569","properties":{"id":"osm-node-7126088569","name":"دەرەتەت","kind":"village","tier":"locality","priority":324.95,"context":"سلێمانی · سلێمانی","category":"گوند"},"geometry":{"type":"Point","coordinates":[45.6991423,35.4362246]}},{"type":"Feature","id":"osm-node-2489390546","properties":{"id":"osm-node-2489390546","name":"ئاوایی شێخ حسێن","kind":"village","tier":"locality","priority":300,"context":"سلێمانی · سلێمانی","category":"گوند"},"geometry":{"type":"Point","coordinates":[45.7062364,35.3388507]}},{"type":"Feature","id":"osm-node-2489381684","properties":{"id":"osm-node-2489381684","name":"ئاوەکەڵە","kind":"village","tier":"locality","priority":300,"context":"سلێمانی · سلێمانی","category":"گوند"},"geometry":{"type":"Point","coordinates":[45.5594511,35.280554]}},{"type":"Feature","id":"osm-node-2489389139","properties":{"id":"osm-node-2489389139","name":"ئەحمەداوە","kind":"village","tier":"locality","priority":300,"context":"سلێمانی · سلێمانی","category":"گوند"},"geometry":{"type":"Point","coordinates":[45.6232826,35.2736967]}},{"type":"Feature","id":"osm-node-2489381737","properties":{"id":"osm-node-2489381737","name":"باخچە","kind":"village","tier":"locality","priority":300,"context":"سلێمانی · سلێمانی","category":"گوند"},"geometry":{"type":"Point","coordinates":[45.5180662,35.343532]}},{"type":"Feature","id":"osm-node-2488153005","properties":{"id":"osm-node-2488153005","name":"بادەرە","kind":"village","tier":"locality","priority":300,"context":"سلێمانی · سلێمانی","category":"گوند"},"geometry":{"type":"Point","coordinates":[45.6835515,35.403979]}},{"type":"Feature","id":"osm-node-2488285718","properties":{"id":"osm-node-2488285718","name":"باریکە","kind":"village","tier":"locality","priority":300,"context":"سلێمانی · سلێمانی","category":"گوند"},"geometry":{"type":"Point","coordinates":[45.5959903,35.3941959]}},{"type":"Feature","id":"osm-node-8823603221","properties":{"id":"osm-node-8823603221","name":"بایزاوە","kind":"village","tier":"locality","priority":300,"context":"دەربەندیخان · سلێمانی","category":"گوند"},"geometry":{"type":"Point","coordinates":[45.677996,35.304158]}},{"type":"Feature","id":"geonames-97648","properties":{"id":"geonames-97648","name":"بنگرد","kind":"village","tier":"locality","priority":300,"context":"هەڵەبجە · سلێمانی","category":"گوند"},"geometry":{"type":"Point","coordinates":[45.71505,35.37713]}},{"type":"Feature","id":"osm-node-7480312234","properties":{"id":"osm-node-7480312234","name":"بنگردی موان","kind":"village","tier":"locality","priority":300,"context":"هەڵەبجە · سلێمانی","category":"گوند"},"geometry":{"type":"Point","coordinates":[45.7149073,35.3758118]}},{"type":"Feature","id":"osm-node-2488150757","properties":{"id":"osm-node-2488150757","name":"بنەجووت","kind":"village","tier":"locality","priority":300,"context":"هەڵەبجە · سلێمانی","category":"گوند"},"geometry":{"type":"Point","coordinates":[45.7363784,35.4036777]}},{"type":"Feature","id":"osm-node-2488285721","properties":{"id":"osm-node-2488285721","name":"بێستان سووری بچوک","kind":"village","tier":"locality","priority":300,"context":"سلێمانی · سلێمانی","category":"گوند"},"geometry":{"type":"Point","coordinates":[45.6449644,35.3836925]}},{"type":"Feature","id":"osm-node-2488285722","properties":{"id":"osm-node-2488285722","name":"بێستان سووری گەورە","kind":"village","tier":"locality","priority":300,"context":"سلێمانی · سلێمانی","category":"گوند"},"geometry":{"type":"Point","coordinates":[45.6379118,35.3786724]}},{"type":"Feature","id":"geonames-95970","properties":{"id":"geonames-95970","name":"حەسەن قادر","kind":"village","tier":"locality","priority":300,"context":"هەڵەبجە · سلێمانی","category":"گوند"},"geometry":{"type":"Point","coordinates":[45.72142,35.34439]}},{"type":"Feature","id":"osm-node-2488290730","properties":{"id":"osm-node-2488290730","name":"حەمەی بارام","kind":"village","tier":"locality","priority":300,"context":"سلێمانی · سلێمانی","category":"گوند"},"geometry":{"type":"Point","coordinates":[45.5023962,35.4131933]}},{"type":"Feature","id":"osm-node-2489389984","properties":{"id":"osm-node-2489389984","name":"خاک و خۆڵ","kind":"village","tier":"locality","priority":300,"context":"سلێمانی · سلێمانی","category":"گوند"},"geometry":{"type":"Point","coordinates":[45.6423388,35.3566528]}},{"type":"Feature","id":"osm-node-2488285879","properties":{"id":"osm-node-2488285879","name":"خەرابە","kind":"village","tier":"locality","priority":300,"context":"سلێمانی · سلێمانی","category":"گوند"},"geometry":{"type":"Point","coordinates":[45.647219,35.4235432]}},{"type":"Feature","id":"osm-node-2488285890","properties":{"id":"osm-node-2488285890","name":"خەراجیان","kind":"village","tier":"locality","priority":300,"context":"سلێمانی · سلێمانی","category":"گوند"},"geometry":{"type":"Point","coordinates":[45.5667872,35.4656614]}},{"type":"Feature","id":"osm-node-2489389998","properties":{"id":"osm-node-2489389998","name":"خەرجانە","kind":"village","tier":"locality","priority":300,"context":"سلێمانی · سلێمانی","category":"گوند"},"geometry":{"type":"Point","coordinates":[45.5983591,35.302482]}},{"type":"Feature","id":"osm-node-2488290681","properties":{"id":"osm-node-2488290681","name":"داربەڕوولە","kind":"village","tier":"locality","priority":300,"context":"سلێمانی · سلێمانی","category":"گوند"},"geometry":{"type":"Point","coordinates":[45.5170315,35.4876547]}},{"type":"Feature","id":"osm-node-2489389604","properties":{"id":"osm-node-2489389604","name":"داری قەلان","kind":"village","tier":"locality","priority":300,"context":"دەربەندیخان · سلێمانی","category":"گوند"},"geometry":{"type":"Point","coordinates":[45.7075098,35.3004615]}},{"type":"Feature","id":"osm-node-2489389610","properties":{"id":"osm-node-2489389610","name":"دسکەرە","kind":"village","tier":"locality","priority":300,"context":"سلێمانی · سلێمانی","category":"گوند"},"geometry":{"type":"Point","coordinates":[45.6355974,35.3121921]}},{"type":"Feature","id":"geonames-96900","properties":{"id":"geonames-96900","name":"دوکان","kind":"village","tier":"locality","priority":300,"context":"سلێمانی · سلێمانی","category":"گوند"},"geometry":{"type":"Point","coordinates":[45.53587,35.2563]}},{"type":"Feature","id":"osm-node-2489381802","properties":{"id":"osm-node-2489381802","name":"دوکان","kind":"village","tier":"locality","priority":300,"context":"سلێمانی · سلێمانی","category":"گوند"},"geometry":{"type":"Point","coordinates":[45.5482628,35.251556]}},{"type":"Feature","id":"osm-node-2486376550","properties":{"id":"osm-node-2486376550","name":"دوکەرۆ","kind":"village","tier":"locality","priority":300,"context":"سلێمانی · سلێمانی","category":"گوند"},"geometry":{"type":"Point","coordinates":[45.5360075,35.2561801]}},{"type":"Feature","id":"osm-way-1198231246","properties":{"id":"osm-way-1198231246","name":"دێ","kind":"village","tier":"locality","priority":300,"context":"سلێمانی · سلێمانی","category":"گوند"},"geometry":{"type":"Point","coordinates":[45.675065167589814,35.42028165]}},{"type":"Feature","id":"osm-node-2488290543","properties":{"id":"osm-node-2488290543","name":"دێ ڕەمەزان","kind":"village","tier":"locality","priority":300,"context":"سلێمانی · سلێمانی","category":"گوند"},"geometry":{"type":"Point","coordinates":[45.5093296,35.3948515]}},{"type":"Feature","id":"osm-node-2489381787","properties":{"id":"osm-node-2489381787","name":"دەربەندفەقەرە","kind":"village","tier":"locality","priority":300,"context":"سلێمانی · سلێمانی","category":"گوند"},"geometry":{"type":"Point","coordinates":[45.5500306,35.297277]}},{"type":"Feature","id":"osm-node-2488290674","properties":{"id":"osm-node-2488290674","name":"دەمرکان","kind":"village","tier":"locality","priority":300,"context":"سلێمانی · سلێمانی","category":"گوند"},"geometry":{"type":"Point","coordinates":[45.5108006,35.4518164]}},{"type":"Feature","id":"osm-node-12173356250","properties":{"id":"osm-node-12173356250","name":"زێرین جۆی سەروو","kind":"village","tier":"locality","priority":300,"context":"سلێمانی · سلێمانی","category":"گوند"},"geometry":{"type":"Point","coordinates":[45.6672114,35.3590238]}},{"type":"Feature","id":"osm-node-2488153034","properties":{"id":"osm-node-2488153034","name":"زێڕین جۆی خواروو","kind":"village","tier":"locality","priority":300,"context":"سلێمانی · سلێمانی","category":"گوند"},"geometry":{"type":"Point","coordinates":[45.6908096,35.358263]}},{"type":"Feature","id":"osm-way-364425798","properties":{"id":"osm-way-364425798","name":"زێڕینجۆی سەروو","kind":"village","tier":"locality","priority":300,"context":"سلێمانی · سلێمانی","category":"گوند"},"geometry":{"type":"Point","coordinates":[45.666959028260365,35.3590339]}},{"type":"Feature","id":"osm-node-2489390704","properties":{"id":"osm-node-2489390704","name":"زەلەڕەش","kind":"village","tier":"locality","priority":300,"context":"سلێمانی · سلێمانی","category":"گوند"},"geometry":{"type":"Point","coordinates":[45.6393862,35.2550317]}},{"type":"Feature","id":"osm-node-2489390572","properties":{"id":"osm-node-2489390572","name":"سێتەلانی خواروو","kind":"village","tier":"locality","priority":300,"context":"سلێمانی · سلێمانی","category":"گوند"},"geometry":{"type":"Point","coordinates":[45.6073601,35.2700088]}},{"type":"Feature","id":"osm-node-2489392048","properties":{"id":"osm-node-2489392048","name":"سێتەلانی سەروو","kind":"village","tier":"locality","priority":300,"context":"سلێمانی · سلێمانی","category":"گوند"},"geometry":{"type":"Point","coordinates":[45.5914102,35.2648622]}},{"type":"Feature","id":"osm-node-2488150795","properties":{"id":"osm-node-2488150795","name":"شاری کۆن","kind":"village","tier":"locality","priority":300,"context":"شارباژێڕ · سلێمانی","category":"گوند"},"geometry":{"type":"Point","coordinates":[45.7239001,35.4327296]}},{"type":"Feature","id":"geonames-91076","properties":{"id":"geonames-91076","name":"شارە کۆن","kind":"village","tier":"locality","priority":300,"context":"سلێمانی · سلێمانی","category":"گوند"},"geometry":{"type":"Point","coordinates":[45.69916,35.43628]}},{"type":"Feature","id":"osm-node-2489381960","properties":{"id":"osm-node-2489381960","name":"شیوی قازی","kind":"village","tier":"locality","priority":300,"context":"سلێمانی · سلێمانی","category":"گوند"},"geometry":{"type":"Point","coordinates":[45.5155385,35.2805626]}},{"type":"Feature","id":"osm-node-2489381959","properties":{"id":"osm-node-2489381959","name":"شێخ ئۆمەر","kind":"village","tier":"locality","priority":300,"context":"سلێمانی · سلێمانی","category":"گوند"},"geometry":{"type":"Point","coordinates":[45.586979,35.326067]}},{"type":"Feature","id":"geonames-90961","properties":{"id":"geonames-90961","name":"شێخ عومەر","kind":"village","tier":"locality","priority":300,"context":"سلێمانی · سلێمانی","category":"گوند"},"geometry":{"type":"Point","coordinates":[45.58631,35.32759]}},{"type":"Feature","id":"osm-node-2488150836","properties":{"id":"osm-node-2488150836","name":"شێرەبەرە","kind":"village","tier":"locality","priority":300,"context":"شارباژێڕ · سلێمانی","category":"گوند"},"geometry":{"type":"Point","coordinates":[45.7406209,35.4265578]}},{"type":"Feature","id":"osm-node-2489381958","properties":{"id":"osm-node-2489381958","name":"شەممە","kind":"village","tier":"locality","priority":300,"context":"سلێمانی · سلێمانی","category":"گوند"},"geometry":{"type":"Point","coordinates":[45.5383696,35.3322077]}},{"type":"Feature","id":"geonames-7455015","properties":{"id":"geonames-7455015","name":"عەربەت","kind":"village","tier":"locality","priority":300,"context":"سلێمانی · سلێمانی","category":"گوند"},"geometry":{"type":"Point","coordinates":[45.58229,35.41419]}},{"type":"Feature","id":"osm-node-7184402932","properties":{"id":"osm-node-7184402932","name":"فەقیرە","kind":"village","tier":"locality","priority":300,"context":"سلێمانی · سلێمانی","category":"گوند"},"geometry":{"type":"Point","coordinates":[45.5362414,35.2772563]}},{"type":"Feature","id":"osm-node-7176930199","properties":{"id":"osm-node-7176930199","name":"قالیجۆی خواروو","kind":"village","tier":"locality","priority":300,"context":"هەڵەبجە · سلێمانی","category":"گوند"},"geometry":{"type":"Point","coordinates":[45.7125613,35.3696337]}},{"type":"Feature","id":"osm-node-2488150826","properties":{"id":"osm-node-2488150826","name":"قالیجۆی سەروو","kind":"village","tier":"locality","priority":300,"context":"هەڵەبجە · سلێمانی","category":"گوند"},"geometry":{"type":"Point","coordinates":[45.7122535,35.3717096]}},{"type":"Feature","id":"osm-node-2489381930","properties":{"id":"osm-node-2489381930","name":"قامیشان","kind":"village","tier":"locality","priority":300,"context":"سلێمانی · سلێمانی","category":"گوند"},"geometry":{"type":"Point","coordinates":[45.5265549,35.2674566]}},{"type":"Feature","id":"osm-way-788421796","properties":{"id":"osm-way-788421796","name":"قسرتی خواروو","kind":"village","tier":"locality","priority":300,"context":"سلێمانی · سلێمانی","category":"گوند"},"geometry":{"type":"Point","coordinates":[45.580761402955375,35.34295075]}},{"type":"Feature","id":"osm-way-788421797","properties":{"id":"osm-way-788421797","name":"قسرتی سەروو","kind":"village","tier":"locality","priority":300,"context":"سلێمانی · سلێمانی","category":"گوند"},"geometry":{"type":"Point","coordinates":[45.56299979379846,35.33939635]}},{"type":"Feature","id":"osm-node-2489390530","properties":{"id":"osm-node-2489390530","name":"قەرەگۆلی خواروو","kind":"village","tier":"locality","priority":300,"context":"سلێمانی · سلێمانی","category":"گوند"},"geometry":{"type":"Point","coordinates":[45.6330664,35.3532968]}},{"type":"Feature","id":"osm-node-2489390520","properties":{"id":"osm-node-2489390520","name":"قەرەگۆلی سەروو","kind":"village","tier":"locality","priority":300,"context":"سلێمانی · سلێمانی","category":"گوند"},"geometry":{"type":"Point","coordinates":[45.6268877,35.3528046]}},{"type":"Feature","id":"osm-node-2488285940","properties":{"id":"osm-node-2488285940","name":"قەڕاڵی","kind":"village","tier":"locality","priority":300,"context":"سلێمانی · سلێمانی","category":"گوند"},"geometry":{"type":"Point","coordinates":[45.5912944,35.3716328]}},{"type":"Feature","id":"osm-node-2480135244","properties":{"id":"osm-node-2480135244","name":"مالوانی حەمەعەزیز","kind":"village","tier":"locality","priority":300,"context":"دەربەندیخان · سلێمانی","category":"گوند"},"geometry":{"type":"Point","coordinates":[45.7325821,35.3246376]}},{"type":"Feature","id":"osm-node-2488285925","properties":{"id":"osm-node-2488285925","name":"مایاوا","kind":"village","tier":"locality","priority":300,"context":"شارباژێڕ · سلێمانی","category":"گوند"},"geometry":{"type":"Point","coordinates":[45.6527416,35.4794756]}},{"type":"Feature","id":"geonames-93099","properties":{"id":"geonames-93099","name":"موان حەمە حەسەن","kind":"village","tier":"locality","priority":300,"context":"هەڵەبجە · سلێمانی","category":"گوند"},"geometry":{"type":"Point","coordinates":[45.71967,35.36722]}},{"type":"Feature","id":"osm-node-2488150759","properties":{"id":"osm-node-2488150759","name":"موانی حەمەی حەسەن","kind":"village","tier":"locality","priority":300,"context":"هەڵەبجە · سلێمانی","category":"گوند"},"geometry":{"type":"Point","coordinates":[45.7193063,35.3667895]}},{"type":"Feature","id":"osm-node-7176944620","properties":{"id":"osm-node-7176944620","name":"موانی محەممەد عەبدوڵڵا","kind":"village","tier":"locality","priority":300,"context":"هەڵەبجە · سلێمانی","category":"گوند"},"geometry":{"type":"Point","coordinates":[45.7382756,35.3666777]}},{"type":"Feature","id":"osm-node-2489390317","properties":{"id":"osm-node-2489390317","name":"موانی ڕۆستەم","kind":"village","tier":"locality","priority":300,"context":"هەڵەبجە · سلێمانی","category":"گوند"},"geometry":{"type":"Point","coordinates":[45.7230104,35.3452045]}},{"type":"Feature","id":"osm-node-2488150819","properties":{"id":"osm-node-2488150819","name":"موانە کۆن","kind":"village","tier":"locality","priority":300,"context":"هەڵەبجە · سلێمانی","category":"گوند"},"geometry":{"type":"Point","coordinates":[45.7420287,35.35814]}},{"type":"Feature","id":"geonames-92699","properties":{"id":"geonames-92699","name":"مووانی حەمە عەبدوڵڵا","kind":"village","tier":"locality","priority":300,"context":"هەڵەبجە · سلێمانی","category":"گوند"},"geometry":{"type":"Point","coordinates":[45.72667,35.36889]}},{"type":"Feature","id":"osm-node-2488150816","properties":{"id":"osm-node-2488150816","name":"مۆریاس","kind":"village","tier":"locality","priority":300,"context":"شارباژێڕ · سلێمانی","category":"گوند"},"geometry":{"type":"Point","coordinates":[45.724796,35.4693851]}},{"type":"Feature","id":"osm-node-2489381917","properties":{"id":"osm-node-2489381917","name":"میریاسی سەروو","kind":"village","tier":"locality","priority":300,"context":"سلێمانی · سلێمانی","category":"گوند"},"geometry":{"type":"Point","coordinates":[45.5054364,35.3199769]}},{"type":"Feature","id":"osm-node-2489390245","properties":{"id":"osm-node-2489390245","name":"مەحمودخانی خواروو","kind":"village","tier":"locality","priority":300,"context":"هەڵەبجە · سلێمانی","category":"گوند"},"geometry":{"type":"Point","coordinates":[45.7385482,35.3369076]}},{"type":"Feature","id":"osm-node-2489390237","properties":{"id":"osm-node-2489390237","name":"مەحمودخانی سەروو","kind":"village","tier":"locality","priority":300,"context":"هەڵەبجە · سلێمانی","category":"گوند"},"geometry":{"type":"Point","coordinates":[45.7221282,35.3378769]}},{"type":"Feature","id":"osm-node-2489390459","properties":{"id":"osm-node-2489390459","name":"نیسکەجۆ","kind":"village","tier":"locality","priority":300,"context":"سلێمانی · سلێمانی","category":"گوند"},"geometry":{"type":"Point","coordinates":[45.6479179,35.3538276]}},{"type":"Feature","id":"osm-node-2489390408","properties":{"id":"osm-node-2489390408","name":"نەمەڵ","kind":"village","tier":"locality","priority":300,"context":"سلێمانی · سلێمانی","category":"گوند"},"geometry":{"type":"Point","coordinates":[45.605569,35.319232]}},{"type":"Feature","id":"osm-node-2489381923","properties":{"id":"osm-node-2489381923","name":"نەوتێ","kind":"village","tier":"locality","priority":300,"context":"سلێمانی · سلێمانی","category":"گوند"},"geometry":{"type":"Point","coordinates":[45.5012808,35.2986654]}},{"type":"Feature","id":"osm-node-2488151196","properties":{"id":"osm-node-2488151196","name":"هەنجیرە","kind":"village","tier":"locality","priority":300,"context":"سلێمانی · سلێمانی","category":"گوند"},"geometry":{"type":"Point","coordinates":[45.6927696,35.4145838]}},{"type":"Feature","id":"osm-node-2488151206","properties":{"id":"osm-node-2488151206","name":"هەنجیرەی کۆن","kind":"village","tier":"locality","priority":300,"context":"سلێمانی · سلێمانی","category":"گوند"},"geometry":{"type":"Point","coordinates":[45.7014549,35.4159464]}},{"type":"Feature","id":"osm-node-2489381964","properties":{"id":"osm-node-2489381964","name":"وێلەکەی خواروو","kind":"village","tier":"locality","priority":300,"context":"سلێمانی · سلێمانی","category":"گوند"},"geometry":{"type":"Point","coordinates":[45.5362332,35.3120233]}},{"type":"Feature","id":"osm-node-2489381965","properties":{"id":"osm-node-2489381965","name":"وێلەکەی سەروو","kind":"village","tier":"locality","priority":300,"context":"سلێمانی · سلێمانی","category":"گوند"},"geometry":{"type":"Point","coordinates":[45.531027,35.3195181]}},{"type":"Feature","id":"geonames-97376","properties":{"id":"geonames-97376","name":"چارلو","kind":"village","tier":"locality","priority":300,"context":"سلێمانی · سلێمانی","category":"گوند"},"geometry":{"type":"Point","coordinates":[45.58464,35.43486]}},{"type":"Feature","id":"geonames-7455020","properties":{"id":"geonames-7455020","name":"چاڵگە","kind":"village","tier":"locality","priority":300,"context":"دەربەندیخان · سلێمانی","category":"گوند"},"geometry":{"type":"Point","coordinates":[45.73306,35.29326]}},{"type":"Feature","id":"osm-node-10556279941","properties":{"id":"osm-node-10556279941","name":"چوارتاق","kind":"village","tier":"locality","priority":300,"context":"سلێمانی · سلێمانی","category":"گوند"},"geometry":{"type":"Point","coordinates":[45.5882973,35.4452918]}},{"type":"Feature","id":"osm-node-7480312018","properties":{"id":"osm-node-7480312018","name":"چەناخچیان","kind":"village","tier":"locality","priority":300,"context":"سلێمانی · سلێمانی","category":"گوند"},"geometry":{"type":"Point","coordinates":[45.6788774,35.3970162]}},{"type":"Feature","id":"geonames-7455022","properties":{"id":"geonames-7455022","name":"ژاڵە ڕەش","kind":"village","tier":"locality","priority":300,"context":"سلێمانی · سلێمانی","category":"گوند"},"geometry":{"type":"Point","coordinates":[45.63961,35.2553]}},{"type":"Feature","id":"osm-node-2489381872","properties":{"id":"osm-node-2489381872","name":"کارێز","kind":"village","tier":"locality","priority":300,"context":"سلێمانی · سلێمانی","category":"گوند"},"geometry":{"type":"Point","coordinates":[45.5172587,35.3533546]}},{"type":"Feature","id":"osm-node-7157102379","properties":{"id":"osm-node-7157102379","name":"کانی بارام","kind":"village","tier":"locality","priority":300,"context":"سلێمانی · سلێمانی","category":"گوند"},"geometry":{"type":"Point","coordinates":[45.5357819,35.3431831]}},{"type":"Feature","id":"osm-node-2489389878","properties":{"id":"osm-node-2489389878","name":"کانی میل","kind":"village","tier":"locality","priority":300,"context":"دەربەندیخان · سلێمانی","category":"گوند"},"geometry":{"type":"Point","coordinates":[45.6749056,35.3103905]}},{"type":"Feature","id":"osm-node-2489389830","properties":{"id":"osm-node-2489389830","name":"کانی هەمزە","kind":"village","tier":"locality","priority":300,"context":"سلێمانی · سلێمانی","category":"گوند"},"geometry":{"type":"Point","coordinates":[45.631509,35.2705027]}},{"type":"Feature","id":"osm-node-2485279677","properties":{"id":"osm-node-2485279677","name":"کانی هەنار","kind":"village","tier":"locality","priority":300,"context":"سلێمانی · سلێمانی","category":"گوند"},"geometry":{"type":"Point","coordinates":[45.5031551,35.2526531]}},{"type":"Feature","id":"osm-node-2489389824","properties":{"id":"osm-node-2489389824","name":"کانی هەنجیر","kind":"village","tier":"locality","priority":300,"context":"سلێمانی · سلێمانی","category":"گوند"},"geometry":{"type":"Point","coordinates":[45.6008778,35.2532835]}},{"type":"Feature","id":"osm-node-7157104416","properties":{"id":"osm-node-7157104416","name":"کانی هەنجیر","kind":"village","tier":"locality","priority":300,"context":"سلێمانی · سلێمانی","category":"گوند"},"geometry":{"type":"Point","coordinates":[45.5025328,35.3617511]}},{"type":"Feature","id":"osm-node-7480289217","properties":{"id":"osm-node-7480289217","name":"کانی پانکە","kind":"village","tier":"locality","priority":300,"context":"هەڵەبجە · سلێمانی","category":"گوند"},"geometry":{"type":"Point","coordinates":[45.7061847,35.3797134]}},{"type":"Feature","id":"osm-node-2489389863","properties":{"id":"osm-node-2489389863","name":"کانی کەوەی جوخ","kind":"village","tier":"locality","priority":300,"context":"دەربەندیخان · سلێمانی","category":"گوند"},"geometry":{"type":"Point","coordinates":[45.7270265,35.3101123]}},{"type":"Feature","id":"osm-node-2480135578","properties":{"id":"osm-node-2480135578","name":"کانی کەوەی کۆن","kind":"village","tier":"locality","priority":300,"context":"دەربەندیخان · سلێمانی","category":"گوند"},"geometry":{"type":"Point","coordinates":[45.7423164,35.3037998]}},{"type":"Feature","id":"osm-node-7214138394","properties":{"id":"osm-node-7214138394","name":"کانێسکان","kind":"village","tier":"locality","priority":300,"context":"دەربەندیخان · سلێمانی","category":"گوند"},"geometry":{"type":"Point","coordinates":[45.6589104,35.2511667]}},{"type":"Feature","id":"osm-way-364425809","properties":{"id":"osm-way-364425809","name":"کاژاو","kind":"village","tier":"locality","priority":300,"context":"سلێمانی · سلێمانی","category":"گوند"},"geometry":{"type":"Point","coordinates":[45.66398696092834,35.366665]}},{"type":"Feature","id":"osm-node-12173356249","properties":{"id":"osm-node-12173356249","name":"کاژاوی حەمە سالح سمایل","kind":"village","tier":"locality","priority":300,"context":"سلێمانی · سلێمانی","category":"گوند"},"geometry":{"type":"Point","coordinates":[45.6640779,35.3666484]}},{"type":"Feature","id":"osm-node-2489381879","properties":{"id":"osm-node-2489381879","name":"کۆرەی خواروو","kind":"village","tier":"locality","priority":300,"context":"سلێمانی · سلێمانی","category":"گوند"},"geometry":{"type":"Point","coordinates":[45.586641,35.2686696]}},{"type":"Feature","id":"osm-node-2489381885","properties":{"id":"osm-node-2489381885","name":"کۆرەی سەروو","kind":"village","tier":"locality","priority":300,"context":"سلێمانی · سلێمانی","category":"گوند"},"geometry":{"type":"Point","coordinates":[45.574438,35.270212]}},{"type":"Feature","id":"osm-node-2488290763","properties":{"id":"osm-node-2488290763","name":"کۆزەڕەقە","kind":"village","tier":"locality","priority":300,"context":"سلێمانی · سلێمانی","category":"گوند"},"geometry":{"type":"Point","coordinates":[45.5407242,35.4680669]}},{"type":"Feature","id":"osm-node-2489389949","properties":{"id":"osm-node-2489389949","name":"کۆڵەبی","kind":"village","tier":"locality","priority":300,"context":"دەربەندیخان · سلێمانی","category":"گوند"},"geometry":{"type":"Point","coordinates":[45.6726979,35.2518435]}},{"type":"Feature","id":"osm-way-364425804","properties":{"id":"osm-way-364425804","name":"کەماڵانی خواروو","kind":"village","tier":"locality","priority":300,"context":"سلێمانی · سلێمانی","category":"گوند"},"geometry":{"type":"Point","coordinates":[45.52589708947137,35.36052995]}},{"type":"Feature","id":"osm-way-364425793","properties":{"id":"osm-way-364425793","name":"کەماڵانی سەروو","kind":"village","tier":"locality","priority":300,"context":"سلێمانی · سلێمانی","category":"گوند"},"geometry":{"type":"Point","coordinates":[45.51654302125637,35.3605615]}},{"type":"Feature","id":"osm-node-7184428583","properties":{"id":"osm-node-7184428583","name":"کەڵەکاوی","kind":"village","tier":"locality","priority":300,"context":"سلێمانی · سلێمانی","category":"گوند"},"geometry":{"type":"Point","coordinates":[45.6436398,35.3290003]}},{"type":"Feature","id":"geonames-384852","properties":{"id":"geonames-384852","name":"گرمەدەرە","kind":"village","tier":"locality","priority":300,"context":"شارباژێڕ · سلێمانی","category":"گوند"},"geometry":{"type":"Point","coordinates":[45.66446,35.44739]}},{"type":"Feature","id":"osm-node-2488150758","properties":{"id":"osm-node-2488150758","name":"گرێزە","kind":"village","tier":"locality","priority":300,"context":"هەڵەبجە · سلێمانی","category":"گوند"},"geometry":{"type":"Point","coordinates":[45.7340568,35.3919992]}},{"type":"Feature","id":"osm-node-2488285807","properties":{"id":"osm-node-2488285807","name":"گورگەچیا","kind":"village","tier":"locality","priority":300,"context":"سلێمانی · سلێمانی","category":"گوند"},"geometry":{"type":"Point","coordinates":[45.5577393,35.3617739]}},{"type":"Feature","id":"osm-node-2489389765","properties":{"id":"osm-node-2489389765","name":"گوندی جۆلانە","kind":"village","tier":"locality","priority":300,"context":"سلێمانی · سلێمانی","category":"گوند"},"geometry":{"type":"Point","coordinates":[45.6015909,35.2971849]}},{"type":"Feature","id":"osm-node-7668728147","properties":{"id":"osm-node-7668728147","name":"گوندی زەڕایەنی کۆن","kind":"village","tier":"locality","priority":300,"context":"دەربەندیخان · سلێمانی","category":"گوند"},"geometry":{"type":"Point","coordinates":[45.6826963,35.3016972]}},{"type":"Feature","id":"osm-node-2489381835","properties":{"id":"osm-node-2489381835","name":"گوڵەجۆ","kind":"village","tier":"locality","priority":300,"context":"سلێمانی · سلێمانی","category":"گوند"},"geometry":{"type":"Point","coordinates":[45.5207254,35.2510259]}},{"type":"Feature","id":"osm-node-2488290702","properties":{"id":"osm-node-2488290702","name":"گەدان","kind":"village","tier":"locality","priority":300,"context":"سلێمانی · سلێمانی","category":"گوند"},"geometry":{"type":"Point","coordinates":[45.5165335,35.3678063]}},{"type":"Feature","id":"osm-node-2488153015","properties":{"id":"osm-node-2488153015","name":"گەرمەدەرە","kind":"village","tier":"locality","priority":300,"context":"شارباژێڕ · سلێمانی","category":"گوند"},"geometry":{"type":"Point","coordinates":[45.6586319,35.4432363]}},{"type":"Feature","id":"osm-node-7184439748","properties":{"id":"osm-node-7184439748","name":"گەورەقەڵا","kind":"village","tier":"locality","priority":300,"context":"سلێمانی · سلێمانی","category":"گوند"},"geometry":{"type":"Point","coordinates":[45.6260033,35.2553745]}},{"type":"Feature","id":"osm-node-7124470980","properties":{"id":"osm-node-7124470980","name":"گەڵباخ","kind":"village","tier":"locality","priority":300,"context":"سلێمانی · سلێمانی","category":"گوند"},"geometry":{"type":"Point","coordinates":[45.5913443,35.4855611]}},{"type":"Feature","id":"osm-node-2488290918","properties":{"id":"osm-node-2488290918","name":"یاخیماڵی","kind":"village","tier":"locality","priority":300,"context":"سلێمانی · سلێمانی","category":"گوند"},"geometry":{"type":"Point","coordinates":[45.5427209,35.4207405]}},{"type":"Feature","id":"osm-node-7184361477","properties":{"id":"osm-node-7184361477","name":"یاسین تەپە","kind":"village","tier":"locality","priority":300,"context":"سلێمانی · سلێمانی","category":"گوند"},"geometry":{"type":"Point","coordinates":[45.6498979,35.3630371]}},{"type":"Feature","id":"osm-node-7214083300","properties":{"id":"osm-node-7214083300","name":"یەخشی خواروو","kind":"village","tier":"locality","priority":300,"context":"دەربەندیخان · سلێمانی","category":"گوند"},"geometry":{"type":"Point","coordinates":[45.7104866,35.312278]}},{"type":"Feature","id":"osm-node-2489389264","properties":{"id":"osm-node-2489389264","name":"یەخشی سەروو","kind":"village","tier":"locality","priority":300,"context":"دەربەندیخان · سلێمانی","category":"گوند"},"geometry":{"type":"Point","coordinates":[45.6946351,35.2972767]}},{"type":"Feature","id":"geonames-94397","properties":{"id":"geonames-94397","name":"یەخی ماڵی","kind":"village","tier":"locality","priority":300,"context":"سلێمانی · سلێمانی","category":"گوند"},"geometry":{"type":"Point","coordinates":[45.54311,35.42187]}},{"type":"Feature","id":"osm-node-2488290911","properties":{"id":"osm-node-2488290911","name":"یەکماڵە","kind":"village","tier":"locality","priority":300,"context":"سلێمانی · سلێمانی","category":"گوند"},"geometry":{"type":"Point","coordinates":[45.5120927,35.4296617]}},{"type":"Feature","id":"osm-node-9796182908","properties":{"id":"osm-node-9796182908","name":"کەمپی ئاشتی","kind":"suburb","tier":"locality","priority":245,"context":"سلێمانی · سلێمانی","category":"پاشکۆی شار"},"geometry":{"type":"Point","coordinates":[45.6030984,35.4180739]}},{"type":"Feature","id":"osm-node-2488153008","properties":{"id":"osm-node-2488153008","name":"چەمی بادەرە","kind":"locality","tier":"locality","priority":200,"context":"سلێمانی · سلێمانی","category":"شوێنی ناوخۆیی"},"geometry":{"type":"Point","coordinates":[45.6839605,35.4024787]}},{"type":"Feature","id":"osm-node-8593563088","properties":{"id":"osm-node-8593563088","name":"چەمی کۆرە قەڵا","kind":"locality","tier":"locality","priority":200,"context":"دەربەندیخان · سلێمانی","category":"شوێنی ناوخۆیی"},"geometry":{"type":"Point","coordinates":[45.7313793,35.3232845]}},{"type":"Feature","id":"osm-natural-valley-9e503e9b3a7877","properties":{"id":"osm-natural-valley-9e503e9b3a7877","name":"Cham-i Bahadara","kind":"natural","tier":"natural","priority":180,"context":"دۆڵ · شهربازار · سلێمانی","category":"دۆڵ"},"geometry":{"type":"Point","coordinates":[45.64583,35.45333]}},{"type":"Feature","id":"osm-natural-stream-4d113bb2abbe42","properties":{"id":"osm-natural-stream-4d113bb2abbe42","name":"Cham-i Chaqalawah","kind":"natural","tier":"natural","priority":180,"context":"جۆگە · السليمانية · سلێمانی","category":"جۆگە"},"geometry":{"type":"Point","coordinates":[45.7,35.33333]}},{"type":"Feature","id":"osm-natural-stream-0d69186472bbac","properties":{"id":"osm-natural-stream-0d69186472bbac","name":"Cham-i Dewana","kind":"natural","tier":"natural","priority":180,"context":"جۆگە · السليمانية · سلێمانی","category":"جۆگە"},"geometry":{"type":"Point","coordinates":[45.5,35.26222]}},{"type":"Feature","id":"osm-natural-valley-020f3f6f37a84b","properties":{"id":"osm-natural-valley-020f3f6f37a84b","name":"Cham-i Kani Bardash","kind":"natural","tier":"natural","priority":180,"context":"دۆڵ · السليمانية · سلێمانی","category":"دۆڵ"},"geometry":{"type":"Point","coordinates":[45.60167,35.29556]}},{"type":"Feature","id":"osm-natural-valley-764560e84ae21e","properties":{"id":"osm-natural-valley-764560e84ae21e","name":"Cham-i Zardakila","kind":"natural","tier":"natural","priority":180,"context":"دۆڵ · شهربازار · سلێمانی","category":"دۆڵ"},"geometry":{"type":"Point","coordinates":[45.69944,35.48278]}},{"type":"Feature","id":"osm-natural-stream-51bdbc7eca6732","properties":{"id":"osm-natural-stream-51bdbc7eca6732","name":"Cham-i `Gulbakh","kind":"natural","tier":"natural","priority":180,"context":"جۆگە · السليمانية · سلێمانی","category":"جۆگە"},"geometry":{"type":"Point","coordinates":[45.61667,35.35]}},{"type":"Feature","id":"osm-natural-valley-08d9476a90420f","properties":{"id":"osm-natural-valley-08d9476a90420f","name":"Chami Kirayzah","kind":"natural","tier":"natural","priority":180,"context":"دۆڵ · حلبجة · سلێمانی","category":"دۆڵ"},"geometry":{"type":"Point","coordinates":[45.72371,35.37608]}},{"type":"Feature","id":"osm-natural-stream-6ba635dab8e88d","properties":{"id":"osm-natural-stream-6ba635dab8e88d","name":"Kalasher Khuraw Strewm","kind":"natural","tier":"natural","priority":180,"context":"جۆگە · السليمانية · سلێمانی","category":"جۆگە"},"geometry":{"type":"Point","coordinates":[45.7027834,35.4297575]}},{"type":"Feature","id":"osm-natural-stream-5b13cdf52bfe5a","properties":{"id":"osm-natural-stream-5b13cdf52bfe5a","name":"Moryas Stream","kind":"natural","tier":"natural","priority":180,"context":"جۆگە · شهربازار · سلێمانی","category":"جۆگە"},"geometry":{"type":"Point","coordinates":[45.7467477,35.4969218]}},{"type":"Feature","id":"osm-natural-stream-55e98663511653","properties":{"id":"osm-natural-stream-55e98663511653","name":"Sarshelan Stream","kind":"natural","tier":"natural","priority":180,"context":"جۆگە · شهربازار · سلێمانی","category":"جۆگە"},"geometry":{"type":"Point","coordinates":[45.6531955,35.4985082]}},{"type":"Feature","id":"osm-natural-mountain-87929847f72f60","properties":{"id":"osm-natural-mountain-87929847f72f60","name":"Shakh-i Baranan","kind":"natural","tier":"natural","priority":180,"context":"شاخ · السليمانية · سلێمانی","category":"شاخ"},"geometry":{"type":"Point","coordinates":[45.53544,35.28308]}},{"type":"Feature","id":"osm-natural-river-dd4436b770027f","properties":{"id":"osm-natural-river-dd4436b770027f","name":"Tanjaro River","kind":"natural","tier":"natural","priority":180,"context":"ڕووبار · السليمانية · سلێمانی","category":"ڕووبار"},"geometry":{"type":"Point","coordinates":[45.5042628,35.4265219]}},{"type":"Feature","id":"osm-natural-valley-d6169110da68a1","properties":{"id":"osm-natural-valley-d6169110da68a1","name":"Wadi Kahwirah Qala","kind":"natural","tier":"natural","priority":180,"context":"دۆڵ · دربندخان · سلێمانی","category":"دۆڵ"},"geometry":{"type":"Point","coordinates":[45.73292,35.32344]}},{"type":"Feature","id":"osm-natural-hill-47d669758ef99e","properties":{"id":"osm-natural-hill-47d669758ef99e","name":"تل شين كان","kind":"natural","tier":"natural","priority":180,"context":"گرد · السليمانية · سلێمانی","category":"گرد"},"geometry":{"type":"Point","coordinates":[45.55116,35.4499]}},{"type":"Feature","id":"osm-natural-mountain-fc76b48e3fa35d","properties":{"id":"osm-natural-mountain-fc76b48e3fa35d","name":"جبال ورسكة","kind":"natural","tier":"natural","priority":180,"context":"شاخ · شهربازار · سلێمانی","category":"شاخ"},"geometry":{"type":"Point","coordinates":[45.69505,35.45643]}},{"type":"Feature","id":"osm-natural-mountain-39e4ed19071628","properties":{"id":"osm-natural-mountain-39e4ed19071628","name":"جبل بردة كورة","kind":"natural","tier":"natural","priority":180,"context":"شاخ · شهربازار · سلێمانی","category":"شاخ"},"geometry":{"type":"Point","coordinates":[45.64404,35.44804]}},{"type":"Feature","id":"osm-natural-mountain-3a7776dafe09e5","properties":{"id":"osm-natural-mountain-3a7776dafe09e5","name":"جبل جارتة","kind":"natural","tier":"natural","priority":180,"context":"شاخ · السليمانية · سلێمانی","category":"شاخ"},"geometry":{"type":"Point","coordinates":[45.61212,35.48012]}},{"type":"Feature","id":"osm-natural-forest-f1074bddb6a995","properties":{"id":"osm-natural-forest-f1074bddb6a995","name":"دارستانی بەرانان","kind":"natural","tier":"natural","priority":180,"context":"دارستان · السليمانية · سلێمانی","category":"دارستان"},"geometry":{"type":"Point","coordinates":[45.5151412,35.3092252]}},{"type":"Feature","id":"osm-natural-forest-9818e276886a7f","properties":{"id":"osm-natural-forest-9818e276886a7f","name":"دارستانی دەستکردی زەڕایەن","kind":"natural","tier":"natural","priority":180,"context":"دارستان · السليمانية · سلێمانی","category":"دارستان"},"geometry":{"type":"Point","coordinates":[45.6666812,35.3088001]}},{"type":"Feature","id":"osm-natural-forest-b36a7615a9dbc5","properties":{"id":"osm-natural-forest-b36a7615a9dbc5","name":"دارستانی گرێزە","kind":"natural","tier":"natural","priority":180,"context":"دارستان · حلبجة · سلێمانی","category":"دارستان"},"geometry":{"type":"Point","coordinates":[45.7420892,35.3846161]}},{"type":"Feature","id":"osm-natural-stream-21f710e512ad20","properties":{"id":"osm-natural-stream-21f710e512ad20","name":"شيوة وشك","kind":"natural","tier":"natural","priority":180,"context":"جۆگە · دربندخان · سلێمانی","category":"جۆگە"},"geometry":{"type":"Point","coordinates":[45.67821,35.32836]}},{"type":"Feature","id":"osm-natural-valley-edabb9063a56dd","properties":{"id":"osm-natural-valley-edabb9063a56dd","name":"وادي امام حسين","kind":"natural","tier":"natural","priority":180,"context":"دۆڵ · السليمانية · سلێمانی","category":"دۆڵ"},"geometry":{"type":"Point","coordinates":[45.62793,35.31447]}},{"type":"Feature","id":"osm-natural-valley-446ef46aedeaba","properties":{"id":"osm-natural-valley-446ef46aedeaba","name":"وادي بهارةرة","kind":"natural","tier":"natural","priority":180,"context":"دۆڵ · السليمانية · سلێمانی","category":"دۆڵ"},"geometry":{"type":"Point","coordinates":[45.68292,35.40251]}},{"type":"Feature","id":"osm-natural-valley-05596a6f903dd9","properties":{"id":"osm-natural-valley-05596a6f903dd9","name":"وادي دسكرة","kind":"natural","tier":"natural","priority":180,"context":"دۆڵ · السليمانية · سلێمانی","category":"دۆڵ"},"geometry":{"type":"Point","coordinates":[45.68229,35.33921]}},{"type":"Feature","id":"osm-natural-valley-83455b2f8f9c00","properties":{"id":"osm-natural-valley-83455b2f8f9c00","name":"وادي سرجاوكا","kind":"natural","tier":"natural","priority":180,"context":"دۆڵ · السليمانية · سلێمانی","category":"دۆڵ"},"geometry":{"type":"Point","coordinates":[45.52908,35.39979]}},{"type":"Feature","id":"osm-natural-valley-1ee84c759937bc","properties":{"id":"osm-natural-valley-1ee84c759937bc","name":"وادي قلبجة","kind":"natural","tier":"natural","priority":180,"context":"دۆڵ · دربندخان · سلێمانی","category":"دۆڵ"},"geometry":{"type":"Point","coordinates":[45.7282,35.29902]}},{"type":"Feature","id":"osm-natural-valley-62b94cf5873e53","properties":{"id":"osm-natural-valley-62b94cf5873e53","name":"وادي قورتة","kind":"natural","tier":"natural","priority":180,"context":"دۆڵ · السليمانية · سلێمانی","category":"دۆڵ"},"geometry":{"type":"Point","coordinates":[45.541944,35.36]}},{"type":"Feature","id":"osm-natural-valley-782de078c14ffa","properties":{"id":"osm-natural-valley-782de078c14ffa","name":"وادي كل باغ","kind":"natural","tier":"natural","priority":180,"context":"دۆڵ · السليمانية · سلێمانی","category":"دۆڵ"},"geometry":{"type":"Point","coordinates":[45.58922,35.46738]}},{"type":"Feature","id":"osm-natural-valley-67c02e8dd00385","properties":{"id":"osm-natural-valley-67c02e8dd00385","name":"وادي كوكة زيل","kind":"natural","tier":"natural","priority":180,"context":"دۆڵ · السليمانية · سلێمانی","category":"دۆڵ"},"geometry":{"type":"Point","coordinates":[45.50118,35.40782]}},{"type":"Feature","id":"osm-natural-valley-ab489d729cce55","properties":{"id":"osm-natural-valley-ab489d729cce55","name":"وادي ميرك","kind":"natural","tier":"natural","priority":180,"context":"دۆڵ · السليمانية · سلێمانی","category":"دۆڵ"},"geometry":{"type":"Point","coordinates":[45.65945,35.2999]}},{"type":"Feature","id":"osm-natural-valley-aab026abf52233","properties":{"id":"osm-natural-valley-aab026abf52233","name":"وادي نيركة زار","kind":"natural","tier":"natural","priority":180,"context":"دۆڵ · السليمانية · سلێمانی","category":"دۆڵ"},"geometry":{"type":"Point","coordinates":[45.50015,35.4254]}},{"type":"Feature","id":"osm-natural-stream-70e7f86dbeba5e","properties":{"id":"osm-natural-stream-70e7f86dbeba5e","name":"چەمی دسکەرە","kind":"natural","tier":"natural","priority":180,"context":"جۆگە · السليمانية · سلێمانی","category":"جۆگە"},"geometry":{"type":"Point","coordinates":[45.6632331,35.3266336]}},{"type":"Feature","id":"road-label-osm-way-242731691","properties":{"id":"road-label-osm-way-242731691","name":"Arbat Zarayan Road","kind":"road","tier":"road","priority":95,"context":"trunk · دربندخان · سلێمانی","category":"ڕێگا"},"geometry":{"type":"Point","coordinates":[45.677973,35.30962]}},{"type":"Feature","id":"road-label-osm-way-1263311628","properties":{"id":"road-label-osm-way-1263311628","name":"ڕێگای زەڕایەن - دەربەندیخان","kind":"road","tier":"road","priority":95,"context":"trunk · دربندخان · سلێمانی","category":"ڕێگا"},"geometry":{"type":"Point","coordinates":[45.692582,35.275063]}},{"type":"Feature","id":"road-label-osm-way-242731695","properties":{"id":"road-label-osm-way-242731695","name":"ڕێگای زەڕایەن - عەربەت","kind":"road","tier":"road","priority":95,"context":"trunk · دربندخان · سلێمانی","category":"ڕێگا"},"geometry":{"type":"Point","coordinates":[45.679447,35.308074]}},{"type":"Feature","id":"road-label-osm-way-217501374","properties":{"id":"road-label-osm-way-217501374","name":"ڕێگای سلێمانی - عەربەت","kind":"road","tier":"road","priority":95,"context":"trunk · السليمانية · سلێمانی","category":"ڕێگا"},"geometry":{"type":"Point","coordinates":[45.507682,35.466602]}},{"type":"Feature","id":"road-label-osm-way-46837645","properties":{"id":"road-label-osm-way-46837645","name":"Barznjah Rd","kind":"road","tier":"road","priority":72,"context":"secondary · شهربازار · سلێمانی","category":"ڕێگا"},"geometry":{"type":"Point","coordinates":[45.717066,35.454399]}},{"type":"Feature","id":"osm-way-318458113-airport","properties":{"id":"osm-way-318458113-airport","name":"فڕۆکەخانەی عەربەت","kind":"poi","tier":"poi_landmark","priority":100.088,"context":"فڕۆکەخانە","category":"فڕۆکەخانە"},"geometry":{"type":"Point","coordinates":[45.6343202,35.3991593]}},{"type":"Feature","id":"osm-node-8971644917-hospital","properties":{"id":"osm-node-8971644917-hospital","name":"کۆمەڵگای پزیشکی هەڵەبجە","kind":"poi","tier":"poi_landmark","priority":95.1,"context":"نەخۆشخانە","category":"نەخۆشخانە"},"geometry":{"type":"Point","coordinates":[45.6848311,35.3237593]}},{"type":"Feature","id":"osm-way-1275073087-hospital","properties":{"id":"osm-way-1275073087-hospital","name":"مەڵبەندی تەندروستی زمناکۆ","kind":"poi","tier":"poi_landmark","priority":95.092,"context":"نەخۆشخانە","category":"نەخۆشخانە"},"geometry":{"type":"Point","coordinates":[45.6784523,35.3198523]}},{"type":"Feature","id":"osm-way-1341828184-hospital","properties":{"id":"osm-way-1341828184-hospital","name":"نەخۆشخانەی شەهید سەرداری ئەندازیار","kind":"poi","tier":"poi_landmark","priority":95.092,"context":"نەخۆشخانە","category":"نەخۆشخانە"},"geometry":{"type":"Point","coordinates":[45.6906264,35.3143271]}},{"type":"Feature","id":"osm-way-1315370601-hospital","properties":{"id":"osm-way-1315370601-hospital","name":"نەخۆشخانەی گشتی شەهید ڕەئووف بەگ","kind":"poi","tier":"poi_landmark","priority":95.092,"context":"نەخۆشخانە","category":"نەخۆشخانە"},"geometry":{"type":"Point","coordinates":[45.6883661,35.3229537]}},{"type":"Feature","id":"osm-way-13335619-building","properties":{"id":"osm-way-13335619-building","name":"نەخۆشخانەی عەربەت","kind":"poi","tier":"poi_landmark","priority":95.055,"context":"نەخۆشخانە","category":"نەخۆشخانە"},"geometry":{"type":"Point","coordinates":[45.5792923,35.4313527]}},{"type":"Feature","id":"osm-node-6770295785-bank","properties":{"id":"osm-node-6770295785-bank","name":"بانکی شارەزوور","kind":"poi","tier":"poi_landmark","priority":92.1,"context":"بانک","category":"بانک"},"geometry":{"type":"Point","coordinates":[45.6767044,35.3187819]}},{"type":"Feature","id":"osm-way-1497435804-military","properties":{"id":"osm-way-1497435804-military","name":"لیوای ٤ ی نەوت و گاز","kind":"poi","tier":"poi_regional","priority":80.045,"context":"بنکەی سەربازی","category":"بنکەی سەربازی"},"geometry":{"type":"Point","coordinates":[45.5749728,35.4513668]}},{"type":"Feature","id":"osm-way-1342070549-mall","properties":{"id":"osm-way-1342070549-mall","name":"شارەزوور مۆڵ","kind":"poi","tier":"poi_regional","priority":78.092,"context":"مەوڵ","category":"مەوڵ"},"geometry":{"type":"Point","coordinates":[45.6923735,35.3201549]}},{"type":"Feature","id":"osm-way-791234160-mall","properties":{"id":"osm-way-791234160-mall","name":"هادی مۆڵ","kind":"poi","tier":"poi_regional","priority":78.092,"context":"مەوڵ","category":"مەوڵ"},"geometry":{"type":"Point","coordinates":[45.5845489,35.4271919]}},{"type":"Feature","id":"osm-way-1342132124-stadium","properties":{"id":"osm-way-1342132124-stadium","name":"یاریگای شەهید ئەنوەر","kind":"poi","tier":"poi_regional","priority":76.092,"context":"یاریگا","category":"یاریگا"},"geometry":{"type":"Point","coordinates":[45.6632888,35.3165565]}},{"type":"Feature","id":"osm-node-8940064017-attraction","properties":{"id":"osm-node-8940064017-attraction","name":"بیس السووس","kind":"poi","tier":"poi_detail","priority":50.1,"context":"شوێنی گەشتیاری","category":"شوێنی گەشتیاری"},"geometry":{"type":"Point","coordinates":[45.6474877,35.3783979]}},{"type":"Feature","id":"osm-way-346018297-archaeological","properties":{"id":"osm-way-346018297-archaeological","name":"تبە یاسین","kind":"poi","tier":"poi_detail","priority":50.092,"context":"شوێنی شوێنەوار","category":"شوێنی شوێنەوار"},"geometry":{"type":"Point","coordinates":[45.6498296,35.3599301]}},{"type":"Feature","id":"osm-way-1342070560-college","properties":{"id":"osm-way-1342070560-college","name":"کۆلێژی پەروەردەی شارەزوور","kind":"poi","tier":"poi_detail","priority":50.092,"context":"کۆلێژ","category":"کۆلێژ"},"geometry":{"type":"Point","coordinates":[45.6791984,35.3190704]}},{"type":"Feature","id":"osm-node-5680832825-fuel","properties":{"id":"osm-node-5680832825-fuel","name":"بەنزینخانەی سەنتەر ئویل","kind":"poi","tier":"poi_regional","priority":82.094,"context":"وێستگەی سووتەمەنی","category":"وێستگەی سووتەمەنی"},"geometry":{"type":"Point","coordinates":[45.5717084,35.4391511]}},{"type":"Feature","id":"osm-node-5638810321-fuel","properties":{"id":"osm-node-5638810321-fuel","name":"بەنزینخانەی شارو","kind":"poi","tier":"poi_regional","priority":82.094,"context":"وێستگەی سووتەمەنی","category":"وێستگەی سووتەمەنی"},"geometry":{"type":"Point","coordinates":[45.5328746,35.4616216]}},{"type":"Feature","id":"osm-node-6712615237-fuel","properties":{"id":"osm-node-6712615237-fuel","name":"بەنزینخانەی وارماوا","kind":"poi","tier":"poi_regional","priority":82.094,"context":"وێستگەی سووتەمەنی","category":"وێستگەی سووتەمەنی"},"geometry":{"type":"Point","coordinates":[45.6689396,35.3187981]}},{"type":"Feature","id":"osm-node-5680914626-fuel","properties":{"id":"osm-node-5680914626-fuel","name":"ده مرکان","kind":"poi","tier":"poi_regional","priority":82.094,"context":"وێستگەی سووتەمەنی","category":"وێستگەی سووتەمەنی"},"geometry":{"type":"Point","coordinates":[45.5781729,35.4312144]}},{"type":"Feature","id":"osm-way-1342070564-fuel","properties":{"id":"osm-way-1342070564-fuel","name":"بەنزین خانەی نالی","kind":"poi","tier":"poi_regional","priority":82.086,"context":"وێستگەی سووتەمەنی","category":"وێستگەی سووتەمەنی"},"geometry":{"type":"Point","coordinates":[45.6890376,35.3081518]}},{"type":"Feature","id":"osm-way-1342129568-fuel","properties":{"id":"osm-way-1342129568-fuel","name":"بەنزینخانەی باز","kind":"poi","tier":"poi_regional","priority":82.086,"context":"وێستگەی سووتەمەنی","category":"وێستگەی سووتەمەنی"},"geometry":{"type":"Point","coordinates":[45.6666569,35.3209048]}},{"type":"Feature","id":"osm-way-1342129579-fuel","properties":{"id":"osm-way-1342129579-fuel","name":"بەنزینخانەی سامان","kind":"poi","tier":"poi_regional","priority":82.086,"context":"وێستگەی سووتەمەنی","category":"وێستگەی سووتەمەنی"},"geometry":{"type":"Point","coordinates":[45.6633468,35.3241714]}},{"type":"Feature","id":"osm-way-1342184261-fuel","properties":{"id":"osm-way-1342184261-fuel","name":"بەنزینخانەی سەرهەنگ","kind":"poi","tier":"poi_regional","priority":82.086,"context":"وێستگەی سووتەمەنی","category":"وێستگەی سووتەمەنی"},"geometry":{"type":"Point","coordinates":[45.6738674,35.3121546]}},{"type":"Feature","id":"osm-way-1342129567-fuel","properties":{"id":"osm-way-1342129567-fuel","name":"بەنزینخانەی شوان","kind":"poi","tier":"poi_regional","priority":82.086,"context":"وێستگەی سووتەمەنی","category":"وێستگەی سووتەمەنی"},"geometry":{"type":"Point","coordinates":[45.667918,35.3197026]}},{"type":"Feature","id":"osm-way-777685104-fuel","properties":{"id":"osm-way-777685104-fuel","name":"بەنزینخانەی هەورامان","kind":"poi","tier":"poi_regional","priority":82.086,"context":"وێستگەی سووتەمەنی","category":"وێستگەی سووتەمەنی"},"geometry":{"type":"Point","coordinates":[45.5759248,35.4359946]}},{"type":"Feature","id":"osm-way-775822727-bus_station","properties":{"id":"osm-way-775822727-bus_station","name":"تەرمیناڵی شارەزوور","kind":"poi","tier":"poi_regional","priority":80.088,"context":"وێستگەی پاس","category":"وێستگەی پاس"},"geometry":{"type":"Point","coordinates":[45.689493,35.3229607]}},{"type":"Feature","id":"osm-node-11475692869-police","properties":{"id":"osm-node-11475692869-police","name":"مقر لواء ٢١ حدود","kind":"poi","tier":"poi_regional","priority":77.1,"context":"بنکەی پۆلیس","category":"بنکەی پۆلیس"},"geometry":{"type":"Point","coordinates":[45.6064482,35.3695619]}},{"type":"Feature","id":"osm-way-775395515-police","properties":{"id":"osm-way-775395515-police","name":"bnkae police","kind":"poi","tier":"poi_regional","priority":77.092,"context":"بنکەی پۆلیس","category":"بنکەی پۆلیس"},"geometry":{"type":"Point","coordinates":[45.5809019,35.4293124]}},{"type":"Feature","id":"osm-way-777692636-police","properties":{"id":"osm-way-777692636-police","name":"بنکەی ئاسایش","kind":"poi","tier":"poi_regional","priority":77.092,"context":"بنکەی پۆلیس","category":"بنکەی پۆلیس"},"geometry":{"type":"Point","coordinates":[45.5846054,35.4278161]}},{"type":"Feature","id":"osm-way-18412102-police","properties":{"id":"osm-way-18412102-police","name":"بنکەی پۆلیسی زەڕایەن","kind":"poi","tier":"poi_regional","priority":77.092,"context":"بنکەی پۆلیس","category":"بنکەی پۆلیس"},"geometry":{"type":"Point","coordinates":[45.6705366,35.3175885]}},{"type":"Feature","id":"osm-way-1071541373-police","properties":{"id":"osm-way-1071541373-police","name":"بەڕێوەیەرێتی هاتوچۆی شارەزوور","kind":"poi","tier":"poi_regional","priority":77.092,"context":"بنکەی پۆلیس","category":"بنکەی پۆلیس"},"geometry":{"type":"Point","coordinates":[45.6781115,35.3203919]}},{"type":"Feature","id":"osm-node-8971644725-car_dealership","properties":{"id":"osm-node-8971644725-car_dealership","name":"جوانکاری فریا","kind":"poi","tier":"poi_regional","priority":76.1,"context":"پێشانگای ئۆتۆمبیل","category":"پێشانگای ئۆتۆمبیل"},"geometry":{"type":"Point","coordinates":[45.6870848,35.3183439]}},{"type":"Feature","id":"osm-node-8971645323-car_dealership","properties":{"id":"osm-node-8971645323-car_dealership","name":"جوانکاری مەلا عومەر","kind":"poi","tier":"poi_regional","priority":76.1,"context":"پێشانگای ئۆتۆمبیل","category":"پێشانگای ئۆتۆمبیل"},"geometry":{"type":"Point","coordinates":[45.6864209,35.3178593]}},{"type":"Feature","id":"osm-node-8971644717-car_dealership","properties":{"id":"osm-node-8971644717-car_dealership","name":"فیتەرەکانی زەڕایەن","kind":"poi","tier":"poi_regional","priority":76.1,"context":"پێشانگای ئۆتۆمبیل","category":"پێشانگای ئۆتۆمبیل"},"geometry":{"type":"Point","coordinates":[45.6736464,35.3124882]}},{"type":"Feature","id":"osm-way-1342129569-car_dealership","properties":{"id":"osm-way-1342129569-car_dealership","name":"پێشانگای ئۆتۆمبێلی زەڕایەن","kind":"poi","tier":"poi_regional","priority":76.092,"context":"پێشانگای ئۆتۆمبیل","category":"پێشانگای ئۆتۆمبیل"},"geometry":{"type":"Point","coordinates":[45.6658976,35.3192647]}},{"type":"Feature","id":"osm-way-1361985417-residential","properties":{"id":"osm-way-1361985417-residential","name":"H_91","kind":"poi","tier":"poi_local","priority":68.045,"context":"کۆمپاوندی نیشتەجێبوون","category":"کۆمپاوندی نیشتەجێبوون"},"geometry":{"type":"Point","coordinates":[45.5895726,35.4241251]}},{"type":"Feature","id":"osm-way-1315060727-residential","properties":{"id":"osm-way-1315060727-residential","name":"Qaragoll","kind":"poi","tier":"poi_local","priority":68.045,"context":"کۆمپاوندی نیشتەجێبوون","category":"کۆمپاوندی نیشتەجێبوون"},"geometry":{"type":"Point","coordinates":[45.6292228,35.3533733]}},{"type":"Feature","id":"osm-way-311815633-residential","properties":{"id":"osm-way-311815633-residential","name":"ئالتون سیتی","kind":"poi","tier":"poi_local","priority":68.045,"context":"کۆمپاوندی نیشتەجێبوون","category":"کۆمپاوندی نیشتەجێبوون"},"geometry":{"type":"Point","coordinates":[45.5794234,35.4357039]}},{"type":"Feature","id":"osm-way-772702058-residential","properties":{"id":"osm-way-772702058-residential","name":"ئاوایی شێخ حسێن","kind":"poi","tier":"poi_local","priority":68.045,"context":"کۆمپاوندی نیشتەجێبوون","category":"کۆمپاوندی نیشتەجێبوون"},"geometry":{"type":"Point","coordinates":[45.7062204,35.3385075]}},{"type":"Feature","id":"osm-way-772935573-residential","properties":{"id":"osm-way-772935573-residential","name":"بادەرە","kind":"poi","tier":"poi_local","priority":68.045,"context":"کۆمپاوندی نیشتەجێبوون","category":"کۆمپاوندی نیشتەجێبوون"},"geometry":{"type":"Point","coordinates":[45.6835881,35.4039181]}},{"type":"Feature","id":"osm-way-788425120-residential","properties":{"id":"osm-way-788425120-residential","name":"بنگردی موان","kind":"poi","tier":"poi_local","priority":68.045,"context":"کۆمپاوندی نیشتەجێبوون","category":"کۆمپاوندی نیشتەجێبوون"},"geometry":{"type":"Point","coordinates":[45.7149025,35.3757136]}},{"type":"Feature","id":"osm-way-1375916257-residential","properties":{"id":"osm-way-1375916257-residential","name":"بێستان سووری بچووک","kind":"poi","tier":"poi_local","priority":68.045,"context":"کۆمپاوندی نیشتەجێبوون","category":"کۆمپاوندی نیشتەجێبوون"},"geometry":{"type":"Point","coordinates":[45.6448159,35.3835644]}},{"type":"Feature","id":"osm-way-1375916256-residential","properties":{"id":"osm-way-1375916256-residential","name":"بێستان سووری گەورە","kind":"poi","tier":"poi_local","priority":68.045,"context":"کۆمپاوندی نیشتەجێبوون","category":"کۆمپاوندی نیشتەجێبوون"},"geometry":{"type":"Point","coordinates":[45.6368535,35.377543]}},{"type":"Feature","id":"osm-way-1154466480-residential","properties":{"id":"osm-way-1154466480-residential","name":"حارساوا","kind":"poi","tier":"poi_local","priority":68.045,"context":"کۆمپاوندی نیشتەجێبوون","category":"کۆمپاوندی نیشتەجێبوون"},"geometry":{"type":"Point","coordinates":[45.5085559,35.4039937]}},{"type":"Feature","id":"osm-way-1154467078-residential","properties":{"id":"osm-way-1154467078-residential","name":"حەمەی بارام","kind":"poi","tier":"poi_local","priority":68.045,"context":"کۆمپاوندی نیشتەجێبوون","category":"کۆمپاوندی نیشتەجێبوون"},"geometry":{"type":"Point","coordinates":[45.5025469,35.4130446]}},{"type":"Feature","id":"osm-way-772936165-residential","properties":{"id":"osm-way-772936165-residential","name":"خرابە","kind":"poi","tier":"poi_local","priority":68.045,"context":"کۆمپاوندی نیشتەجێبوون","category":"کۆمپاوندی نیشتەجێبوون"},"geometry":{"type":"Point","coordinates":[45.647199,35.4236097]}},{"type":"Feature","id":"osm-way-1158875314-residential","properties":{"id":"osm-way-1158875314-residential","name":"داربەڕولە","kind":"poi","tier":"poi_local","priority":68.045,"context":"کۆمپاوندی نیشتەجێبوون","category":"کۆمپاوندی نیشتەجێبوون"},"geometry":{"type":"Point","coordinates":[45.5175468,35.4858406]}},{"type":"Feature","id":"osm-way-364373023-residential","properties":{"id":"osm-way-364373023-residential","name":"داری قەلان","kind":"poi","tier":"poi_local","priority":68.045,"context":"کۆمپاوندی نیشتەجێبوون","category":"کۆمپاوندی نیشتەجێبوون"},"geometry":{"type":"Point","coordinates":[45.7071235,35.3009192]}},{"type":"Feature","id":"osm-way-1154466323-residential","properties":{"id":"osm-way-1154466323-residential","name":"دێ ڕەمەزان","kind":"poi","tier":"poi_local","priority":68.045,"context":"کۆمپاوندی نیشتەجێبوون","category":"کۆمپاوندی نیشتەجێبوون"},"geometry":{"type":"Point","coordinates":[45.5101052,35.395332]}},{"type":"Feature","id":"osm-way-364373020-residential","properties":{"id":"osm-way-364373020-residential","name":"زەلەڕەش","kind":"poi","tier":"poi_local","priority":68.045,"context":"کۆمپاوندی نیشتەجێبوون","category":"کۆمپاوندی نیشتەجێبوون"},"geometry":{"type":"Point","coordinates":[45.6393567,35.2548543]}},{"type":"Feature","id":"osm-way-321689331-residential","properties":{"id":"osm-way-321689331-residential","name":"زەڕایەنی کۆن","kind":"poi","tier":"poi_local","priority":68.045,"context":"کۆمپاوندی نیشتەجێبوون","category":"کۆمپاوندی نیشتەجێبوون"},"geometry":{"type":"Point","coordinates":[45.6798715,35.3044644]}},{"type":"Feature","id":"osm-way-771899266-residential","properties":{"id":"osm-way-771899266-residential","name":"شیوی قازی","kind":"poi","tier":"poi_local","priority":68.045,"context":"کۆمپاوندی نیشتەجێبوون","category":"کۆمپاوندی نیشتەجێبوون"},"geometry":{"type":"Point","coordinates":[45.5151967,35.2808222]}},{"type":"Feature","id":"osm-way-1212000518-residential","properties":{"id":"osm-way-1212000518-residential","name":"شێرەبەرە","kind":"poi","tier":"poi_local","priority":68.045,"context":"کۆمپاوندی نیشتەجێبوون","category":"کۆمپاوندی نیشتەجێبوون"},"geometry":{"type":"Point","coordinates":[45.7403288,35.4264218]}},{"type":"Feature","id":"osm-way-771899552-residential","properties":{"id":"osm-way-771899552-residential","name":"قامیشان","kind":"poi","tier":"poi_local","priority":68.045,"context":"کۆمپاوندی نیشتەجێبوون","category":"کۆمپاوندی نیشتەجێبوون"},"geometry":{"type":"Point","coordinates":[45.5271525,35.2674358]}},{"type":"Feature","id":"osm-way-966828186-residential","properties":{"id":"osm-way-966828186-residential","name":"لانە ستی","kind":"poi","tier":"poi_local","priority":68.045,"context":"کۆمپاوندی نیشتەجێبوون","category":"کۆمپاوندی نیشتەجێبوون"},"geometry":{"type":"Point","coordinates":[45.6926811,35.3109907]}},{"type":"Feature","id":"osm-way-772702528-residential","properties":{"id":"osm-way-772702528-residential","name":"مالوانی حەمەعەزیز","kind":"poi","tier":"poi_local","priority":68.045,"context":"کۆمپاوندی نیشتەجێبوون","category":"کۆمپاوندی نیشتەجێبوون"},"geometry":{"type":"Point","coordinates":[45.733566,35.3251315]}},{"type":"Feature","id":"osm-way-364279819-residential","properties":{"id":"osm-way-364279819-residential","name":"موانی حەمەی حەسەن","kind":"poi","tier":"poi_local","priority":68.045,"context":"کۆمپاوندی نیشتەجێبوون","category":"کۆمپاوندی نیشتەجێبوون"},"geometry":{"type":"Point","coordinates":[45.7188599,35.3673287]}},{"type":"Feature","id":"osm-way-799817720-residential","properties":{"id":"osm-way-799817720-residential","name":"موانی محەممەد عەبدوڵڵا","kind":"poi","tier":"poi_local","priority":68.045,"context":"کۆمپاوندی نیشتەجێبوون","category":"کۆمپاوندی نیشتەجێبوون"},"geometry":{"type":"Point","coordinates":[45.7385056,35.3665481]}},{"type":"Feature","id":"osm-way-780973232-residential","properties":{"id":"osm-way-780973232-residential","name":"موانی ڕۆستەم","kind":"poi","tier":"poi_local","priority":68.045,"context":"کۆمپاوندی نیشتەجێبوون","category":"کۆمپاوندی نیشتەجێبوون"},"geometry":{"type":"Point","coordinates":[45.723135,35.3451584]}},{"type":"Feature","id":"osm-way-364279821-residential","properties":{"id":"osm-way-364279821-residential","name":"موانە کۆن","kind":"poi","tier":"poi_local","priority":68.045,"context":"کۆمپاوندی نیشتەجێبوون","category":"کۆمپاوندی نیشتەجێبوون"},"geometry":{"type":"Point","coordinates":[45.7423201,35.3580716]}},{"type":"Feature","id":"osm-way-372917154-residential","properties":{"id":"osm-way-372917154-residential","name":"مۆریاس","kind":"poi","tier":"poi_local","priority":68.045,"context":"کۆمپاوندی نیشتەجێبوون","category":"کۆمپاوندی نیشتەجێبوون"},"geometry":{"type":"Point","coordinates":[45.72559,35.4697044]}},{"type":"Feature","id":"osm-way-772701538-residential","properties":{"id":"osm-way-772701538-residential","name":"مەحمودخانی خواروو","kind":"poi","tier":"poi_local","priority":68.045,"context":"کۆمپاوندی نیشتەجێبوون","category":"کۆمپاوندی نیشتەجێبوون"},"geometry":{"type":"Point","coordinates":[45.7383679,35.3372874]}},{"type":"Feature","id":"osm-way-772701662-residential","properties":{"id":"osm-way-772701662-residential","name":"مەحمودخانی سەروو","kind":"poi","tier":"poi_local","priority":68.045,"context":"کۆمپاوندی نیشتەجێبوون","category":"کۆمپاوندی نیشتەجێبوون"},"geometry":{"type":"Point","coordinates":[45.722054,35.338279]}},{"type":"Feature","id":"osm-way-771896869-residential","properties":{"id":"osm-way-771896869-residential","name":"نەوتێ","kind":"poi","tier":"poi_local","priority":68.045,"context":"کۆمپاوندی نیشتەجێبوون","category":"کۆمپاوندی نیشتەجێبوون"},"geometry":{"type":"Point","coordinates":[45.5010978,35.2984898]}},{"type":"Feature","id":"osm-way-772935714-residential","properties":{"id":"osm-way-772935714-residential","name":"هەنجیرە","kind":"poi","tier":"poi_local","priority":68.045,"context":"کۆمپاوندی نیشتەجێبوون","category":"کۆمپاوندی نیشتەجێبوون"},"geometry":{"type":"Point","coordinates":[45.6928598,35.4147334]}},{"type":"Feature","id":"osm-way-772935922-residential","properties":{"id":"osm-way-772935922-residential","name":"هەنجیرەی کۆن","kind":"poi","tier":"poi_local","priority":68.045,"context":"کۆمپاوندی نیشتەجێبوون","category":"کۆمپاوندی نیشتەجێبوون"},"geometry":{"type":"Point","coordinates":[45.7010354,35.415832]}},{"type":"Feature","id":"osm-way-799814824-residential","properties":{"id":"osm-way-799814824-residential","name":"چەناخچیان","kind":"poi","tier":"poi_local","priority":68.045,"context":"کۆمپاوندی نیشتەجێبوون","category":"کۆمپاوندی نیشتەجێبوون"},"geometry":{"type":"Point","coordinates":[45.6788036,35.3964865]}},{"type":"Feature","id":"osm-way-766321289-residential","properties":{"id":"osm-way-766321289-residential","name":"کانی هەنجیر","kind":"poi","tier":"poi_local","priority":68.045,"context":"کۆمپاوندی نیشتەجێبوون","category":"کۆمپاوندی نیشتەجێبوون"},"geometry":{"type":"Point","coordinates":[45.6012757,35.2528911]}},{"type":"Feature","id":"osm-way-772706823-residential","properties":{"id":"osm-way-772706823-residential","name":"کانی کەوەی جوخ","kind":"poi","tier":"poi_local","priority":68.045,"context":"کۆمپاوندی نیشتەجێبوون","category":"کۆمپاوندی نیشتەجێبوون"},"geometry":{"type":"Point","coordinates":[45.7270069,35.3105168]}},{"type":"Feature","id":"osm-way-772706970-residential","properties":{"id":"osm-way-772706970-residential","name":"کانی کەوەی کۆن","kind":"poi","tier":"poi_local","priority":68.045,"context":"کۆمپاوندی نیشتەجێبوون","category":"کۆمپاوندی نیشتەجێبوون"},"geometry":{"type":"Point","coordinates":[45.7431297,35.3031194]}},{"type":"Feature","id":"osm-way-772710600-residential","properties":{"id":"osm-way-772710600-residential","name":"کۆڵەبی","kind":"poi","tier":"poi_local","priority":68.045,"context":"کۆمپاوندی نیشتەجێبوون","category":"کۆمپاوندی نیشتەجێبوون"},"geometry":{"type":"Point","coordinates":[45.6728508,35.2514947]}},{"type":"Feature","id":"osm-way-772936114-residential","properties":{"id":"osm-way-772936114-residential","name":"گەرمەیەرە","kind":"poi","tier":"poi_local","priority":68.045,"context":"کۆمپاوندی نیشتەجێبوون","category":"کۆمپاوندی نیشتەجێبوون"},"geometry":{"type":"Point","coordinates":[45.6591795,35.4434758]}},{"type":"Feature","id":"osm-way-772936581-residential","properties":{"id":"osm-way-772936581-residential","name":"گەڵباخ","kind":"poi","tier":"poi_local","priority":68.045,"context":"کۆمپاوندی نیشتەجێبوون","category":"کۆمپاوندی نیشتەجێبوون"},"geometry":{"type":"Point","coordinates":[45.5912207,35.4854883]}},{"type":"Feature","id":"osm-way-772706004-residential","properties":{"id":"osm-way-772706004-residential","name":"یەخشی خواروو","kind":"poi","tier":"poi_local","priority":68.045,"context":"کۆمپاوندی نیشتەجێبوون","category":"کۆمپاوندی نیشتەجێبوون"},"geometry":{"type":"Point","coordinates":[45.7110391,35.3123218]}},{"type":"Feature","id":"osm-way-772705068-residential","properties":{"id":"osm-way-772705068-residential","name":"یەخشی سەروو","kind":"poi","tier":"poi_local","priority":68.045,"context":"کۆمپاوندی نیشتەجێبوون","category":"کۆمپاوندی نیشتەجێبوون"},"geometry":{"type":"Point","coordinates":[45.6952204,35.2976858]}},{"type":"Feature","id":"osm-way-1387937879-building","properties":{"id":"osm-way-1387937879-building","name":"Hawary Bamok Concrete","kind":"poi","tier":"poi_local","priority":66.055,"context":"ناوچەی پیشەسازی","category":"ناوچەی پیشەسازی"},"geometry":{"type":"Point","coordinates":[45.5413743,35.4049543]}},{"type":"Feature","id":"osm-way-1299793937-industrial","properties":{"id":"osm-way-1299793937-industrial","name":"Berlin Cable","kind":"poi","tier":"poi_local","priority":66.045,"context":"ناوچەی پیشەسازی","category":"ناوچەی پیشەسازی"},"geometry":{"type":"Point","coordinates":[45.5517612,35.4150738]}},{"type":"Feature","id":"osm-way-1230856068-industrial","properties":{"id":"osm-way-1230856068-industrial","name":"DAX plant for bitumen and lube oil","kind":"poi","tier":"poi_local","priority":66.045,"context":"ناوچەی پیشەسازی","category":"ناوچەی پیشەسازی"},"geometry":{"type":"Point","coordinates":[45.5322589,35.3901925]}},{"type":"Feature","id":"osm-way-1299793933-industrial","properties":{"id":"osm-way-1299793933-industrial","name":"Irelex Company (Iraq aluminum extrusion)","kind":"poi","tier":"poi_local","priority":66.045,"context":"ناوچەی پیشەسازی","category":"ناوچەی پیشەسازی"},"geometry":{"type":"Point","coordinates":[45.5541569,35.4068893]}},{"type":"Feature","id":"osm-way-1376446886-industrial","properties":{"id":"osm-way-1376446886-industrial","name":"Nasr Substation","kind":"poi","tier":"poi_local","priority":66.045,"context":"ناوچەی پیشەسازی","category":"ناوچەی پیشەسازی"},"geometry":{"type":"Point","coordinates":[45.6343392,35.3454114]}},{"type":"Feature","id":"osm-way-1286331587-industrial","properties":{"id":"osm-way-1286331587-industrial","name":"Phoenix Refinery","kind":"poi","tier":"poi_local","priority":66.045,"context":"ناوچەی پیشەسازی","category":"ناوچەی پیشەسازی"},"geometry":{"type":"Point","coordinates":[45.5608026,35.424778]}},{"type":"Feature","id":"osm-way-909706753-industrial","properties":{"id":"osm-way-909706753-industrial","name":"کارگەی ڕۆنی عەربەت","kind":"poi","tier":"poi_local","priority":66.045,"context":"ناوچەی پیشەسازی","category":"ناوچەی پیشەسازی"},"geometry":{"type":"Point","coordinates":[45.5847985,35.416745]}},{"type":"Feature","id":"osm-way-1157717962-industrial","properties":{"id":"osm-way-1157717962-industrial","name":"کوشتارگەی نوێی سلێمانی","kind":"poi","tier":"poi_local","priority":66.045,"context":"ناوچەی پیشەسازی","category":"ناوچەی پیشەسازی"},"geometry":{"type":"Point","coordinates":[45.6184336,35.3564069]}},{"type":"Feature","id":"osm-way-489137239-industrial","properties":{"id":"osm-way-489137239-industrial","name":"کۆگای نەوت و سووتەمەنی عەربەت","kind":"poi","tier":"poi_local","priority":66.045,"context":"ناوچەی پیشەسازی","category":"ناوچەی پیشەسازی"},"geometry":{"type":"Point","coordinates":[45.5558149,35.4568959]}},{"type":"Feature","id":"osm-node-4750458822-supermarket","properties":{"id":"osm-node-4750458822-supermarket","name":"farhang","kind":"poi","tier":"poi_detail","priority":50.1,"context":"سۆپەرمارکێت","category":"سۆپەرمارکێت"},"geometry":{"type":"Point","coordinates":[45.6846546,35.3215074]}},{"type":"Feature","id":"osm-node-4746569621-supermarket","properties":{"id":"osm-node-4746569621-supermarket","name":"haidar","kind":"poi","tier":"poi_detail","priority":50.1,"context":"سۆپەرمارکێت","category":"سۆپەرمارکێت"},"geometry":{"type":"Point","coordinates":[45.6835541,35.3248305]}},{"type":"Feature","id":"osm-node-12811570926-restaurant","properties":{"id":"osm-node-12811570926-restaurant","name":"kabab hersh","kind":"poi","tier":"poi_detail","priority":50.1,"context":"چێشتخانە","category":"چێشتخانە"},"geometry":{"type":"Point","coordinates":[45.6805842,35.3062281]}},{"type":"Feature","id":"osm-node-4746558024-supermarket","properties":{"id":"osm-node-4746558024-supermarket","name":"kak abdulla","kind":"poi","tier":"poi_detail","priority":50.1,"context":"سۆپەرمارکێت","category":"سۆپەرمارکێت"},"geometry":{"type":"Point","coordinates":[45.6830646,35.3266695]}},{"type":"Feature","id":"osm-node-4743125024-supermarket","properties":{"id":"osm-node-4743125024-supermarket","name":"kak ali","kind":"poi","tier":"poi_detail","priority":50.1,"context":"سۆپەرمارکێت","category":"سۆپەرمارکێت"},"geometry":{"type":"Point","coordinates":[45.6914404,35.3267494]}},{"type":"Feature","id":"osm-node-4789730323-supermarket","properties":{"id":"osm-node-4789730323-supermarket","name":"kak bilal","kind":"poi","tier":"poi_detail","priority":50.1,"context":"سۆپەرمارکێت","category":"سۆپەرمارکێت"},"geometry":{"type":"Point","coordinates":[45.6951285,35.3243087]}},{"type":"Feature","id":"osm-node-4754030322-supermarket","properties":{"id":"osm-node-4754030322-supermarket","name":"kak dyari","kind":"poi","tier":"poi_detail","priority":50.1,"context":"سۆپەرمارکێت","category":"سۆپەرمارکێت"},"geometry":{"type":"Point","coordinates":[45.6863137,35.317814]}},{"type":"Feature","id":"osm-node-4769099347-supermarket","properties":{"id":"osm-node-4769099347-supermarket","name":"kak fatah","kind":"poi","tier":"poi_detail","priority":50.1,"context":"سۆپەرمارکێت","category":"سۆپەرمارکێت"},"geometry":{"type":"Point","coordinates":[45.6693111,35.3162968]}},{"type":"Feature","id":"osm-node-4743155121-supermarket","properties":{"id":"osm-node-4743155121-supermarket","name":"kak fatih","kind":"poi","tier":"poi_detail","priority":50.1,"context":"سۆپەرمارکێت","category":"سۆپەرمارکێت"},"geometry":{"type":"Point","coordinates":[45.6894959,35.3268342]}},{"type":"Feature","id":"osm-node-4754030321-supermarket","properties":{"id":"osm-node-4754030321-supermarket","name":"kak hama rawf","kind":"poi","tier":"poi_detail","priority":50.1,"context":"سۆپەرمارکێت","category":"سۆپەرمارکێت"},"geometry":{"type":"Point","coordinates":[45.6884327,35.3174305]}},{"type":"Feature","id":"osm-node-4815226121-supermarket","properties":{"id":"osm-node-4815226121-supermarket","name":"kak harem","kind":"poi","tier":"poi_detail","priority":50.1,"context":"سۆپەرمارکێت","category":"سۆپەرمارکێت"},"geometry":{"type":"Point","coordinates":[45.6921994,35.3211836]}},{"type":"Feature","id":"osm-node-4759270821-supermarket","properties":{"id":"osm-node-4759270821-supermarket","name":"kak hassan","kind":"poi","tier":"poi_detail","priority":50.1,"context":"سۆپەرمارکێت","category":"سۆپەرمارکێت"},"geometry":{"type":"Point","coordinates":[45.6687456,35.3170375]}},{"type":"Feature","id":"osm-node-4735970423-supermarket","properties":{"id":"osm-node-4735970423-supermarket","name":"kak jamal","kind":"poi","tier":"poi_detail","priority":50.1,"context":"سۆپەرمارکێت","category":"سۆپەرمارکێت"},"geometry":{"type":"Point","coordinates":[45.6928928,35.3263186]}},{"type":"Feature","id":"osm-node-4743125025-supermarket","properties":{"id":"osm-node-4743125025-supermarket","name":"kak kaiwan","kind":"poi","tier":"poi_detail","priority":50.1,"context":"سۆپەرمارکێت","category":"سۆپەرمارکێت"},"geometry":{"type":"Point","coordinates":[45.6874681,35.325411]}},{"type":"Feature","id":"osm-node-4730352790-supermarket","properties":{"id":"osm-node-4730352790-supermarket","name":"kak mhamad 11","kind":"poi","tier":"poi_detail","priority":50.1,"context":"سۆپەرمارکێت","category":"سۆپەرمارکێت"},"geometry":{"type":"Point","coordinates":[45.6919275,35.3227777]}},{"type":"Feature","id":"osm-node-4743155122-supermarket","properties":{"id":"osm-node-4743155122-supermarket","name":"kak muhammed","kind":"poi","tier":"poi_detail","priority":50.1,"context":"سۆپەرمارکێت","category":"سۆپەرمارکێت"},"geometry":{"type":"Point","coordinates":[45.683845,35.3276715]}},{"type":"Feature","id":"osm-node-4730352789-supermarket","properties":{"id":"osm-node-4730352789-supermarket","name":"kak osman","kind":"poi","tier":"poi_detail","priority":50.1,"context":"سۆپەرمارکێت","category":"سۆپەرمارکێت"},"geometry":{"type":"Point","coordinates":[45.6947609,35.3205351]}},{"type":"Feature","id":"osm-node-4743125026-supermarket","properties":{"id":"osm-node-4743125026-supermarket","name":"kak qadr","kind":"poi","tier":"poi_detail","priority":50.1,"context":"سۆپەرمارکێت","category":"سۆپەرمارکێت"},"geometry":{"type":"Point","coordinates":[45.6922576,35.3290803]}},{"type":"Feature","id":"osm-node-4746558025-supermarket","properties":{"id":"osm-node-4746558025-supermarket","name":"kak qazi","kind":"poi","tier":"poi_detail","priority":50.1,"context":"سۆپەرمارکێت","category":"سۆپەرمارکێت"},"geometry":{"type":"Point","coordinates":[45.6829951,35.3254631]}},{"type":"Feature","id":"osm-node-4743132924-supermarket","properties":{"id":"osm-node-4743132924-supermarket","name":"kak rawf","kind":"poi","tier":"poi_detail","priority":50.1,"context":"سۆپەرمارکێت","category":"سۆپەرمارکێت"},"geometry":{"type":"Point","coordinates":[45.6866547,35.3253742]}},{"type":"Feature","id":"osm-node-4789701426-supermarket","properties":{"id":"osm-node-4789701426-supermarket","name":"kak salh","kind":"poi","tier":"poi_detail","priority":50.1,"context":"سۆپەرمارکێت","category":"سۆپەرمارکێت"},"geometry":{"type":"Point","coordinates":[45.6968531,35.3165575]}},{"type":"Feature","id":"osm-node-4746558023-supermarket","properties":{"id":"osm-node-4746558023-supermarket","name":"kak sarbaz","kind":"poi","tier":"poi_detail","priority":50.1,"context":"سۆپەرمارکێت","category":"سۆپەرمارکێت"},"geometry":{"type":"Point","coordinates":[45.6827148,35.3269933]}},{"type":"Feature","id":"osm-node-4743155222-supermarket","properties":{"id":"osm-node-4743155222-supermarket","name":"kak twana","kind":"poi","tier":"poi_detail","priority":50.1,"context":"سۆپەرمارکێت","category":"سۆپەرمارکێت"},"geometry":{"type":"Point","coordinates":[45.6902233,35.327622]}},{"type":"Feature","id":"osm-node-8972192617-supermarket","properties":{"id":"osm-node-8972192617-supermarket","name":"market uk","kind":"poi","tier":"poi_detail","priority":50.1,"context":"سۆپەرمارکێت","category":"سۆپەرمارکێت"},"geometry":{"type":"Point","coordinates":[45.6848991,35.3237164]}},{"type":"Feature","id":"osm-node-4724181296-supermarket","properties":{"id":"osm-node-4724181296-supermarket","name":"markety abdulla","kind":"poi","tier":"poi_detail","priority":50.1,"context":"سۆپەرمارکێت","category":"سۆپەرمارکێت"},"geometry":{"type":"Point","coordinates":[45.6968088,35.3219577]}},{"type":"Feature","id":"osm-node-4770861125-supermarket","properties":{"id":"osm-node-4770861125-supermarket","name":"markety aemran","kind":"poi","tier":"poi_detail","priority":50.1,"context":"سۆپەرمارکێت","category":"سۆپەرمارکێت"},"geometry":{"type":"Point","coordinates":[45.6675406,35.3137533]}},{"type":"Feature","id":"osm-node-4724181198-supermarket","properties":{"id":"osm-node-4724181198-supermarket","name":"markety ahmad","kind":"poi","tier":"poi_detail","priority":50.1,"context":"سۆپەرمارکێت","category":"سۆپەرمارکێت"},"geometry":{"type":"Point","coordinates":[45.6963731,35.3176905]}},{"type":"Feature","id":"osm-node-4730352489-supermarket","properties":{"id":"osm-node-4730352489-supermarket","name":"markety bamo","kind":"poi","tier":"poi_detail","priority":50.1,"context":"سۆپەرمارکێت","category":"سۆپەرمارکێت"},"geometry":{"type":"Point","coordinates":[45.6941382,35.3212574]}},{"type":"Feature","id":"osm-node-4754150225-supermarket","properties":{"id":"osm-node-4754150225-supermarket","name":"markety bawan","kind":"poi","tier":"poi_detail","priority":50.1,"context":"سۆپەرمارکێت","category":"سۆپەرمارکێت"},"geometry":{"type":"Point","coordinates":[45.6727681,35.3202536]}},{"type":"Feature","id":"osm-node-4770861126-supermarket","properties":{"id":"osm-node-4770861126-supermarket","name":"markety dostan (bryar)","kind":"poi","tier":"poi_detail","priority":50.1,"context":"سۆپەرمارکێت","category":"سۆپەرمارکێت"},"geometry":{"type":"Point","coordinates":[45.6695892,35.3151798]}},{"type":"Feature","id":"osm-node-4776651021-supermarket","properties":{"id":"osm-node-4776651021-supermarket","name":"markety drwd","kind":"poi","tier":"poi_detail","priority":50.1,"context":"سۆپەرمارکێت","category":"سۆپەرمارکێت"},"geometry":{"type":"Point","coordinates":[45.672343,35.3123836]}},{"type":"Feature","id":"osm-node-4754861330-supermarket","properties":{"id":"osm-node-4754861330-supermarket","name":"markety dyari (m.3aziz)","kind":"poi","tier":"poi_detail","priority":50.1,"context":"سۆپەرمارکێت","category":"سۆپەرمارکێت"},"geometry":{"type":"Point","coordinates":[45.676018,35.3142511]}},{"type":"Feature","id":"osm-node-4796737921-supermarket","properties":{"id":"osm-node-4796737921-supermarket","name":"markety goran","kind":"poi","tier":"poi_detail","priority":50.1,"context":"سۆپەرمارکێت","category":"سۆپەرمارکێت"},"geometry":{"type":"Point","coordinates":[45.6914577,35.3233193]}},{"type":"Feature","id":"osm-node-4754155221-supermarket","properties":{"id":"osm-node-4754155221-supermarket","name":"markety haval","kind":"poi","tier":"poi_detail","priority":50.1,"context":"سۆپەرمارکێت","category":"سۆپەرمارکێت"},"geometry":{"type":"Point","coordinates":[45.6733454,35.3192454]}},{"type":"Feature","id":"osm-node-4754154223-supermarket","properties":{"id":"osm-node-4754154223-supermarket","name":"markety hawraman","kind":"poi","tier":"poi_detail","priority":50.1,"context":"سۆپەرمارکێت","category":"سۆپەرمارکێت"},"geometry":{"type":"Point","coordinates":[45.6732751,35.3202621]}},{"type":"Feature","id":"osm-node-4776650921-supermarket","properties":{"id":"osm-node-4776650921-supermarket","name":"markety hevar (barham)","kind":"poi","tier":"poi_detail","priority":50.1,"context":"سۆپەرمارکێت","category":"سۆپەرمارکێت"},"geometry":{"type":"Point","coordinates":[45.6683797,35.315571]}},{"type":"Feature","id":"osm-node-4743132925-supermarket","properties":{"id":"osm-node-4743132925-supermarket","name":"markety karwan","kind":"poi","tier":"poi_detail","priority":50.1,"context":"سۆپەرمارکێت","category":"سۆپەرمارکێت"},"geometry":{"type":"Point","coordinates":[45.6872517,35.3274333]}},{"type":"Feature","id":"osm-node-4756497729-supermarket","properties":{"id":"osm-node-4756497729-supermarket","name":"markety mabast K.atta","kind":"poi","tier":"poi_detail","priority":50.1,"context":"سۆپەرمارکێت","category":"سۆپەرمارکێت"},"geometry":{"type":"Point","coordinates":[45.6748176,35.3154469]}},{"type":"Feature","id":"osm-node-4724181199-supermarket","properties":{"id":"osm-node-4724181199-supermarket","name":"markety marwan","kind":"poi","tier":"poi_detail","priority":50.1,"context":"سۆپەرمارکێت","category":"سۆپەرمارکێت"},"geometry":{"type":"Point","coordinates":[45.6965904,35.3218199]}},{"type":"Feature","id":"osm-node-4743155221-supermarket","properties":{"id":"osm-node-4743155221-supermarket","name":"markety mhamad","kind":"poi","tier":"poi_detail","priority":50.1,"context":"سۆپەرمارکێت","category":"سۆپەرمارکێت"},"geometry":{"type":"Point","coordinates":[45.6914228,35.3285156]}},{"type":"Feature","id":"osm-node-4724180994-supermarket","properties":{"id":"osm-node-4724180994-supermarket","name":"markety omer","kind":"poi","tier":"poi_detail","priority":50.1,"context":"سۆپەرمارکێت","category":"سۆپەرمارکێت"},"geometry":{"type":"Point","coordinates":[45.6969132,35.322061]}},{"type":"Feature","id":"osm-node-4743132926-supermarket","properties":{"id":"osm-node-4743132926-supermarket","name":"markety peshawa","kind":"poi","tier":"poi_detail","priority":50.1,"context":"سۆپەرمارکێت","category":"سۆپەرمارکێت"},"geometry":{"type":"Point","coordinates":[45.6876341,35.3286521]}},{"type":"Feature","id":"osm-node-4776650721-supermarket","properties":{"id":"osm-node-4776650721-supermarket","name":"markety ramyar","kind":"poi","tier":"poi_detail","priority":50.1,"context":"سۆپەرمارکێت","category":"سۆپەرمارکێت"},"geometry":{"type":"Point","coordinates":[45.6698303,35.3141988]}},{"type":"Feature","id":"osm-node-4754861329-supermarket","properties":{"id":"osm-node-4754861329-supermarket","name":"markety shar","kind":"poi","tier":"poi_detail","priority":50.1,"context":"سۆپەرمارکێت","category":"سۆپەرمارکێت"},"geometry":{"type":"Point","coordinates":[45.67624,35.3151987]}},{"type":"Feature","id":"osm-node-4750458825-supermarket","properties":{"id":"osm-node-4750458825-supermarket","name":"mhamad","kind":"poi","tier":"poi_detail","priority":50.1,"context":"سۆپەرمارکێت","category":"سۆپەرمارکێت"},"geometry":{"type":"Point","coordinates":[45.6887271,35.3186155]}},{"type":"Feature","id":"osm-node-4750458824-supermarket","properties":{"id":"osm-node-4750458824-supermarket","name":"mini markety rayan","kind":"poi","tier":"poi_detail","priority":50.1,"context":"سۆپەرمارکێت","category":"سۆپەرمارکێت"},"geometry":{"type":"Point","coordinates":[45.6874545,35.3185709]}},{"type":"Feature","id":"osm-node-4782269221-supermarket","properties":{"id":"osm-node-4782269221-supermarket","name":"mini markety zarayan (bestwn)","kind":"poi","tier":"poi_detail","priority":50.1,"context":"سۆپەرمارکێت","category":"سۆپەرمارکێت"},"geometry":{"type":"Point","coordinates":[45.6710301,35.3138822]}},{"type":"Feature","id":"osm-node-4754853322-supermarket","properties":{"id":"osm-node-4754853322-supermarket","name":"minimarkety ashty","kind":"poi","tier":"poi_detail","priority":50.1,"context":"سۆپەرمارکێت","category":"سۆپەرمارکێت"},"geometry":{"type":"Point","coordinates":[45.67407,35.3148197]}},{"type":"Feature","id":"osm-node-4750458823-supermarket","properties":{"id":"osm-node-4750458823-supermarket","name":"rasty","kind":"poi","tier":"poi_detail","priority":50.1,"context":"سۆپەرمارکێت","category":"سۆپەرمارکێت"},"geometry":{"type":"Point","coordinates":[45.6868267,35.3212397]}},{"type":"Feature","id":"osm-node-4754861328-supermarket","properties":{"id":"osm-node-4754861328-supermarket","name":"supermarkety kamil","kind":"poi","tier":"poi_detail","priority":50.1,"context":"سۆپەرمارکێت","category":"سۆپەرمارکێت"},"geometry":{"type":"Point","coordinates":[45.6759505,35.314967]}},{"type":"Feature","id":"osm-node-11800130169-clinic","properties":{"id":"osm-node-11800130169-clinic","name":"ئاسوودە مێدیکاڵ کلینیک","kind":"poi","tier":"poi_detail","priority":50.1,"context":"کلینیک","category":"کلینیک"},"geometry":{"type":"Point","coordinates":[45.6858912,35.3240511]}},{"type":"Feature","id":"osm-node-8196242318-school","properties":{"id":"osm-node-8196242318-school","name":"ئامادەی عەربەتی کوڕان","kind":"poi","tier":"poi_detail","priority":50.1,"context":"قوتابخانە","category":"قوتابخانە"},"geometry":{"type":"Point","coordinates":[45.5882272,35.4318639]}},{"type":"Feature","id":"osm-node-6981257838-school","properties":{"id":"osm-node-6981257838-school","name":"ئامادەیی شەهید دانای کوڕان","kind":"poi","tier":"poi_detail","priority":50.1,"context":"قوتابخانە","category":"قوتابخانە"},"geometry":{"type":"Point","coordinates":[45.6865253,35.3186279]}},{"type":"Feature","id":"osm-node-9934959521-school","properties":{"id":"osm-node-9934959521-school","name":"ئامادەیی قەرەگۆلی تێکەڵاو","kind":"poi","tier":"poi_detail","priority":50.1,"context":"قوتابخانە","category":"قوتابخانە"},"geometry":{"type":"Point","coordinates":[45.6264851,35.3547899]}},{"type":"Feature","id":"osm-node-4806590922-supermarket","properties":{"id":"osm-node-4806590922-supermarket","name":"جوملەفرۆشی ڕامان","kind":"poi","tier":"poi_detail","priority":50.1,"context":"سۆپەرمارکێت","category":"سۆپەرمارکێت"},"geometry":{"type":"Point","coordinates":[45.6712889,35.3148976]}},{"type":"Feature","id":"osm-node-5989283687-school","properties":{"id":"osm-node-5989283687-school","name":"خە رمانانی بنەرەتی","kind":"poi","tier":"poi_detail","priority":50.1,"context":"قوتابخانە","category":"قوتابخانە"},"geometry":{"type":"Point","coordinates":[45.703441,35.3806134]}},{"type":"Feature","id":"osm-node-10093576673-pharmacy","properties":{"id":"osm-node-10093576673-pharmacy","name":"دەرمانخانەی د. قاسم","kind":"poi","tier":"poi_detail","priority":50.1,"context":"دەرمانخانە","category":"دەرمانخانە"},"geometry":{"type":"Point","coordinates":[45.6958034,35.3165734]}},{"type":"Feature","id":"osm-node-6802411186-pharmacy","properties":{"id":"osm-node-6802411186-pharmacy","name":"دەرمانخانەی دەریا","kind":"poi","tier":"poi_detail","priority":50.1,"context":"دەرمانخانە","category":"دەرمانخانە"},"geometry":{"type":"Point","coordinates":[45.6704578,35.3158202]}},{"type":"Feature","id":"osm-node-11731019611-pharmacy","properties":{"id":"osm-node-11731019611-pharmacy","name":"دەرمانخانەی سەردەشت","kind":"poi","tier":"poi_detail","priority":50.1,"context":"دەرمانخانە","category":"دەرمانخانە"},"geometry":{"type":"Point","coordinates":[45.6706047,35.3136508]}},{"type":"Feature","id":"osm-node-8971655818-clinic","properties":{"id":"osm-node-8971655818-clinic","name":"دەرمانخانەی شیفا","kind":"poi","tier":"poi_detail","priority":50.1,"context":"کلینیک","category":"کلینیک"},"geometry":{"type":"Point","coordinates":[45.6756181,35.3175436]}},{"type":"Feature","id":"osm-node-8971644919-pharmacy","properties":{"id":"osm-node-8971644919-pharmacy","name":"دەرمانخانەی شیفا","kind":"poi","tier":"poi_detail","priority":50.1,"context":"دەرمانخانە","category":"دەرمانخانە"},"geometry":{"type":"Point","coordinates":[45.6705636,35.3157394]}},{"type":"Feature","id":"osm-node-10689389505-pharmacy","properties":{"id":"osm-node-10689389505-pharmacy","name":"دەرمانخانەی پۆینت","kind":"poi","tier":"poi_detail","priority":50.1,"context":"دەرمانخانە","category":"دەرمانخانە"},"geometry":{"type":"Point","coordinates":[45.5862701,35.4267139]}},{"type":"Feature","id":"osm-node-4985282323-supermarket","properties":{"id":"osm-node-4985282323-supermarket","name":"سوبةرماركيتى شكار","kind":"poi","tier":"poi_detail","priority":50.1,"context":"سۆپەرمارکێت","category":"سۆپەرمارکێت"},"geometry":{"type":"Point","coordinates":[45.6850038,35.3236437]}},{"type":"Feature","id":"osm-node-5006126728-supermarket","properties":{"id":"osm-node-5006126728-supermarket","name":"سوپەرمارکێتی وەزیر","kind":"poi","tier":"poi_detail","priority":50.1,"context":"سۆپەرمارکێت","category":"سۆپەرمارکێت"},"geometry":{"type":"Point","coordinates":[45.6904589,35.3126046]}},{"type":"Feature","id":"osm-node-6146123485-supermarket","properties":{"id":"osm-node-6146123485-supermarket","name":"سۆپەرمارکێتی پاریس","kind":"poi","tier":"poi_detail","priority":50.1,"context":"سۆپەرمارکێت","category":"سۆپەرمارکێت"},"geometry":{"type":"Point","coordinates":[45.6908152,35.3153922]}},{"type":"Feature","id":"osm-node-8435716141-pharmacy","properties":{"id":"osm-node-8435716141-pharmacy","name":"صیدلیه عه ربه ت","kind":"poi","tier":"poi_detail","priority":50.1,"context":"دەرمانخانە","category":"دەرمانخانە"},"geometry":{"type":"Point","coordinates":[45.5831373,35.4281212]}},{"type":"Feature","id":"osm-node-8446483032-pharmacy","properties":{"id":"osm-node-8446483032-pharmacy","name":"صیدلیه نینیا","kind":"poi","tier":"poi_detail","priority":50.1,"context":"دەرمانخانە","category":"دەرمانخانە"},"geometry":{"type":"Point","coordinates":[45.5827139,35.4284945]}},{"type":"Feature","id":"osm-node-5646771527-school","properties":{"id":"osm-node-5646771527-school","name":"عه ربه تی بنه ره تی","kind":"poi","tier":"poi_detail","priority":50.1,"context":"قوتابخانە","category":"قوتابخانە"},"geometry":{"type":"Point","coordinates":[45.5822214,35.4286627]}},{"type":"Feature","id":"osm-node-4711837596-supermarket","properties":{"id":"osm-node-4711837596-supermarket","name":"فروشگای بوکان","kind":"poi","tier":"poi_detail","priority":50.1,"context":"سۆپەرمارکێت","category":"سۆپەرمارکێت"},"geometry":{"type":"Point","coordinates":[45.6935321,35.3221017]}},{"type":"Feature","id":"osm-node-5216471022-supermarket","properties":{"id":"osm-node-5216471022-supermarket","name":"فرۆشگای مەولەوی","kind":"poi","tier":"poi_detail","priority":50.1,"context":"سۆپەرمارکێت","category":"سۆپەرمارکێت"},"geometry":{"type":"Point","coordinates":[45.692311,35.3170667]}},{"type":"Feature","id":"osm-node-6813755688-supermarket","properties":{"id":"osm-node-6813755688-supermarket","name":"لەنگەی زەڕایەن","kind":"poi","tier":"poi_detail","priority":50.1,"context":"سۆپەرمارکێت","category":"سۆپەرمارکێت"},"geometry":{"type":"Point","coordinates":[45.6731174,35.3204374]}},{"type":"Feature","id":"osm-node-4724181295-supermarket","properties":{"id":"osm-node-4724181295-supermarket","name":"مارکیتی بەکر نەورولی","kind":"poi","tier":"poi_detail","priority":50.1,"context":"سۆپەرمارکێت","category":"سۆپەرمارکێت"},"geometry":{"type":"Point","coordinates":[45.6940649,35.3166642]}},{"type":"Feature","id":"osm-node-4406772491-supermarket","properties":{"id":"osm-node-4406772491-supermarket","name":"مارکیتی هه ورامان","kind":"poi","tier":"poi_detail","priority":50.1,"context":"سۆپەرمارکێت","category":"سۆپەرمارکێت"},"geometry":{"type":"Point","coordinates":[45.5838239,35.4247168]}},{"type":"Feature","id":"osm-node-5344794925-supermarket","properties":{"id":"osm-node-5344794925-supermarket","name":"مارکیتی گەرمییان","kind":"poi","tier":"poi_detail","priority":50.1,"context":"سۆپەرمارکێت","category":"سۆپەرمارکێت"},"geometry":{"type":"Point","coordinates":[45.5836161,35.4115152]}},{"type":"Feature","id":"osm-node-8971645324-supermarket","properties":{"id":"osm-node-8971645324-supermarket","name":"مارکێتی ئەندێشە","kind":"poi","tier":"poi_detail","priority":50.1,"context":"سۆپەرمارکێت","category":"سۆپەرمارکێت"},"geometry":{"type":"Point","coordinates":[45.6766261,35.3166858]}},{"type":"Feature","id":"osm-node-11839317658-supermarket","properties":{"id":"osm-node-11839317658-supermarket","name":"مارکێتی بەرلین","kind":"poi","tier":"poi_detail","priority":50.1,"context":"سۆپەرمارکێت","category":"سۆپەرمارکێت"},"geometry":{"type":"Point","coordinates":[45.6804931,35.3202266]}},{"type":"Feature","id":"osm-node-8196246617-supermarket","properties":{"id":"osm-node-8196246617-supermarket","name":"مارکێتی دروود","kind":"poi","tier":"poi_detail","priority":50.1,"context":"سۆپەرمارکێت","category":"سۆپەرمارکێت"},"geometry":{"type":"Point","coordinates":[45.5842189,35.427727]}},{"type":"Feature","id":"osm-node-4759267331-supermarket","properties":{"id":"osm-node-4759267331-supermarket","name":"مارکێتی سەرناو","kind":"poi","tier":"poi_detail","priority":50.1,"context":"سۆپەرمارکێت","category":"سۆپەرمارکێت"},"geometry":{"type":"Point","coordinates":[45.667949,35.3177238]}},{"type":"Feature","id":"osm-node-11839317657-supermarket","properties":{"id":"osm-node-11839317657-supermarket","name":"مارکێتی سەیوان","kind":"poi","tier":"poi_detail","priority":50.1,"context":"سۆپەرمارکێت","category":"سۆپەرمارکێت"},"geometry":{"type":"Point","coordinates":[45.6802306,35.3204674]}},{"type":"Feature","id":"osm-node-6146122288-supermarket","properties":{"id":"osm-node-6146122288-supermarket","name":"مارکێتی فارس","kind":"poi","tier":"poi_detail","priority":50.1,"context":"سۆپەرمارکێت","category":"سۆپەرمارکێت"},"geometry":{"type":"Point","coordinates":[45.6906085,35.3161104]}},{"type":"Feature","id":"osm-node-6959643888-supermarket","properties":{"id":"osm-node-6959643888-supermarket","name":"مارکێتی محەمەد ناسیح","kind":"poi","tier":"poi_detail","priority":50.1,"context":"سۆپەرمارکێت","category":"سۆپەرمارکێت"},"geometry":{"type":"Point","coordinates":[45.6714025,35.3150789]}},{"type":"Feature","id":"osm-node-4724181695-supermarket","properties":{"id":"osm-node-4724181695-supermarket","name":"مارکێتی وڵات","kind":"poi","tier":"poi_detail","priority":50.1,"context":"سۆپەرمارکێت","category":"سۆپەرمارکێت"},"geometry":{"type":"Point","coordinates":[45.6849481,35.3115162]}},{"type":"Feature","id":"osm-node-4763503523-supermarket","properties":{"id":"osm-node-4763503523-supermarket","name":"مارکێتی وێنا","kind":"poi","tier":"poi_detail","priority":50.1,"context":"سۆپەرمارکێت","category":"سۆپەرمارکێت"},"geometry":{"type":"Point","coordinates":[45.6677363,35.3174186]}},{"type":"Feature","id":"osm-node-11839317652-supermarket","properties":{"id":"osm-node-11839317652-supermarket","name":"مارکێتی کاڵاس","kind":"poi","tier":"poi_detail","priority":50.1,"context":"سۆپەرمارکێت","category":"سۆپەرمارکێت"},"geometry":{"type":"Point","coordinates":[45.6810639,35.3210675]}},{"type":"Feature","id":"osm-node-4904832823-clinic","properties":{"id":"osm-node-4904832823-clinic","name":"نۆرینگەی د. قاسم","kind":"poi","tier":"poi_detail","priority":50.1,"context":"کلینیک","category":"کلینیک"},"geometry":{"type":"Point","coordinates":[45.6958378,35.3165274]}},{"type":"Feature","id":"osm-node-6206297485-supermarket","properties":{"id":"osm-node-6206297485-supermarket","name":"هەرزان بازاڕی ئەستێرە","kind":"poi","tier":"poi_detail","priority":50.1,"context":"سۆپەرمارکێت","category":"سۆپەرمارکێت"},"geometry":{"type":"Point","coordinates":[45.6696806,35.3164575]}},{"type":"Feature","id":"osm-node-6802537585-supermarket","properties":{"id":"osm-node-6802537585-supermarket","name":"هەرزان بازاڕی نووسەر","kind":"poi","tier":"poi_detail","priority":50.1,"context":"سۆپەرمارکێت","category":"سۆپەرمارکێت"},"geometry":{"type":"Point","coordinates":[45.6726182,35.3137687]}},{"type":"Feature","id":"osm-node-8971645326-supermarket","properties":{"id":"osm-node-8971645326-supermarket","name":"هەزار سەنتەر","kind":"poi","tier":"poi_detail","priority":50.1,"context":"سۆپەرمارکێت","category":"سۆپەرمارکێت"},"geometry":{"type":"Point","coordinates":[45.6730807,35.3204184]}},{"type":"Feature","id":"osm-node-4709596089-supermarket","properties":{"id":"osm-node-4709596089-supermarket","name":"هەفتەبازاڕی شنەبای دەریا","kind":"poi","tier":"poi_detail","priority":50.1,"context":"سۆپەرمارکێت","category":"سۆپەرمارکێت"},"geometry":{"type":"Point","coordinates":[45.6822367,35.3214402]}},{"type":"Feature","id":"osm-node-8971644928-supermarket","properties":{"id":"osm-node-8971644928-supermarket","name":"هەفتەبازاڕی میللەت","kind":"poi","tier":"poi_detail","priority":50.1,"context":"سۆپەرمارکێت","category":"سۆپەرمارکێت"},"geometry":{"type":"Point","coordinates":[45.6849444,35.319939]}},{"type":"Feature","id":"osm-node-7006452385-restaurant","properties":{"id":"osm-node-7006452385-restaurant","name":"چێشتخانە و کەبابی مەولەوی","kind":"poi","tier":"poi_detail","priority":50.1,"context":"چێشتخانە","category":"چێشتخانە"},"geometry":{"type":"Point","coordinates":[45.6716369,35.3148018]}},{"type":"Feature","id":"osm-node-5323331624-restaurant","properties":{"id":"osm-node-5323331624-restaurant","name":"چێشتخانەی جاران","kind":"poi","tier":"poi_detail","priority":50.1,"context":"چێشتخانە","category":"چێشتخانە"},"geometry":{"type":"Point","coordinates":[45.6264499,35.356386]}},{"type":"Feature","id":"osm-node-4423309594-restaurant","properties":{"id":"osm-node-4423309594-restaurant","name":"چێشتخانەی شکار","kind":"poi","tier":"poi_detail","priority":50.1,"context":"چێشتخانە","category":"چێشتخانە"},"geometry":{"type":"Point","coordinates":[45.5799315,35.428851]}},{"type":"Feature","id":"osm-node-4415736189-restaurant","properties":{"id":"osm-node-4415736189-restaurant","name":"ڕێستورانتی ماد","kind":"poi","tier":"poi_detail","priority":50.1,"context":"چێشتخانە","category":"چێشتخانە"},"geometry":{"type":"Point","coordinates":[45.5797006,35.4291304]}},{"type":"Feature","id":"osm-node-10007447173-clinic","properties":{"id":"osm-node-10007447173-clinic","name":"کلینیکی دانی دکتۆر سەرهەد","kind":"poi","tier":"poi_detail","priority":50.1,"context":"کلینیک","category":"کلینیک"},"geometry":{"type":"Point","coordinates":[45.6697855,35.3164075]}},{"type":"Feature","id":"osm-node-5006749821-restaurant","properties":{"id":"osm-node-5006749821-restaurant","name":"کەبابخانەی عوسمان","kind":"poi","tier":"poi_detail","priority":50.1,"context":"چێشتخانە","category":"چێشتخانە"},"geometry":{"type":"Point","coordinates":[45.6898878,35.3156416]}},{"type":"Feature","id":"osm-node-4833342121-restaurant","properties":{"id":"osm-node-4833342121-restaurant","name":"کەبابخانەی وەستا باقی","kind":"poi","tier":"poi_detail","priority":50.1,"context":"چێشتخانە","category":"چێشتخانە"},"geometry":{"type":"Point","coordinates":[45.6829131,35.3220752]}},{"type":"Feature","id":"osm-node-5216467726-restaurant","properties":{"id":"osm-node-5216467726-restaurant","name":"کەبابخانەی وەستا صاڵح","kind":"poi","tier":"poi_detail","priority":50.1,"context":"چێشتخانە","category":"چێشتخانە"},"geometry":{"type":"Point","coordinates":[45.6904897,35.3157256]}},{"type":"Feature","id":"osm-way-1275571083-school","properties":{"id":"osm-way-1275571083-school","name":"ئامادەیی شەهید سیروان","kind":"poi","tier":"poi_detail","priority":50.092,"context":"قوتابخانە","category":"قوتابخانە"},"geometry":{"type":"Point","coordinates":[45.6838433,35.3210993]}},{"type":"Feature","id":"osm-way-1342079434-school","properties":{"id":"osm-way-1342079434-school","name":"ئامادەیی شەهید مامۆستا بەختیار","kind":"poi","tier":"poi_detail","priority":50.092,"context":"قوتابخانە","category":"قوتابخانە"},"geometry":{"type":"Point","coordinates":[45.6856478,35.3002317]}},{"type":"Feature","id":"osm-way-1342081605-school","properties":{"id":"osm-way-1342081605-school","name":"ئامادەیی چوارچرای ئێوارانی کچان","kind":"poi","tier":"poi_detail","priority":50.092,"context":"قوتابخانە","category":"قوتابخانە"},"geometry":{"type":"Point","coordinates":[45.6728791,35.3161207]}},{"type":"Feature","id":"osm-way-1342060665-kindergarten","properties":{"id":"osm-way-1342060665-kindergarten","name":"باخجەی ساوایانی خەندە","kind":"poi","tier":"poi_detail","priority":50.092,"context":"باخچەی ساوایان","category":"باخچەی ساوایان"},"geometry":{"type":"Point","coordinates":[45.69283,35.3193822]}},{"type":"Feature","id":"osm-way-1342079444-kindergarten","properties":{"id":"osm-way-1342079444-kindergarten","name":"باخچەی ساوایانی مەستان","kind":"poi","tier":"poi_detail","priority":50.092,"context":"باخچەی ساوایان","category":"باخچەی ساوایان"},"geometry":{"type":"Point","coordinates":[45.6780347,35.3170753]}},{"type":"Feature","id":"osm-way-1071541371-fire_station","properties":{"id":"osm-way-1071541371-fire_station","name":"بنکەی بەرگری شارستانی شارەزوور","kind":"poi","tier":"poi_detail","priority":50.092,"context":"بنکەی ئاگرکوژێنەوە","category":"بنکەی ئاگرکوژێنەوە"},"geometry":{"type":"Point","coordinates":[45.6774119,35.3207256]}},{"type":"Feature","id":"osm-way-1342051025-school","properties":{"id":"osm-way-1342051025-school","name":"خوێندنگەی ئامادەیی زانا","kind":"poi","tier":"poi_detail","priority":50.092,"context":"قوتابخانە","category":"قوتابخانە"},"geometry":{"type":"Point","coordinates":[45.693687,35.3241064]}},{"type":"Feature","id":"osm-way-1342060655-school","properties":{"id":"osm-way-1342060655-school","name":"خوێندنگەی ئامادەیی شەمێران - خوێندنگەی بنەڕەتی بێریڤان","kind":"poi","tier":"poi_detail","priority":50.092,"context":"قوتابخانە","category":"قوتابخانە"},"geometry":{"type":"Point","coordinates":[45.6904207,35.321798]}},