{"type":"FeatureCollection","features":[{"type":"Feature","id":"osm-node-7137650033","properties":{"id":"osm-node-7137650033","name":"ئەحمەداوا","kind":"village","tier":"locality","priority":300,"context":"پێنجوێن · سلێمانی","category":"گوند"},"geometry":{"type":"Point","coordinates":[45.9433217,35.8145553]}},{"type":"Feature","id":"osm-node-2488143048","properties":{"id":"osm-node-2488143048","name":"باراوەی تازە","kind":"village","tier":"locality","priority":300,"context":"پێنجوێن · سلێمانی","category":"گوند"},"geometry":{"type":"Point","coordinates":[45.9531947,35.7701362]}},{"type":"Feature","id":"osm-node-2488143045","properties":{"id":"osm-node-2488143045","name":"باراوەی کۆن","kind":"village","tier":"locality","priority":300,"context":"پێنجوێن · سلێمانی","category":"گوند"},"geometry":{"type":"Point","coordinates":[45.9669735,35.7569246]}},{"type":"Feature","id":"osm-node-2488145144","properties":{"id":"osm-node-2488145144","name":"بێماوەی تازە","kind":"village","tier":"locality","priority":300,"context":"پێنجوێن · سلێمانی","category":"گوند"},"geometry":{"type":"Point","coordinates":[45.8663936,35.7849121]}},{"type":"Feature","id":"osm-node-7137662118","properties":{"id":"osm-node-7137662118","name":"بێماوەی کۆن","kind":"village","tier":"locality","priority":300,"context":"پێنجوێن · سلێمانی","category":"گوند"},"geometry":{"type":"Point","coordinates":[45.857972,35.782066]}},{"type":"Feature","id":"osm-node-7126850588","properties":{"id":"osm-node-7126850588","name":"بەرانکانی","kind":"village","tier":"locality","priority":300,"context":"پێنجوێن · سلێمانی","category":"گوند"},"geometry":{"type":"Point","coordinates":[45.7880053,35.7956391]}},{"type":"Feature","id":"osm-node-2488145142","properties":{"id":"osm-node-2488145142","name":"بەهێ","kind":"village","tier":"locality","priority":300,"context":"پێنجوێن · سلێمانی","category":"گوند"},"geometry":{"type":"Point","coordinates":[45.8271832,35.7599657]}},{"type":"Feature","id":"osm-node-2488143077","properties":{"id":"osm-node-2488143077","name":"تایمەز","kind":"village","tier":"locality","priority":300,"context":"پێنجوێن · سلێمانی","category":"گوند"},"geometry":{"type":"Point","coordinates":[45.9984203,35.8125899]}},{"type":"Feature","id":"osm-node-2488145146","properties":{"id":"osm-node-2488145146","name":"داڵاڕۆ","kind":"village","tier":"locality","priority":300,"context":"پێنجوێن · سلێمانی","category":"گوند"},"geometry":{"type":"Point","coordinates":[45.8618367,35.7520769]}},{"type":"Feature","id":"osm-node-2488150773","properties":{"id":"osm-node-2488150773","name":"دڕوێ","kind":"village","tier":"locality","priority":300,"context":"شارباژێڕ · سلێمانی","category":"گوند"},"geometry":{"type":"Point","coordinates":[45.7524172,35.7658608]}},{"type":"Feature","id":"osm-node-7140972201","properties":{"id":"osm-node-7140972201","name":"دێزە","kind":"village","tier":"locality","priority":300,"context":"پێنجوێن · سلێمانی","category":"گوند"},"geometry":{"type":"Point","coordinates":[45.9549081,35.7841663]}},{"type":"Feature","id":"osm-node-2488150839","properties":{"id":"osm-node-2488150839","name":"سورەبانی نۆڕک","kind":"village","tier":"locality","priority":300,"context":"شارباژێڕ · سلێمانی","category":"گوند"},"geometry":{"type":"Point","coordinates":[45.7656831,35.7564863]}},{"type":"Feature","id":"osm-node-2488150462","properties":{"id":"osm-node-2488150462","name":"سیاگوێز","kind":"village","tier":"locality","priority":300,"context":"پێنجوێن · سلێمانی","category":"گوند"},"geometry":{"type":"Point","coordinates":[45.8000709,35.8056293]}},{"type":"Feature","id":"osm-node-2488143075","properties":{"id":"osm-node-2488143075","name":"سەیرانە","kind":"village","tier":"locality","priority":300,"context":"پێنجوێن · سلێمانی","category":"گوند"},"geometry":{"type":"Point","coordinates":[45.8840977,35.7563584]}},{"type":"Feature","id":"geonames-91174","properties":{"id":"geonames-91174","name":"شاقوڵی","kind":"village","tier":"locality","priority":300,"context":"پێنجوێن · سلێمانی","category":"گوند"},"geometry":{"type":"Point","coordinates":[45.82024,35.78457]}},{"type":"Feature","id":"osm-node-7126862557","properties":{"id":"osm-node-7126862557","name":"شاوەلی","kind":"village","tier":"locality","priority":300,"context":"پێنجوێن · سلێمانی","category":"گوند"},"geometry":{"type":"Point","coordinates":[45.8630182,35.8051164]}},{"type":"Feature","id":"osm-node-7137639346","properties":{"id":"osm-node-7137639346","name":"شیوەگوێزان","kind":"village","tier":"locality","priority":300,"context":"پێنجوێن · سلێمانی","category":"گوند"},"geometry":{"type":"Point","coordinates":[45.998107,35.8185358]}},{"type":"Feature","id":"osm-node-2488145152","properties":{"id":"osm-node-2488145152","name":"شەپاڵ","kind":"village","tier":"locality","priority":300,"context":"پێنجوێن · سلێمانی","category":"گوند"},"geometry":{"type":"Point","coordinates":[45.8448949,35.80506]}},{"type":"Feature","id":"osm-node-2488150827","properties":{"id":"osm-node-2488150827","name":"قوسامەدین","kind":"village","tier":"locality","priority":300,"context":"پێنجوێن · سلێمانی","category":"گوند"},"geometry":{"type":"Point","coordinates":[45.7964849,35.7887238]}},{"type":"Feature","id":"osm-node-2488143051","properties":{"id":"osm-node-2488143051","name":"قۆخی بەرکەچەڵ","kind":"village","tier":"locality","priority":300,"context":"پێنجوێن · سلێمانی","category":"گوند"},"geometry":{"type":"Point","coordinates":[45.8899659,35.8197099]}},{"type":"Feature","id":"osm-node-7137618263","properties":{"id":"osm-node-7137618263","name":"قۆخی سیپاڵ","kind":"village","tier":"locality","priority":300,"context":"پێنجوێن · سلێمانی","category":"گوند"},"geometry":{"type":"Point","coordinates":[45.9225638,35.8236265]}},{"type":"Feature","id":"osm-node-2488145154","properties":{"id":"osm-node-2488145154","name":"قۆخی شاوڵێ","kind":"village","tier":"locality","priority":300,"context":"پێنجوێن · سلێمانی","category":"گوند"},"geometry":{"type":"Point","coordinates":[45.8209371,35.7832982]}},{"type":"Feature","id":"geonames-94254","properties":{"id":"geonames-94254","name":"قۆخی مام نادر","kind":"village","tier":"locality","priority":300,"context":"پێنجوێن · سلێمانی","category":"گوند"},"geometry":{"type":"Point","coordinates":[45.81667,35.76667]}},{"type":"Feature","id":"osm-node-2488145149","properties":{"id":"osm-node-2488145149","name":"قۆخی مام نادر","kind":"village","tier":"locality","priority":300,"context":"پێنجوێن · سلێمانی","category":"گوند"},"geometry":{"type":"Point","coordinates":[45.818169,35.7764687]}},{"type":"Feature","id":"osm-node-7137659840","properties":{"id":"osm-node-7137659840","name":"قەلەندەراوای تازە","kind":"village","tier":"locality","priority":300,"context":"پێنجوێن · سلێمانی","category":"گوند"},"geometry":{"type":"Point","coordinates":[45.917154,35.7701457]}},{"type":"Feature","id":"osm-node-2488143073","properties":{"id":"osm-node-2488143073","name":"قەلەندەراوای کۆن","kind":"village","tier":"locality","priority":300,"context":"پێنجوێن · سلێمانی","category":"گوند"},"geometry":{"type":"Point","coordinates":[45.916709,35.7808582]}},{"type":"Feature","id":"osm-node-2488145158","properties":{"id":"osm-node-2488145158","name":"لالۆمەر","kind":"village","tier":"locality","priority":300,"context":"پێنجوێن · سلێمانی","category":"گوند"},"geometry":{"type":"Point","coordinates":[45.8461912,35.76829]}},{"type":"Feature","id":"osm-node-2488143069","properties":{"id":"osm-node-2488143069","name":"میراولی تازە","kind":"village","tier":"locality","priority":300,"context":"پێنجوێن · سلێمانی","category":"گوند"},"geometry":{"type":"Point","coordinates":[45.9106001,35.7978419]}},{"type":"Feature","id":"osm-node-2488143071","properties":{"id":"osm-node-2488143071","name":"میراولی کۆن","kind":"village","tier":"locality","priority":300,"context":"پێنجوێن · سلێمانی","category":"گوند"},"geometry":{"type":"Point","coordinates":[45.9092299,35.8057024]}},{"type":"Feature","id":"osm-node-7126850576","properties":{"id":"osm-node-7126850576","name":"مێشەڕۆ","kind":"village","tier":"locality","priority":300,"context":"پێنجوێن · سلێمانی","category":"گوند"},"geometry":{"type":"Point","coordinates":[45.8534448,35.798645]}},{"type":"Feature","id":"osm-node-2488145153","properties":{"id":"osm-node-2488145153","name":"پاش بەرد","kind":"village","tier":"locality","priority":300,"context":"پێنجوێن · سلێمانی","category":"گوند"},"geometry":{"type":"Point","coordinates":[45.8354597,35.7984044]}},{"type":"Feature","id":"geonames-6686237","properties":{"id":"geonames-6686237","name":"ڕەزی بابە","kind":"village","tier":"locality","priority":300,"context":"پێنجوێن · سلێمانی","category":"گوند"},"geometry":{"type":"Point","coordinates":[45.90411,35.82605]}},{"type":"Feature","id":"osm-node-2488143074","properties":{"id":"osm-node-2488143074","name":"ڕەزی بابە","kind":"village","tier":"locality","priority":300,"context":"پێنجوێن · سلێمانی","category":"گوند"},"geometry":{"type":"Point","coordinates":[45.9033359,35.8145908]}},{"type":"Feature","id":"osm-node-7137664541","properties":{"id":"osm-node-7137664541","name":"کانی خان","kind":"village","tier":"locality","priority":300,"context":"پێنجوێن · سلێمانی","category":"گوند"},"geometry":{"type":"Point","coordinates":[45.9092598,35.7896937]}},{"type":"Feature","id":"osm-node-7137631272","properties":{"id":"osm-node-7137631272","name":"کانی زەڵ","kind":"village","tier":"locality","priority":300,"context":"پێنجوێن · سلێمانی","category":"گوند"},"geometry":{"type":"Point","coordinates":[45.972236,35.8131526]}},{"type":"Feature","id":"osm-node-2488143062","properties":{"id":"osm-node-2488143062","name":"کانی هەرمێ","kind":"village","tier":"locality","priority":300,"context":"پێنجوێن · سلێمانی","category":"گوند"},"geometry":{"type":"Point","coordinates":[45.9668191,35.806079]}},{"type":"Feature","id":"geonames-7388899","properties":{"id":"geonames-7388899","name":"کونە وشەک","kind":"village","tier":"locality","priority":300,"context":"پێنجوێن · سلێمانی","category":"گوند"},"geometry":{"type":"Point","coordinates":[45.8971,35.8314]}},{"type":"Feature","id":"osm-node-2488143059","properties":{"id":"osm-node-2488143059","name":"کونەوشک","kind":"village","tier":"locality","priority":300,"context":"پێنجوێن · سلێمانی","category":"گوند"},"geometry":{"type":"Point","coordinates":[45.9041564,35.8258861]}},{"type":"Feature","id":"osm-node-2488143067","properties":{"id":"osm-node-2488143067","name":"کەڕەگەڵ","kind":"village","tier":"locality","priority":300,"context":"پێنجوێن · سلێمانی","category":"گوند"},"geometry":{"type":"Point","coordinates":[45.9212688,35.7964872]}},{"type":"Feature","id":"osm-node-2488143058","properties":{"id":"osm-node-2488143058","name":"گلاراوە","kind":"village","tier":"locality","priority":300,"context":"پێنجوێن · سلێمانی","category":"گوند"},"geometry":{"type":"Point","coordinates":[45.9648798,35.7741816]}},{"type":"Feature","id":"osm-node-2488143056","properties":{"id":"osm-node-2488143056","name":"گڵێنەبەڕۆژ","kind":"village","tier":"locality","priority":300,"context":"پێنجوێن · سلێمانی","category":"گوند"},"geometry":{"type":"Point","coordinates":[45.8871576,35.7921534]}},{"type":"Feature","id":"osm-node-2488145147","properties":{"id":"osm-node-2488145147","name":"گڵێنەنسێ","kind":"village","tier":"locality","priority":300,"context":"پێنجوێن · سلێمانی","category":"گوند"},"geometry":{"type":"Point","coordinates":[45.8763,35.7621]}},{"type":"Feature","id":"osm-node-2488145151","properties":{"id":"osm-node-2488145151","name":"گۆڵێ","kind":"village","tier":"locality","priority":300,"context":"پێنجوێن · سلێمانی","category":"گوند"},"geometry":{"type":"Point","coordinates":[45.8290824,35.784353]}},{"type":"Feature","id":"osm-node-7137450477","properties":{"id":"osm-node-7137450477","name":"گۆیژەڕەشان","kind":"village","tier":"locality","priority":300,"context":"پێنجوێن · سلێمانی","category":"گوند"},"geometry":{"type":"Point","coordinates":[45.8596272,35.7708558]}},{"type":"Feature","id":"osm-natural-mountain-d577cf14742144","properties":{"id":"osm-natural-mountain-d577cf14742144","name":"Kuh-e Qal`eh","kind":"natural","tier":"natural","priority":180,"context":"شاخ · بنجوين · سلێمانی","category":"شاخ"},"geometry":{"type":"Point","coordinates":[45.9937,35.8374]}},{"type":"Feature","id":"osm-natural-mountain-b34c9bb53e9c27","properties":{"id":"osm-natural-mountain-b34c9bb53e9c27","name":"جبل ديزة","kind":"natural","tier":"natural","priority":180,"context":"شاخ · بنجوين · سلێمانی","category":"شاخ"},"geometry":{"type":"Point","coordinates":[45.93382,35.78742]}},{"type":"Feature","id":"osm-natural-mountain-373327a0868548","properties":{"id":"osm-natural-mountain-373327a0868548","name":"جبل شلخان","kind":"natural","tier":"natural","priority":180,"context":"شاخ · بنجوين · سلێمانی","category":"شاخ"},"geometry":{"type":"Point","coordinates":[45.79579,35.77413]}},{"type":"Feature","id":"osm-natural-peak-5e599505bd149c","properties":{"id":"osm-natural-peak-5e599505bd149c","name":"قمة جبل سوركيو","kind":"natural","tier":"natural","priority":180,"context":"لوتکە · شهربازار · سلێمانی","category":"لوتکە"},"geometry":{"type":"Point","coordinates":[45.77757,35.79492]}},{"type":"Feature","id":"osm-natural-peak-31cd9560866bb5","properties":{"id":"osm-natural-peak-31cd9560866bb5","name":"قمة كاني درين","kind":"natural","tier":"natural","priority":180,"context":"لوتکە · بنجوين · سلێمانی","category":"لوتکە"},"geometry":{"type":"Point","coordinates":[45.83115,35.81058]}},{"type":"Feature","id":"osm-natural-valley-8c023ed810491f","properties":{"id":"osm-natural-valley-8c023ed810491f","name":"وادي جوسك","kind":"natural","tier":"natural","priority":180,"context":"دۆڵ · بنجوين · سلێمانی","category":"دۆڵ"},"geometry":{"type":"Point","coordinates":[45.98109,35.75559]}},{"type":"Feature","id":"osm-natural-valley-2d71404e982870","properties":{"id":"osm-natural-valley-2d71404e982870","name":"وادي خرخور","kind":"natural","tier":"natural","priority":180,"context":"دۆڵ · بنجوين · سلێمانی","category":"دۆڵ"},"geometry":{"type":"Point","coordinates":[45.8185,35.77698]}},{"type":"Feature","id":"osm-natural-valley-6f2b34f1f88b0b","properties":{"id":"osm-natural-valley-6f2b34f1f88b0b","name":"وادي زقزن","kind":"natural","tier":"natural","priority":180,"context":"دۆڵ · بنجوين · سلێمانی","category":"دۆڵ"},"geometry":{"type":"Point","coordinates":[45.81923,35.77695]}},{"type":"Feature","id":"osm-natural-river-04e18c47676874","properties":{"id":"osm-natural-river-04e18c47676874","name":"چەمی شلێر","kind":"natural","tier":"natural","priority":180,"context":"ڕووبار · بنجوين · سلێمانی","category":"ڕووبار"},"geometry":{"type":"Point","coordinates":[45.8408819,35.7729806]}},{"type":"Feature","id":"road-label-osm-way-268601314","properties":{"id":"road-label-osm-way-268601314","name":"11","kind":"road","tier":"road","priority":88,"context":"primary · بنجوين · سلێمانی","category":"ڕێگا"},"geometry":{"type":"Point","coordinates":[45.954899,35.836491]}},{"type":"Feature","id":"road-label-osm-way-790777467","properties":{"id":"road-label-osm-way-790777467","name":"Sairanband Rd.","kind":"road","tier":"road","priority":72,"context":"secondary · بنجوين · سلێمانی","category":"ڕێگا"},"geometry":{"type":"Point","coordinates":[45.986431,35.763359]}},{"type":"Feature","id":"osm-way-1208688899-military","properties":{"id":"osm-way-1208688899-military","name":"منفذ سیران الحدودی","kind":"poi","tier":"poi_regional","priority":80.045,"context":"بنکەی سەربازی","category":"بنکەی سەربازی"},"geometry":{"type":"Point","coordinates":[45.9581864,35.8242225]}},{"type":"Feature","id":"osm-way-1166179826-archaeological","properties":{"id":"osm-way-1166179826-archaeological","name":"Gird-i Rostam","kind":"poi","tier":"poi_detail","priority":50.092,"context":"شوێنی شوێنەوار","category":"شوێنی شوێنەوار"},"geometry":{"type":"Point","coordinates":[45.9156711,35.7528336]}},{"type":"Feature","id":"osm-way-792126425-residential","properties":{"id":"osm-way-792126425-residential","name":"بەهێ","kind":"poi","tier":"poi_local","priority":68.045,"context":"کۆمپاوندی نیشتەجێبوون","category":"کۆمپاوندی نیشتەجێبوون"},"geometry":{"type":"Point","coordinates":[45.8268751,35.7604801]}},{"type":"Feature","id":"osm-way-1290597904-residential","properties":{"id":"osm-way-1290597904-residential","name":"داڵاڕۆ","kind":"poi","tier":"poi_local","priority":68.045,"context":"کۆمپاوندی نیشتەجێبوون","category":"کۆمپاوندی نیشتەجێبوون"},"geometry":{"type":"Point","coordinates":[45.8618959,35.7521186]}},{"type":"Feature","id":"osm-way-792091265-residential","properties":{"id":"osm-way-792091265-residential","name":"سورەبانی نۆڕک","kind":"poi","tier":"poi_local","priority":68.045,"context":"کۆمپاوندی نیشتەجێبوون","category":"کۆمپاوندی نیشتەجێبوون"},"geometry":{"type":"Point","coordinates":[45.7653159,35.7568346]}},{"type":"Feature","id":"osm-way-792101280-residential","properties":{"id":"osm-way-792101280-residential","name":"سیاگوێز","kind":"poi","tier":"poi_local","priority":68.045,"context":"کۆمپاوندی نیشتەجێبوون","category":"کۆمپاوندی نیشتەجێبوون"},"geometry":{"type":"Point","coordinates":[45.7999567,35.8053948]}},{"type":"Feature","id":"osm-way-792094066-residential","properties":{"id":"osm-way-792094066-residential","name":"قوسایمەینە","kind":"poi","tier":"poi_local","priority":68.045,"context":"کۆمپاوندی نیشتەجێبوون","category":"کۆمپاوندی نیشتەجێبوون"},"geometry":{"type":"Point","coordinates":[45.7952733,35.7886858]}},{"type":"Feature","id":"osm-way-1290597396-residential","properties":{"id":"osm-way-1290597396-residential","name":"لالۆمەر","kind":"poi","tier":"poi_local","priority":68.045,"context":"کۆمپاوندی نیشتەجێبوون","category":"کۆمپاوندی نیشتەجێبوون"},"geometry":{"type":"Point","coordinates":[45.8461235,35.7683657]}},{"type":"Feature","id":"osm-way-792123677-residential","properties":{"id":"osm-way-792123677-residential","name":"مێشەڕۆ","kind":"poi","tier":"poi_local","priority":68.045,"context":"کۆمپاوندی نیشتەجێبوون","category":"کۆمپاوندی نیشتەجێبوون"},"geometry":{"type":"Point","coordinates":[45.8533276,35.7978322]}},{"type":"Feature","id":"osm-way-792086802-residential","properties":{"id":"osm-way-792086802-residential","name":"نانوان","kind":"poi","tier":"poi_local","priority":68.045,"context":"کۆمپاوندی نیشتەجێبوون","category":"کۆمپاوندی نیشتەجێبوون"},"geometry":{"type":"Point","coordinates":[45.7504172,35.7763739]}},{"type":"Feature","id":"osm-way-792124704-residential","properties":{"id":"osm-way-792124704-residential","name":"پاشبەرد","kind":"poi","tier":"poi_local","priority":68.045,"context":"کۆمپاوندی نیشتەجێبوون","category":"کۆمپاوندی نیشتەجێبوون"},"geometry":{"type":"Point","coordinates":[45.8355959,35.7987265]}},{"type":"Feature","id":"osm-way-792120725-residential","properties":{"id":"osm-way-792120725-residential","name":"گۆڵێ","kind":"poi","tier":"poi_local","priority":68.045,"context":"کۆمپاوندی نیشتەجێبوون","category":"کۆمپاوندی نیشتەجێبوون"},"geometry":{"type":"Point","coordinates":[45.8291084,35.7845947]}},{"type":"Feature","id":"osm-node-6855153885-school","properties":{"id":"osm-node-6855153885-school","name":"قوتابخانەی سیاگوێز","kind":"poi","tier":"poi_detail","priority":50.1,"context":"قوتابخانە","category":"قوتابخانە"},"geometry":{"type":"Point","coordinates":[45.8029292,35.804937]}},{"type":"Feature","id":"osm-node-6855177085-school","properties":{"id":"osm-node-6855177085-school","name":"قوتابخانەی سیاگوێز","kind":"poi","tier":"poi_detail","priority":50.1,"context":"قوتابخانە","category":"قوتابخانە"},"geometry":{"type":"Point","coordinates":[45.8005882,35.8047846]}},{"type":"Feature","id":"osm-way-599176184-commercial","properties":{"id":"osm-way-599176184-commercial","name":"پایانه مرزی سیرانبند","kind":"poi","tier":"poi_local","priority":64.045,"context":"بینای بازرگانی","category":"بینای بازرگانی"},"geometry":{"type":"Point","coordinates":[45.9555069,35.8317732]}},{"type":"Feature","id":"osm-node-5857176549-toilet","properties":{"id":"osm-node-5857176549-toilet","name":"ئاودەس","kind":"poi","tier":"poi_detail","priority":50.1,"context":"ئاودەستی گشتی","category":"ئاودەستی گشتی"},"geometry":{"type":"Point","coordinates":[45.8430664,35.7711022]}},{"type":"Feature","id":"osm-node-2488140760-sports_centre","properties":{"id":"osm-node-2488140760-sports_centre","name":"احمد اوە","kind":"poi","tier":"poi_detail","priority":50.1,"context":"ناوەندی وەرزش","category":"ناوەندی وەرزش"},"geometry":{"type":"Point","coordinates":[45.9430645,35.8157627]}},{"type":"Feature","id":"osm-node-2488140761-sports_centre","properties":{"id":"osm-node-2488140761-sports_centre","name":"حمد اغا","kind":"poi","tier":"poi_detail","priority":50.1,"context":"ناوەندی وەرزش","category":"ناوەندی وەرزش"},"geometry":{"type":"Point","coordinates":[45.9430735,35.8155255]}},{"type":"Feature","id":"osm-node-2488140762-sports_centre","properties":{"id":"osm-node-2488140762-sports_centre","name":"حمد اغا","kind":"poi","tier":"poi_detail","priority":50.1,"context":"ناوەندی وەرزش","category":"ناوەندی وەرزش"},"geometry":{"type":"Point","coordinates":[45.943096,35.8159159]}}]}