{"type":"FeatureCollection","features":[{"type":"Feature","id":"geonames-6686127","properties":{"id":"geonames-6686127","name":"باش هەجار","kind":"village","tier":"locality","priority":300,"context":"دەربەندیخان · سلێمانی","category":"گوند"},"geometry":{"type":"Point","coordinates":[45.8254,35.1371]}},{"type":"Feature","id":"osm-node-7216424484","properties":{"id":"osm-node-7216424484","name":"بامۆک","kind":"village","tier":"locality","priority":300,"context":"هەڵەبجە · سلێمانی","category":"گوند"},"geometry":{"type":"Point","coordinates":[45.9953869,35.1609232]}},{"type":"Feature","id":"osm-node-7388376311","properties":{"id":"osm-node-7388376311","name":"بانی بۆڵان","kind":"village","tier":"locality","priority":300,"context":"هەڵەبجە · سلێمانی","category":"گوند"},"geometry":{"type":"Point","coordinates":[45.8265538,35.0250421]}},{"type":"Feature","id":"geonames-12068285","properties":{"id":"geonames-12068285","name":"باوە کۆچک","kind":"village","tier":"locality","priority":300,"context":"هەڵەبجە · سلێمانی","category":"گوند"},"geometry":{"type":"Point","coordinates":[45.99466,35.16092]}},{"type":"Feature","id":"osm-node-12054568605","properties":{"id":"osm-node-12054568605","name":"باوەکۆچک","kind":"village","tier":"locality","priority":300,"context":"هەڵەبجە · سلێمانی","category":"گوند"},"geometry":{"type":"Point","coordinates":[45.9809703,35.15601]}},{"type":"Feature","id":"osm-node-2489389255","properties":{"id":"osm-node-2489389255","name":"بێسەلمێن","kind":"village","tier":"locality","priority":300,"context":"دەربەندیخان · سلێمانی","category":"گوند"},"geometry":{"type":"Point","coordinates":[45.8405946,35.2365922]}},{"type":"Feature","id":"osm-node-7214337161","properties":{"id":"osm-node-7214337161","name":"بێلەنگە","kind":"village","tier":"locality","priority":300,"context":"هەڵەبجە · سلێمانی","category":"گوند"},"geometry":{"type":"Point","coordinates":[45.9213757,35.1685435]}},{"type":"Feature","id":"osm-node-7373289667","properties":{"id":"osm-node-7373289667","name":"بێمارۆک","kind":"village","tier":"locality","priority":300,"context":"هەڵەبجە · سلێمانی","category":"گوند"},"geometry":{"type":"Point","coordinates":[45.8790237,35.0675356]}},{"type":"Feature","id":"osm-node-2489389340","properties":{"id":"osm-node-2489389340","name":"بێژاوا","kind":"village","tier":"locality","priority":300,"context":"هەڵەبجە · سلێمانی","category":"گوند"},"geometry":{"type":"Point","coordinates":[45.9047589,35.196015]}},{"type":"Feature","id":"osm-node-7388352297","properties":{"id":"osm-node-7388352297","name":"بەشی عەلی","kind":"village","tier":"locality","priority":300,"context":"هەڵەبجە · سلێمانی","category":"گوند"},"geometry":{"type":"Point","coordinates":[45.8985075,35.0959828]}},{"type":"Feature","id":"osm-node-2480125707","properties":{"id":"osm-node-2480125707","name":"بەشی پیرک","kind":"village","tier":"locality","priority":300,"context":"هەڵەبجە · سلێمانی","category":"گوند"},"geometry":{"type":"Point","coordinates":[45.850429,35.1364501]}},{"type":"Feature","id":"osm-node-7198409255","properties":{"id":"osm-node-7198409255","name":"بەکراوا","kind":"village","tier":"locality","priority":300,"context":"هەڵەبجە · سلێمانی","category":"گوند"},"geometry":{"type":"Point","coordinates":[45.9406582,35.2193538]}},{"type":"Feature","id":"osm-node-2480122916","properties":{"id":"osm-node-2480122916","name":"تریفە","kind":"village","tier":"locality","priority":300,"context":"هەڵەبجە · سلێمانی","category":"گوند"},"geometry":{"type":"Point","coordinates":[45.9585944,35.15581]}},{"type":"Feature","id":"osm-node-7214300760","properties":{"id":"osm-node-7214300760","name":"تونی حاجی حەسەن","kind":"village","tier":"locality","priority":300,"context":"دەربەندیخان · سلێمانی","category":"گوند"},"geometry":{"type":"Point","coordinates":[45.8200446,35.1695075]}},{"type":"Feature","id":"osm-node-7388335158","properties":{"id":"osm-node-7388335158","name":"توڵەبی","kind":"village","tier":"locality","priority":300,"context":"دەربەندیخان · سلێمانی","category":"گوند"},"geometry":{"type":"Point","coordinates":[45.8146073,35.132454]}},{"type":"Feature","id":"osm-node-6698740936","properties":{"id":"osm-node-6698740936","name":"تەوەنەبەل","kind":"village","tier":"locality","priority":300,"context":"هەڵەبجە · سلێمانی","category":"گوند"},"geometry":{"type":"Point","coordinates":[45.969457,35.0751098]}},{"type":"Feature","id":"osm-node-2489389758","properties":{"id":"osm-node-2489389758","name":"جەرداسنە","kind":"village","tier":"locality","priority":300,"context":"دەربەندیخان · سلێمانی","category":"گوند"},"geometry":{"type":"Point","coordinates":[45.8288978,35.2119763]}},{"type":"Feature","id":"osm-node-10651164011","properties":{"id":"osm-node-10651164011","name":"حەسەن ئاوا","kind":"village","tier":"locality","priority":300,"context":"هەڵەبجە · سلێمانی","category":"گوند"},"geometry":{"type":"Point","coordinates":[45.9668967,35.1840499]}},{"type":"Feature","id":"osm-node-7198466349","properties":{"id":"osm-node-7198466349","name":"حەمەوغان","kind":"village","tier":"locality","priority":300,"context":"هەڵەبجە · سلێمانی","category":"گوند"},"geometry":{"type":"Point","coordinates":[45.9709589,35.208976]}},{"type":"Feature","id":"osm-node-3524794998","properties":{"id":"osm-node-3524794998","name":"دگاگا","kind":"village","tier":"locality","priority":300,"context":"هەڵەبجە · سلێمانی","category":"گوند"},"geometry":{"type":"Point","coordinates":[45.9800672,35.0687202]}},{"type":"Feature","id":"osm-node-7341220493","properties":{"id":"osm-node-7341220493","name":"دۆڵی ناوحەد","kind":"village","tier":"locality","priority":300,"context":"دەربەندیخان · سلێمانی","category":"گوند"},"geometry":{"type":"Point","coordinates":[45.7910589,35.1215332]}},{"type":"Feature","id":"osm-node-7214404795","properties":{"id":"osm-node-7214404795","name":"دێ سوتەک","kind":"village","tier":"locality","priority":300,"context":"هەڵەبجە · سلێمانی","category":"گوند"},"geometry":{"type":"Point","coordinates":[45.8947086,35.0873666]}},{"type":"Feature","id":"geonames-7454956","properties":{"id":"geonames-7454956","name":"دەنگەورە","kind":"village","tier":"locality","priority":300,"context":"هەڵەبجە · سلێمانی","category":"گوند"},"geometry":{"type":"Point","coordinates":[45.76919,35.10041]}},{"type":"Feature","id":"osm-node-7388317681","properties":{"id":"osm-node-7388317681","name":"دەنگەوەرە","kind":"village","tier":"locality","priority":300,"context":"دەربەندیخان · سلێمانی","category":"گوند"},"geometry":{"type":"Point","coordinates":[45.7656162,35.1054432]}},{"type":"Feature","id":"osm-node-2480125714","properties":{"id":"osm-node-2480125714","name":"دەڵف","kind":"village","tier":"locality","priority":300,"context":"هەڵەبجە · سلێمانی","category":"گوند"},"geometry":{"type":"Point","coordinates":[45.8582183,35.1091193]}},{"type":"Feature","id":"osm-node-7198448647","properties":{"id":"osm-node-7198448647","name":"دەڵێنی","kind":"village","tier":"locality","priority":300,"context":"هەڵەبجە · سلێمانی","category":"گوند"},"geometry":{"type":"Point","coordinates":[45.9552489,35.2319781]}},{"type":"Feature","id":"osm-node-2480122283","properties":{"id":"osm-node-2480122283","name":"زارێن","kind":"village","tier":"locality","priority":300,"context":"هەڵەبجە · سلێمانی","category":"گوند"},"geometry":{"type":"Point","coordinates":[45.8353,35.0715]}},{"type":"Feature","id":"osm-node-6698772304","properties":{"id":"osm-node-6698772304","name":"زەمەقی خواروو","kind":"village","tier":"locality","priority":300,"context":"هەڵەبجە · سلێمانی","category":"گوند"},"geometry":{"type":"Point","coordinates":[45.9692522,35.2235232]}},{"type":"Feature","id":"osm-node-2480126195","properties":{"id":"osm-node-2480126195","name":"سەراو","kind":"village","tier":"locality","priority":300,"context":"هەڵەبجە · سلێمانی","category":"گوند"},"geometry":{"type":"Point","coordinates":[45.9281603,35.1422326]}},{"type":"Feature","id":"osm-node-2480125730","properties":{"id":"osm-node-2480125730","name":"سەرشاتەی خواروو","kind":"village","tier":"locality","priority":300,"context":"هەڵەبجە · سلێمانی","category":"گوند"},"geometry":{"type":"Point","coordinates":[45.879415,35.0936507]}},{"type":"Feature","id":"osm-node-7341074159","properties":{"id":"osm-node-7341074159","name":"سەرشاتەی سەروو","kind":"village","tier":"locality","priority":300,"context":"هەڵەبجە · سلێمانی","category":"گوند"},"geometry":{"type":"Point","coordinates":[45.869702,35.0896536]}},{"type":"Feature","id":"osm-node-2489390583","properties":{"id":"osm-node-2489390583","name":"شەمێران","kind":"village","tier":"locality","priority":300,"context":"دەربەندیخان · سلێمانی","category":"گوند"},"geometry":{"type":"Point","coordinates":[45.8067525,35.1213208]}},{"type":"Feature","id":"osm-node-6698770889","properties":{"id":"osm-node-6698770889","name":"غوڵامی خوارووی تازە","kind":"village","tier":"locality","priority":300,"context":"دەربەندیخان · سلێمانی","category":"گوند"},"geometry":{"type":"Point","coordinates":[45.8709078,35.2150015]}},{"type":"Feature","id":"osm-node-6698753583","properties":{"id":"osm-node-6698753583","name":"غوڵامی خوارووی کۆن","kind":"village","tier":"locality","priority":300,"context":"دەربەندیخان · سلێمانی","category":"گوند"},"geometry":{"type":"Point","coordinates":[45.8666161,35.2090677]}},{"type":"Feature","id":"osm-node-2489390117","properties":{"id":"osm-node-2489390117","name":"غوڵامی سەروو","kind":"village","tier":"locality","priority":300,"context":"هەڵەبجە · سلێمانی","category":"گوند"},"geometry":{"type":"Point","coordinates":[45.8791534,35.1802498]}},{"type":"Feature","id":"osm-node-2480125729","properties":{"id":"osm-node-2480125729","name":"قارەمانی","kind":"village","tier":"locality","priority":300,"context":"هەڵەبجە · سلێمانی","category":"گوند"},"geometry":{"type":"Point","coordinates":[45.8633142,35.174782]}},{"type":"Feature","id":"geonames-92219","properties":{"id":"geonames-92219","name":"قشڵاخە ڕووتە","kind":"village","tier":"locality","priority":300,"context":"هەڵەبجە · سلێمانی","category":"گوند"},"geometry":{"type":"Point","coordinates":[45.95461,35.23189]}},{"type":"Feature","id":"osm-node-7198463146","properties":{"id":"osm-node-7198463146","name":"قشڵاغەڕووتە","kind":"village","tier":"locality","priority":300,"context":"هەڵەبجە · سلێمانی","category":"گوند"},"geometry":{"type":"Point","coordinates":[45.9904327,35.2412895]}},{"type":"Feature","id":"osm-node-2489392046","properties":{"id":"osm-node-2489392046","name":"قەڵپ","kind":"village","tier":"locality","priority":300,"context":"هەڵەبجە · سلێمانی","category":"گوند"},"geometry":{"type":"Point","coordinates":[45.7790013,35.0151769]}},{"type":"Feature","id":"geonames-6686136","properties":{"id":"geonames-6686136","name":"مام شەهید","kind":"village","tier":"locality","priority":300,"context":"هەڵەبجە · سلێمانی","category":"گوند"},"geometry":{"type":"Point","coordinates":[45.84074,35.16483]}},{"type":"Feature","id":"osm-node-2480125728","properties":{"id":"osm-node-2480125728","name":"مامەشەیی","kind":"village","tier":"locality","priority":300,"context":"هەڵەبجە · سلێمانی","category":"گوند"},"geometry":{"type":"Point","coordinates":[45.8432528,35.1568529]}},{"type":"Feature","id":"geonames-93411","properties":{"id":"geonames-93411","name":"مۆرتکه","kind":"village","tier":"locality","priority":300,"context":"هەڵەبجە · سلێمانی","category":"گوند"},"geometry":{"type":"Point","coordinates":[45.81149,35.05336]}},{"type":"Feature","id":"osm-node-7373317209","properties":{"id":"osm-node-7373317209","name":"مۆرتکە","kind":"village","tier":"locality","priority":300,"context":"هەڵەبجە · سلێمانی","category":"گوند"},"geometry":{"type":"Point","coordinates":[45.7825247,35.0637621]}},{"type":"Feature","id":"osm-node-2480125601","properties":{"id":"osm-node-2480125601","name":"میراولی","kind":"village","tier":"locality","priority":300,"context":"هەڵەبجە · سلێمانی","category":"گوند"},"geometry":{"type":"Point","coordinates":[45.8779441,35.1548654]}},{"type":"Feature","id":"geonames-446006","properties":{"id":"geonames-446006","name":"نالە ڕەش","kind":"village","tier":"locality","priority":300,"context":"دەربەندیخان · سلێمانی","category":"گوند"},"geometry":{"type":"Point","coordinates":[45.86312,35.22135]}},{"type":"Feature","id":"osm-node-2489390420","properties":{"id":"osm-node-2489390420","name":"نێرگزەجاڕ","kind":"village","tier":"locality","priority":300,"context":"دەربەندیخان · سلێمانی","category":"گوند"},"geometry":{"type":"Point","coordinates":[45.8194274,35.1875877]}},{"type":"Feature","id":"osm-node-2480125604","properties":{"id":"osm-node-2480125604","name":"نەوەر","kind":"village","tier":"locality","priority":300,"context":"هەڵەبجە · سلێمانی","category":"گوند"},"geometry":{"type":"Point","coordinates":[45.8829957,35.131173]}},{"type":"Feature","id":"osm-node-2480122903","properties":{"id":"osm-node-2480122903","name":"هانە سوورە","kind":"village","tier":"locality","priority":300,"context":"هەڵەبجە · سلێمانی","category":"گوند"},"geometry":{"type":"Point","coordinates":[45.9402526,35.1492662]}},{"type":"Feature","id":"osm-node-2480126194","properties":{"id":"osm-node-2480126194","name":"هانەژاڵە","kind":"village","tier":"locality","priority":300,"context":"هەڵەبجە · سلێمانی","category":"گوند"},"geometry":{"type":"Point","coordinates":[45.9016301,35.1369995]}},{"type":"Feature","id":"osm-node-2489390697","properties":{"id":"osm-node-2489390697","name":"وازۆڵ","kind":"village","tier":"locality","priority":300,"context":"دەربەندیخان · سلێمانی","category":"گوند"},"geometry":{"type":"Point","coordinates":[45.7622706,35.2179206]}},{"type":"Feature","id":"osm-node-2489390685","properties":{"id":"osm-node-2489390685","name":"وەرمن","kind":"village","tier":"locality","priority":300,"context":"هەڵەبجە · سلێمانی","category":"گوند"},"geometry":{"type":"Point","coordinates":[45.7932272,35.1007588]}},{"type":"Feature","id":"geonames-92754","properties":{"id":"geonames-92754","name":"پریسی خوارو","kind":"village","tier":"locality","priority":300,"context":"هەڵەبجە · سلێمانی","category":"گوند"},"geometry":{"type":"Point","coordinates":[45.9358,35.19503]}},{"type":"Feature","id":"osm-node-2480122886","properties":{"id":"osm-node-2480122886","name":"پریسی خواروو","kind":"village","tier":"locality","priority":300,"context":"هەڵەبجە · سلێمانی","category":"گوند"},"geometry":{"type":"Point","coordinates":[45.93647,35.1943977]}},{"type":"Feature","id":"osm-node-4245889353","properties":{"id":"osm-node-4245889353","name":"پریسی سەروو","kind":"village","tier":"locality","priority":300,"context":"هەڵەبجە · سلێمانی","category":"گوند"},"geometry":{"type":"Point","coordinates":[45.9428229,35.1596504]}},{"type":"Feature","id":"osm-node-6690826680","properties":{"id":"osm-node-6690826680","name":"پشتقەڵا","kind":"village","tier":"locality","priority":300,"context":"هەڵەبجە · سلێمانی","category":"گوند"},"geometry":{"type":"Point","coordinates":[45.8343374,35.1012545]}},{"type":"Feature","id":"osm-node-6698553475","properties":{"id":"osm-node-6698553475","name":"چاوگی کۆکۆیی","kind":"village","tier":"locality","priority":300,"context":"هەڵەبجە · سلێمانی","category":"گوند"},"geometry":{"type":"Point","coordinates":[45.9747338,35.146902]}},{"type":"Feature","id":"osm-node-2480126192","properties":{"id":"osm-node-2480126192","name":"چرۆستان","kind":"village","tier":"locality","priority":300,"context":"هەڵەبجە · سلێمانی","category":"گوند"},"geometry":{"type":"Point","coordinates":[45.8939683,35.1575342]}},{"type":"Feature","id":"osm-node-7388317442","properties":{"id":"osm-node-7388317442","name":"چەمەڕەش","kind":"village","tier":"locality","priority":300,"context":"دەربەندیخان · سلێمانی","category":"گوند"},"geometry":{"type":"Point","coordinates":[45.7660388,35.134552]}},{"type":"Feature","id":"osm-node-2489389795","properties":{"id":"osm-node-2489389795","name":"کانی بەردینە","kind":"village","tier":"locality","priority":300,"context":"دەربەندیخان · سلێمانی","category":"گوند"},"geometry":{"type":"Point","coordinates":[45.8078382,35.2378573]}},{"type":"Feature","id":"osm-node-2489389907","properties":{"id":"osm-node-2489389907","name":"کانی توو","kind":"village","tier":"locality","priority":300,"context":"هەڵەبجە · سلێمانی","category":"گوند"},"geometry":{"type":"Point","coordinates":[45.8908497,35.1860223]}},{"type":"Feature","id":"osm-node-7214321898","properties":{"id":"osm-node-7214321898","name":"کانی سارد","kind":"village","tier":"locality","priority":300,"context":"دەربەندیخان · سلێمانی","category":"گوند"},"geometry":{"type":"Point","coordinates":[45.8382841,35.1250265]}},{"type":"Feature","id":"osm-node-7214781870","properties":{"id":"osm-node-7214781870","name":"کانی سالار","kind":"village","tier":"locality","priority":300,"context":"هەڵەبجە · سلێمانی","category":"گوند"},"geometry":{"type":"Point","coordinates":[45.9279875,35.0808907]}},{"type":"Feature","id":"osm-node-2489389901","properties":{"id":"osm-node-2489389901","name":"کانی شێخ","kind":"village","tier":"locality","priority":300,"context":"هەڵەبجە · سلێمانی","category":"گوند"},"geometry":{"type":"Point","coordinates":[45.905578,35.2385229]}},{"type":"Feature","id":"osm-node-2489390496","properties":{"id":"osm-node-2489390496","name":"کانی مرواری","kind":"village","tier":"locality","priority":300,"context":"دەربەندیخان · سلێمانی","category":"گوند"},"geometry":{"type":"Point","coordinates":[45.7766004,35.2497565]}},{"type":"Feature","id":"osm-node-7373289666","properties":{"id":"osm-node-7373289666","name":"کانی ژنان","kind":"village","tier":"locality","priority":300,"context":"هەڵەبجە · سلێمانی","category":"گوند"},"geometry":{"type":"Point","coordinates":[45.8658119,35.0568152]}},{"type":"Feature","id":"osm-node-2489389845","properties":{"id":"osm-node-2489389845","name":"کانی کەوە","kind":"village","tier":"locality","priority":300,"context":"دەربەندیخان · سلێمانی","category":"گوند"},"geometry":{"type":"Point","coordinates":[45.7971609,35.1268843]}},{"type":"Feature","id":"osm-node-2489390706","properties":{"id":"osm-node-2489390706","name":"کاگردەڵە","kind":"village","tier":"locality","priority":300,"context":"هەڵەبجە · سلێمانی","category":"گوند"},"geometry":{"type":"Point","coordinates":[45.9166501,35.2437471]}},{"type":"Feature","id":"osm-node-7388322827","properties":{"id":"osm-node-7388322827","name":"کۆکۆیی شەمێران","kind":"village","tier":"locality","priority":300,"context":"هەڵەبجە · سلێمانی","category":"گوند"},"geometry":{"type":"Point","coordinates":[45.7787171,35.1001034]}},{"type":"Feature","id":"osm-node-6698602285","properties":{"id":"osm-node-6698602285","name":"کەوتە","kind":"village","tier":"locality","priority":300,"context":"هەڵەبجە · سلێمانی","category":"گوند"},"geometry":{"type":"Point","coordinates":[45.9123216,35.1038699]}},{"type":"Feature","id":"geonames-96495","properties":{"id":"geonames-96495","name":"گردی گوڵباخ","kind":"village","tier":"locality","priority":300,"context":"هەڵەبجە · سلێمانی","category":"گوند"},"geometry":{"type":"Point","coordinates":[45.9002,35.2468]}},{"type":"Feature","id":"osm-node-6698571376","properties":{"id":"osm-node-6698571376","name":"گردەناوێ","kind":"village","tier":"locality","priority":300,"context":"هەڵەبجە · سلێمانی","category":"گوند"},"geometry":{"type":"Point","coordinates":[45.9934357,35.0895182]}},{"type":"Feature","id":"osm-node-7388890727","properties":{"id":"osm-node-7388890727","name":"گلە","kind":"village","tier":"locality","priority":300,"context":"هەڵەبجە · سلێمانی","category":"گوند"},"geometry":{"type":"Point","coordinates":[45.9235321,35.0709244]}},{"type":"Feature","id":"geonames-96446","properties":{"id":"geonames-96446","name":"گمه","kind":"village","tier":"locality","priority":300,"context":"هەڵەبجە · سلێمانی","category":"گوند"},"geometry":{"type":"Point","coordinates":[45.86399,35.00405]}},{"type":"Feature","id":"osm-node-2488610230","properties":{"id":"osm-node-2488610230","name":"گمە","kind":"village","tier":"locality","priority":300,"context":"هەڵەبجە · سلێمانی","category":"گوند"},"geometry":{"type":"Point","coordinates":[45.8653634,35.0031208]}},{"type":"Feature","id":"osm-node-2489390179","properties":{"id":"osm-node-2489390179","name":"گورگەچیا","kind":"village","tier":"locality","priority":300,"context":"هەڵەبجە · سلێمانی","category":"گوند"},"geometry":{"type":"Point","coordinates":[45.908631,35.2236401]}},{"type":"Feature","id":"osm-node-2480126193","properties":{"id":"osm-node-2480126193","name":"گوندە","kind":"village","tier":"locality","priority":300,"context":"هەڵەبجە · سلێمانی","category":"گوند"},"geometry":{"type":"Point","coordinates":[45.9042224,35.1478438]}},{"type":"Feature","id":"osm-node-2489389660","properties":{"id":"osm-node-2489389660","name":"گوڵانی حاجی فەرەج","kind":"village","tier":"locality","priority":300,"context":"دەربەندیخان · سلێمانی","category":"گوند"},"geometry":{"type":"Point","coordinates":[45.7861312,35.2085471]}},{"type":"Feature","id":"osm-node-7373289665","properties":{"id":"osm-node-7373289665","name":"گەڕاو","kind":"village","tier":"locality","priority":300,"context":"هەڵەبجە · سلێمانی","category":"گوند"},"geometry":{"type":"Point","coordinates":[45.9060775,35.0679336]}},{"type":"Feature","id":"osm-node-9310328317","properties":{"id":"osm-node-9310328317","name":"گەڕەکی سەروەرانی ٢","kind":"suburb","tier":"locality","priority":245,"context":"هەڵەبجە · سلێمانی","category":"پاشکۆی شار"},"geometry":{"type":"Point","coordinates":[45.9686158,35.187198]}},{"type":"Feature","id":"osm-node-13543933028","properties":{"id":"osm-node-13543933028","name":"بانی ئاوڕەحمان فەتاح","kind":"locality","tier":"locality","priority":200,"context":"دەربەندیخان · سلێمانی","category":"شوێنی ناوخۆیی"},"geometry":{"type":"Point","coordinates":[45.8676118,35.2199714]}},{"type":"Feature","id":"osm-node-2489390640","properties":{"id":"osm-node-2489390640","name":"تووەقوت","kind":"locality","tier":"locality","priority":200,"context":"دەربەندیخان · سلێمانی","category":"شوێنی ناوخۆیی"},"geometry":{"type":"Point","coordinates":[45.852778,35.215556]}},{"type":"Feature","id":"osm-node-2489386903","properties":{"id":"osm-node-2489386903","name":"جادو زنە","kind":"locality","tier":"locality","priority":200,"context":"هەڵەبجە · سلێمانی","category":"شوێنی ناوخۆیی"},"geometry":{"type":"Point","coordinates":[45.9865257,35.2409531]}},{"type":"Feature","id":"osm-node-2489390601","properties":{"id":"osm-node-2489390601","name":"سونک","kind":"locality","tier":"locality","priority":200,"context":"دەربەندیخان · سلێمانی","category":"شوێنی ناوخۆیی"},"geometry":{"type":"Point","coordinates":[45.8775,35.224444]}},{"type":"Feature","id":"osm-node-13738285120","properties":{"id":"osm-node-13738285120","name":"ناوچەی تاوگۆزی","kind":"locality","tier":"locality","priority":200,"context":"هەڵەبجە · سلێمانی","category":"شوێنی ناوخۆیی"},"geometry":{"type":"Point","coordinates":[45.8496026,35.0641108]}},{"type":"Feature","id":"osm-node-13738299115","properties":{"id":"osm-node-13738299115","name":"ناوچەی نەورۆڵی پارچە","kind":"locality","tier":"locality","priority":200,"context":"هەڵەبجە · سلێمانی","category":"شوێنی ناوخۆیی"},"geometry":{"type":"Point","coordinates":[45.9211799,35.1495825]}},{"type":"Feature","id":"osm-natural-stream-9df7075f49c76d","properties":{"id":"osm-natural-stream-9df7075f49c76d","name":"Ab-e Siravan","kind":"natural","tier":"natural","priority":180,"context":"جۆگە · حلبجة · سلێمانی","category":"جۆگە"},"geometry":{"type":"Point","coordinates":[45.9226,35.0957]}},{"type":"Feature","id":"osm-natural-peak-a83a16de79b222","properties":{"id":"osm-natural-peak-a83a16de79b222","name":"Ar Qimmat Surahmahr","kind":"natural","tier":"natural","priority":180,"context":"لوتکە · حلبجة · سلێمانی","category":"لوتکە"},"geometry":{"type":"Point","coordinates":[45.85921,35.09886]}},{"type":"Feature","id":"osm-natural-stream-73441eb8da00c2","properties":{"id":"osm-natural-stream-73441eb8da00c2","name":"Arkhawandul","kind":"natural","tier":"natural","priority":180,"context":"جۆگە · حلبجة · سلێمانی","category":"جۆگە"},"geometry":{"type":"Point","coordinates":[45.88333,35.03333]}},{"type":"Feature","id":"osm-natural-orchard-58cfe679ccea28","properties":{"id":"osm-natural-orchard-58cfe679ccea28","name":"Baxa Gawra","kind":"natural","tier":"natural","priority":180,"context":"باخ · حلبجة · سلێمانی","category":"باخ"},"geometry":{"type":"Point","coordinates":[45.9436875,35.1620238]}},{"type":"Feature","id":"osm-natural-stream-0b8cb706bacc8c","properties":{"id":"osm-natural-stream-0b8cb706bacc8c","name":"Cham-e Baharuk","kind":"natural","tier":"natural","priority":180,"context":"جۆگە · حلبجة · سلێمانی","category":"جۆگە"},"geometry":{"type":"Point","coordinates":[45.8717,35.0302]}},{"type":"Feature","id":"osm-natural-stream-94618d679f6408","properties":{"id":"osm-natural-stream-94618d679f6408","name":"Cham-i Garaw","kind":"natural","tier":"natural","priority":180,"context":"جۆگە · حلبجة · سلێمانی","category":"جۆگە"},"geometry":{"type":"Point","coordinates":[45.8656,35.025]}},{"type":"Feature","id":"osm-natural-stream-fc9ce3913d1705","properties":{"id":"osm-natural-stream-fc9ce3913d1705","name":"Cham-i Hasanawa","kind":"natural","tier":"natural","priority":180,"context":"جۆگە · حلبجة · سلێمانی","category":"جۆگە"},"geometry":{"type":"Point","coordinates":[45.9177,35.2394]}},{"type":"Feature","id":"osm-natural-stream-14ddbeea7a8402","properties":{"id":"osm-natural-stream-14ddbeea7a8402","name":"Cham-i Khulam","kind":"natural","tier":"natural","priority":180,"context":"جۆگە · دربندخان · سلێمانی","category":"جۆگە"},"geometry":{"type":"Point","coordinates":[45.8678,35.2074]}},{"type":"Feature","id":"osm-natural-orchard-a2f0d56f6f00ac","properties":{"id":"osm-natural-orchard-a2f0d56f6f00ac","name":"Delen","kind":"natural","tier":"natural","priority":180,"context":"باخ · حلبجة · سلێمانی","category":"باخ"},"geometry":{"type":"Point","coordinates":[45.93162,35.23398]}},{"type":"Feature","id":"osm-natural-mountain_pass-8f3a291fa8dadc","properties":{"id":"osm-natural-mountain_pass-8f3a291fa8dadc","name":"Mila-i Talak","kind":"natural","tier":"natural","priority":180,"context":"دەروازەی شاخ · حلبجة · سلێمانی","category":"دەروازەی شاخ"},"geometry":{"type":"Point","coordinates":[45.76056,35.07139]}},{"type":"Feature","id":"osm-natural-stream-ce8c81ddbebe60","properties":{"id":"osm-natural-stream-ce8c81ddbebe60","name":"Pris Stream","kind":"natural","tier":"natural","priority":180,"context":"جۆگە · حلبجة · سلێمانی","category":"جۆگە"},"geometry":{"type":"Point","coordinates":[45.9437402,35.1748151]}},{"type":"Feature","id":"osm-natural-stream-dd5c0abad8dd84","properties":{"id":"osm-natural-stream-dd5c0abad8dd84","name":"Rudkhaneh-ye Zimkan","kind":"natural","tier":"natural","priority":180,"context":"جۆگە · حلبجة · سلێمانی","category":"جۆگە"},"geometry":{"type":"Point","coordinates":[45.86639,35.06083]}},{"type":"Feature","id":"osm-natural-valley-4265039c2ce0e6","properties":{"id":"osm-natural-valley-4265039c2ce0e6","name":"Wadi Jahmi Zamahqi","kind":"natural","tier":"natural","priority":180,"context":"دۆڵ · حلبجة · سلێمانی","category":"دۆڵ"},"geometry":{"type":"Point","coordinates":[45.97136,35.22193]}},{"type":"Feature","id":"osm-natural-valley-4a0769341dbcac","properties":{"id":"osm-natural-valley-4a0769341dbcac","name":"Wadi Khahzinah","kind":"natural","tier":"natural","priority":180,"context":"دۆڵ · حلبجة · سلێمانی","category":"دۆڵ"},"geometry":{"type":"Point","coordinates":[45.96241,35.21897]}},{"type":"Feature","id":"osm-natural-lake-e836131aee7226","properties":{"id":"osm-natural-lake-e836131aee7226","name":"بحيرة دربندخان","kind":"natural","tier":"natural","priority":180,"context":"دەریاچە · دربندخان · سلێمانی","category":"دەریاچە"},"geometry":{"type":"Point","coordinates":[45.79176,35.15468]}},{"type":"Feature","id":"osm-natural-mountain-5a68547706f466","properties":{"id":"osm-natural-mountain-5a68547706f466","name":"جبل بالامبو","kind":"natural","tier":"natural","priority":180,"context":"شاخ · حلبجة · سلێمانی","category":"شاخ"},"geometry":{"type":"Point","coordinates":[45.88811,35.17907]}},{"type":"Feature","id":"osm-natural-mountain-747c904e99437b","properties":{"id":"osm-natural-mountain-747c904e99437b","name":"جبل برده دوكن","kind":"natural","tier":"natural","priority":180,"context":"شاخ · حلبجة · سلێمانی","category":"شاخ"},"geometry":{"type":"Point","coordinates":[45.81073,35.06837]}},{"type":"Feature","id":"osm-natural-mountain-1518688c792b96","properties":{"id":"osm-natural-mountain-1518688c792b96","name":"جبل تمر جنان","kind":"natural","tier":"natural","priority":180,"context":"شاخ · حلبجة · سلێمانی","category":"شاخ"},"geometry":{"type":"Point","coordinates":[45.84163,35.1724]}},{"type":"Feature","id":"osm-natural-mountain-d948da089cb32d","properties":{"id":"osm-natural-mountain-d948da089cb32d","name":"جبل خوشك","kind":"natural","tier":"natural","priority":180,"context":"شاخ · خانەقین · دیالە","category":"شاخ"},"geometry":{"type":"Point","coordinates":[45.75231,35.02195]}},{"type":"Feature","id":"osm-natural-mountain-eca8ff0da31682","properties":{"id":"osm-natural-mountain-eca8ff0da31682","name":"جبل داره زريته","kind":"natural","tier":"natural","priority":180,"context":"شاخ · حلبجة · سلێمانی","category":"شاخ"},"geometry":{"type":"Point","coordinates":[45.86801,35.19289]}},{"type":"Feature","id":"osm-natural-mountain-08eae0f05bd3ba","properties":{"id":"osm-natural-mountain-08eae0f05bd3ba","name":"جبل شميران","kind":"natural","tier":"natural","priority":180,"context":"شاخ · حلبجة · سلێمانی","category":"شاخ"},"geometry":{"type":"Point","coordinates":[45.819,35.09548]}},{"type":"Feature","id":"osm-natural-mountain-73d97c784783b8","properties":{"id":"osm-natural-mountain-73d97c784783b8","name":"جبل كثري بران بري زمنادو","kind":"natural","tier":"natural","priority":180,"context":"شاخ · حلبجة · سلێمانی","category":"شاخ"},"geometry":{"type":"Point","coordinates":[45.77391,35.08473]}},{"type":"Feature","id":"osm-natural-mountain-830fc545e57289","properties":{"id":"osm-natural-mountain-830fc545e57289","name":"جبل نزارة رش","kind":"natural","tier":"natural","priority":180,"context":"شاخ · حلبجة · سلێمانی","category":"شاخ"},"geometry":{"type":"Point","coordinates":[45.87,35.16566]}},{"type":"Feature","id":"osm-natural-reservoir-7cccb60913b806","properties":{"id":"osm-natural-reservoir-7cccb60913b806","name":"دەریاچەی دەربەندیخان","kind":"natural","tier":"natural","priority":180,"context":"بەنداوی ئاو · دربندخان · سلێمانی","category":"بەنداوی ئاو"},"geometry":{"type":"Point","coordinates":[45.8436479,35.1952644]}},{"type":"Feature","id":"osm-natural-river-8aa1d765111fe6","properties":{"id":"osm-natural-river-8aa1d765111fe6","name":"سیروان","kind":"natural","tier":"natural","priority":180,"context":"ڕووبار · دربندخان · سلێمانی","category":"ڕووبار"},"geometry":{"type":"Point","coordinates":[45.7511065,35.1352499]}},{"type":"Feature","id":"osm-natural-stream-dda70041a52015","properties":{"id":"osm-natural-stream-dda70041a52015","name":"شمي ورز برات","kind":"natural","tier":"natural","priority":180,"context":"جۆگە · حلبجة · سلێمانی","category":"جۆگە"},"geometry":{"type":"Point","coordinates":[45.8541065,35.1837922]}},{"type":"Feature","id":"osm-natural-valley-9438134f9bb683","properties":{"id":"osm-natural-valley-9438134f9bb683","name":"مر وزربرت","kind":"natural","tier":"natural","priority":180,"context":"دۆڵ · حلبجة · سلێمانی","category":"دۆڵ"},"geometry":{"type":"Point","coordinates":[45.85157,35.18468]}},{"type":"Feature","id":"osm-natural-river-32ad953cb1da83","properties":{"id":"osm-natural-river-32ad953cb1da83","name":"نهر ديالى","kind":"natural","tier":"natural","priority":180,"context":"ڕووبار · حلبجة · سلێمانی","category":"ڕووبار"},"geometry":{"type":"Point","coordinates":[45.8592186,35.1131957]}},{"type":"Feature","id":"osm-natural-stream-66bd9fc19fef66","properties":{"id":"osm-natural-stream-66bd9fc19fef66","name":"نهر زمكان","kind":"natural","tier":"natural","priority":180,"context":"جۆگە · حلبجة · سلێمانی","category":"جۆگە"},"geometry":{"type":"Point","coordinates":[45.898717,35.0661444]}},{"type":"Feature","id":"osm-natural-valley-24c84f9826caf2","properties":{"id":"osm-natural-valley-24c84f9826caf2","name":"وادي آوي ليلة","kind":"natural","tier":"natural","priority":180,"context":"دۆڵ · حلبجة · سلێمانی","category":"دۆڵ"},"geometry":{"type":"Point","coordinates":[45.85086,35.17984]}},{"type":"Feature","id":"osm-natural-valley-bf1f2fa33d8bc4","properties":{"id":"osm-natural-valley-bf1f2fa33d8bc4","name":"وادي اسب","kind":"natural","tier":"natural","priority":180,"context":"دۆڵ · دربندخان · سلێمانی","category":"دۆڵ"},"geometry":{"type":"Point","coordinates":[45.8026,35.20738]}},{"type":"Feature","id":"osm-natural-valley-2421d575d9afff","properties":{"id":"osm-natural-valley-2421d575d9afff","name":"وادي بهزان بك","kind":"natural","tier":"natural","priority":180,"context":"دۆڵ · دربندخان · سلێمانی","category":"دۆڵ"},"geometry":{"type":"Point","coordinates":[45.78996,35.19068]}},{"type":"Feature","id":"osm-natural-valley-6f235e7c0b88c2","properties":{"id":"osm-natural-valley-6f235e7c0b88c2","name":"وادي بيماروك","kind":"natural","tier":"natural","priority":180,"context":"دۆڵ · حلبجة · سلێمانی","category":"دۆڵ"},"geometry":{"type":"Point","coordinates":[45.87091,35.02922]}},{"type":"Feature","id":"osm-natural-valley-d2293c598b8fc4","properties":{"id":"osm-natural-valley-d2293c598b8fc4","name":"وادي جالكه اشور","kind":"natural","tier":"natural","priority":180,"context":"دۆڵ · دربندخان · سلێمانی","category":"دۆڵ"},"geometry":{"type":"Point","coordinates":[45.88193,35.21986]}},{"type":"Feature","id":"osm-natural-valley-0def2b30c9548b","properties":{"id":"osm-natural-valley-0def2b30c9548b","name":"وادي جمه تيو","kind":"natural","tier":"natural","priority":180,"context":"دۆڵ · دربندخان · سلێمانی","category":"دۆڵ"},"geometry":{"type":"Point","coordinates":[45.78025,35.17414]}},{"type":"Feature","id":"osm-natural-valley-462b58fd8b7675","properties":{"id":"osm-natural-valley-462b58fd8b7675","name":"وادي دولي خوار","kind":"natural","tier":"natural","priority":180,"context":"دۆڵ · حلبجة · سلێمانی","category":"دۆڵ"},"geometry":{"type":"Point","coordinates":[45.85888,35.01616]}},{"type":"Feature","id":"osm-natural-valley-41dcfe4f7757a2","properties":{"id":"osm-natural-valley-41dcfe4f7757a2","name":"وادي سرحان زارين","kind":"natural","tier":"natural","priority":180,"context":"دۆڵ · حلبجة · سلێمانی","category":"دۆڵ"},"geometry":{"type":"Point","coordinates":[45.85448,35.06986]}},{"type":"Feature","id":"osm-natural-valley-bfa3b826c30f70","properties":{"id":"osm-natural-valley-bfa3b826c30f70","name":"وادي سرناو","kind":"natural","tier":"natural","priority":180,"context":"دۆڵ · حلبجة · سلێمانی","category":"دۆڵ"},"geometry":{"type":"Point","coordinates":[45.87996,35.03773]}},{"type":"Feature","id":"osm-natural-valley-d12cf1cabbd6a4","properties":{"id":"osm-natural-valley-d12cf1cabbd6a4","name":"وادي قورتاسي","kind":"natural","tier":"natural","priority":180,"context":"دۆڵ · دربندخان · سلێمانی","category":"دۆڵ"},"geometry":{"type":"Point","coordinates":[45.88255,35.23345]}},{"type":"Feature","id":"osm-natural-valley-5c4aef8acfcda0","properties":{"id":"osm-natural-valley-5c4aef8acfcda0","name":"وادي كراو","kind":"natural","tier":"natural","priority":180,"context":"دۆڵ · حلبجة · سلێمانی","category":"دۆڵ"},"geometry":{"type":"Point","coordinates":[45.85273,35.00199]}},{"type":"Feature","id":"osm-natural-valley-3421496f77fdd4","properties":{"id":"osm-natural-valley-3421496f77fdd4","name":"وادي كرده","kind":"natural","tier":"natural","priority":180,"context":"دۆڵ · حلبجة · سلێمانی","category":"دۆڵ"},"geometry":{"type":"Point","coordinates":[45.91768,35.23841]}},{"type":"Feature","id":"osm-natural-valley-18a35963123eb1","properties":{"id":"osm-natural-valley-18a35963123eb1","name":"وادي كروانو","kind":"natural","tier":"natural","priority":180,"context":"دۆڵ · حلبجة · سلێمانی","category":"دۆڵ"},"geometry":{"type":"Point","coordinates":[45.86361,35.05708]}},{"type":"Feature","id":"osm-natural-valley-f87ea21a497616","properties":{"id":"osm-natural-valley-f87ea21a497616","name":"وادي كلي زرده","kind":"natural","tier":"natural","priority":180,"context":"دۆڵ · دربندخان · سلێمانی","category":"دۆڵ"},"geometry":{"type":"Point","coordinates":[45.82046,35.20833]}},{"type":"Feature","id":"osm-natural-valley-100893c807f5c6","properties":{"id":"osm-natural-valley-100893c807f5c6","name":"وادي كوكوئي","kind":"natural","tier":"natural","priority":180,"context":"دۆڵ · دربندخان · سلێمانی","category":"دۆڵ"},"geometry":{"type":"Point","coordinates":[45.76748,35.115259]}},{"type":"Feature","id":"osm-natural-valley-f7243be31867c2","properties":{"id":"osm-natural-valley-f7243be31867c2","name":"وادي كولان","kind":"natural","tier":"natural","priority":180,"context":"دۆڵ · دربندخان · سلێمانی","category":"دۆڵ"},"geometry":{"type":"Point","coordinates":[45.77949,35.20721]}},{"type":"Feature","id":"osm-natural-valley-7e1559a2ed3a5a","properties":{"id":"osm-natural-valley-7e1559a2ed3a5a","name":"وادي مورتكة","kind":"natural","tier":"natural","priority":180,"context":"دۆڵ · حلبجة · سلێمانی","category":"دۆڵ"},"geometry":{"type":"Point","coordinates":[45.80705,35.03413]}},{"type":"Feature","id":"osm-natural-valley-6d632c89bbb736","properties":{"id":"osm-natural-valley-6d632c89bbb736","name":"وادي ناوهال","kind":"natural","tier":"natural","priority":180,"context":"دۆڵ · حلبجة · سلێمانی","category":"دۆڵ"},"geometry":{"type":"Point","coordinates":[45.82741,35.01646]}},{"type":"Feature","id":"osm-natural-valley-e497fd2a2d5ddc","properties":{"id":"osm-natural-valley-e497fd2a2d5ddc","name":"وادي هالارش","kind":"natural","tier":"natural","priority":180,"context":"دۆڵ · حلبجة · سلێمانی","category":"دۆڵ"},"geometry":{"type":"Point","coordinates":[45.85265,35.05937]}},{"type":"Feature","id":"osm-natural-valley-8b6cfc4d840a49","properties":{"id":"osm-natural-valley-8b6cfc4d840a49","name":"وادي هرزلي","kind":"natural","tier":"natural","priority":180,"context":"دۆڵ · حلبجة · سلێمانی","category":"دۆڵ"},"geometry":{"type":"Point","coordinates":[45.86381,35.02435]}},{"type":"Feature","id":"osm-natural-valley-86e4d885e0a6ee","properties":{"id":"osm-natural-valley-86e4d885e0a6ee","name":"وادي هلوجن","kind":"natural","tier":"natural","priority":180,"context":"دۆڵ · حلبجة · سلێمانی","category":"دۆڵ"},"geometry":{"type":"Point","coordinates":[45.86547,35.06151]}},{"type":"Feature","id":"osm-natural-valley-fdacc444eeef8f","properties":{"id":"osm-natural-valley-fdacc444eeef8f","name":"وادي هونه شان","kind":"natural","tier":"natural","priority":180,"context":"دۆڵ · حلبجة · سلێمانی","category":"دۆڵ"},"geometry":{"type":"Point","coordinates":[45.88614,35.14505]}},{"type":"Feature","id":"osm-natural-valley-08924a8161c761","properties":{"id":"osm-natural-valley-08924a8161c761","name":"وادي ورمن","kind":"natural","tier":"natural","priority":180,"context":"دۆڵ · دربندخان · سلێمانی","category":"دۆڵ"},"geometry":{"type":"Point","coordinates":[45.78815,35.12683]}},{"type":"Feature","id":"osm-natural-stream-17e50771281f9e","properties":{"id":"osm-natural-stream-17e50771281f9e","name":"چەمی حەمە تەیو","kind":"natural","tier":"natural","priority":180,"context":"جۆگە · دربندخان · سلێمانی","category":"جۆگە"},"geometry":{"type":"Point","coordinates":[45.7729187,35.1775382]}},{"type":"Feature","id":"osm-natural-river-7d2fdfd25003d6","properties":{"id":"osm-natural-river-7d2fdfd25003d6","name":"چەمی زمکان","kind":"natural","tier":"natural","priority":180,"context":"ڕووبار · حلبجة · سلێمانی","category":"ڕووبار"},"geometry":{"type":"Point","coordinates":[45.8785522,35.0619472]}},{"type":"Feature","id":"osm-natural-valley-7f0ac43a64db9a","properties":{"id":"osm-natural-valley-7f0ac43a64db9a","name":"چەمی زەمەقی","kind":"natural","tier":"natural","priority":180,"context":"دۆڵ · حلبجة · سلێمانی","category":"دۆڵ"},"geometry":{"type":"Point","coordinates":[45.960558,35.228548]}},{"type":"Feature","id":"road-label-osm-way-1220642911","properties":{"id":"road-label-osm-way-1220642911","name":"رێگای سلێمانی-سەیدسادق-هەلەبجە","kind":"road","tier":"road","priority":95,"context":"trunk · حلبجة · سلێمانی","category":"ڕێگا"},"geometry":{"type":"Point","coordinates":[45.944782,35.243738]}},{"type":"Feature","id":"road-label-osm-way-321657078","properties":{"id":"road-label-osm-way-321657078","name":"Qanie Street","kind":"road","tier":"road","priority":72,"context":"secondary · حلبجة · سلێمانی","category":"ڕێگا"},"geometry":{"type":"Point","coordinates":[45.994632,35.181554]}},{"type":"Feature","id":"road-label-osm-way-321650020","properties":{"id":"road-label-osm-way-321650020","name":"Sarwarani 1","kind":"road","tier":"road","priority":72,"context":"secondary · حلبجة · سلێمانی","category":"ڕێگا"},"geometry":{"type":"Point","coordinates":[45.97327,35.182467]}},{"type":"Feature","id":"road-label-osm-way-1317361378","properties":{"id":"road-label-osm-way-1317361378","name":"Sarwarani 2","kind":"road","tier":"road","priority":72,"context":"secondary · حلبجة · سلێمانی","category":"ڕێگا"},"geometry":{"type":"Point","coordinates":[45.968314,35.18501]}},{"type":"Feature","id":"road-label-osm-way-260130586","properties":{"id":"road-label-osm-way-260130586","name":"جادەی گوڵان","kind":"road","tier":"road","priority":72,"context":"secondary · حلبجة · سلێمانی","category":"ڕێگا"},"geometry":{"type":"Point","coordinates":[45.978766,35.177998]}},{"type":"Feature","id":"road-label-osm-way-260130600","properties":{"id":"road-label-osm-way-260130600","name":"Kani Qwlka","kind":"road","tier":"road","priority":55,"context":"tertiary · حلبجة · سلێمانی","category":"ڕێگا"},"geometry":{"type":"Point","coordinates":[45.987874,35.182804]}},{"type":"Feature","id":"road-label-osm-way-315677180","properties":{"id":"road-label-osm-way-315677180","name":"Nawroli Road","kind":"road","tier":"road","priority":55,"context":"tertiary · حلبجة · سلێمانی","category":"ڕێگا"},"geometry":{"type":"Point","coordinates":[45.9229,35.147591]}},{"type":"Feature","id":"osm-node-7172639192-hospital","properties":{"id":"osm-node-7172639192-hospital","name":"Naxosxanay chawaka","kind":"poi","tier":"poi_landmark","priority":95.1,"context":"نەخۆشخانە","category":"نەخۆشخانە"},"geometry":{"type":"Point","coordinates":[45.9837748,35.178489]}},{"type":"Feature","id":"osm-node-4458716990-hospital","properties":{"id":"osm-node-4458716990-hospital","name":"بنکەی تەندروستی پیر محمد","kind":"poi","tier":"poi_landmark","priority":95.1,"context":"نەخۆشخانە","category":"نەخۆشخانە"},"geometry":{"type":"Point","coordinates":[45.9829911,35.1781165]}},{"type":"Feature","id":"osm-node-5849345185-hospital","properties":{"id":"osm-node-5849345185-hospital","name":"شەهید ئەمجەد","kind":"poi","tier":"poi_landmark","priority":95.1,"context":"نەخۆشخانە","category":"نەخۆشخانە"},"geometry":{"type":"Point","coordinates":[45.9462988,35.247333]}},{"type":"Feature","id":"osm-node-6788883985-hospital","properties":{"id":"osm-node-6788883985-hospital","name":"نەخۆشخانەی بەخشین","kind":"poi","tier":"poi_landmark","priority":95.1,"context":"نەخۆشخانە","category":"نەخۆشخانە"},"geometry":{"type":"Point","coordinates":[45.9918421,35.1747422]}},{"type":"Feature","id":"osm-node-9702946317-hospital","properties":{"id":"osm-node-9702946317-hospital","name":"کاک یاسین جەڕاح","kind":"poi","tier":"poi_landmark","priority":95.1,"context":"نەخۆشخانە","category":"نەخۆشخانە"},"geometry":{"type":"Point","coordinates":[45.9922801,35.1725947]}},{"type":"Feature","id":"osm-way-540595499-hospital","properties":{"id":"osm-way-540595499-hospital","name":"Shahid fatih Hospital","kind":"poi","tier":"poi_landmark","priority":95.092,"context":"نەخۆشخانە","category":"نەخۆشخانە"},"geometry":{"type":"Point","coordinates":[45.9822238,35.1872956]}},{"type":"Feature","id":"osm-way-852373363-hospital","properties":{"id":"osm-way-852373363-hospital","name":"Wafa Hospital","kind":"poi","tier":"poi_landmark","priority":95.092,"context":"نەخۆشخانە","category":"نەخۆشخانە"},"geometry":{"type":"Point","coordinates":[45.9792109,35.1951363]}},{"type":"Feature","id":"osm-way-424690616-hospital","properties":{"id":"osm-way-424690616-hospital","name":"نەخۆشخانەی بەرکەوتوانی چەکی کیمیاوی","kind":"poi","tier":"poi_landmark","priority":95.092,"context":"نەخۆشخانە","category":"نەخۆشخانە"},"geometry":{"type":"Point","coordinates":[45.9806357,35.1943867]}},{"type":"Feature","id":"osm-way-424689080-hospital","properties":{"id":"osm-way-424689080-hospital","name":"نەخۆشخانەی فریاکەوتن","kind":"poi","tier":"poi_landmark","priority":95.092,"context":"نەخۆشخانە","category":"نەخۆشخانە"},"geometry":{"type":"Point","coordinates":[45.979258,35.1944687]}},{"type":"Feature","id":"osm-way-424690555-hospital","properties":{"id":"osm-way-424690555-hospital","name":"نەخۆشخانەی مناڵبوون","kind":"poi","tier":"poi_landmark","priority":95.092,"context":"نەخۆشخانە","category":"نەخۆشخانە"},"geometry":{"type":"Point","coordinates":[45.9820051,35.1946236]}},{"type":"Feature","id":"osm-way-540571732-building","properties":{"id":"osm-way-540571732-building","name":"نەخۆشخانەی راوێژکاری","kind":"poi","tier":"poi_landmark","priority":95.055,"context":"نەخۆشخانە","category":"نەخۆشخانە"},"geometry":{"type":"Point","coordinates":[45.9933396,35.1882107]}},{"type":"Feature","id":"osm-way-1073275171-building","properties":{"id":"osm-way-1073275171-building","name":"نەخۆشخانەی عەنەب","kind":"poi","tier":"poi_landmark","priority":95.055,"context":"نەخۆشخانە","category":"نەخۆشخانە"},"geometry":{"type":"Point","coordinates":[45.9926564,35.1888435]}},{"type":"Feature","id":"osm-node-5714922321-bank","properties":{"id":"osm-node-5714922321-bank","name":"بانکی خانوبەرەی هەڵەبجە","kind":"poi","tier":"poi_landmark","priority":92.1,"context":"بانک","category":"بانک"},"geometry":{"type":"Point","coordinates":[45.9822063,35.179478]}},{"type":"Feature","id":"osm-way-540758156-bank","properties":{"id":"osm-way-540758156-bank","name":"بانکی هەڵەبجە","kind":"poi","tier":"poi_landmark","priority":92.092,"context":"بانک","category":"بانک"},"geometry":{"type":"Point","coordinates":[45.9898834,35.175382]}},{"type":"Feature","id":"osm-way-540820956-military","properties":{"id":"osm-way-540820956-military","name":"مەڵبەندی یەکیەتی نیشتمانی کوردستان","kind":"poi","tier":"poi_regional","priority":80.045,"context":"بنکەی سەربازی","category":"بنکەی سەربازی"},"geometry":{"type":"Point","coordinates":[45.9835329,35.1792989]}},{"type":"Feature","id":"osm-way-908524961-mall","properties":{"id":"osm-way-908524961-mall","name":"خلیج مۆلل","kind":"poi","tier":"poi_regional","priority":78.092,"context":"مەوڵ","category":"مەوڵ"},"geometry":{"type":"Point","coordinates":[45.9945966,35.182366]}},{"type":"Feature","id":"osm-way-320679161-stadium","properties":{"id":"osm-way-320679161-stadium","name":"یاریگای هەڵەبجە","kind":"poi","tier":"poi_regional","priority":76.092,"context":"یاریگا","category":"یاریگا"},"geometry":{"type":"Point","coordinates":[45.9611834,35.2036688]}},{"type":"Feature","id":"osm-node-13898286901-attraction","properties":{"id":"osm-node-13898286901-attraction","name":"بحیرە دربندخان","kind":"poi","tier":"poi_detail","priority":50.1,"context":"شوێنی گەشتیاری","category":"شوێنی گەشتیاری"},"geometry":{"type":"Point","coordinates":[45.7777719,35.1488326]}},{"type":"Feature","id":"osm-node-13738379889-attraction","properties":{"id":"osm-node-13738379889-attraction","name":"ناوچەی گەشتیاری نەورۆڵی","kind":"poi","tier":"poi_detail","priority":50.1,"context":"شوێنی گەشتیاری","category":"شوێنی گەشتیاری"},"geometry":{"type":"Point","coordinates":[45.9042267,35.1148689]}},{"type":"Feature","id":"osm-way-424695848-college","properties":{"id":"osm-way-424695848-college","name":"Halabja Technical College","kind":"poi","tier":"poi_detail","priority":50.092,"context":"کۆلێژ","category":"کۆلێژ"},"geometry":{"type":"Point","coordinates":[45.9662452,35.2060879]}},{"type":"Feature","id":"osm-way-424696133-archaeological","properties":{"id":"osm-way-424696133-archaeological","name":"تەپەی بەکرئاوا","kind":"poi","tier":"poi_detail","priority":50.092,"context":"شوێنی شوێنەوار","category":"شوێنی شوێنەوار"},"geometry":{"type":"Point","coordinates":[45.9403002,35.221603]}},{"type":"Feature","id":"osm-way-424691711-fuel","properties":{"id":"osm-way-424691711-fuel","name":"بەنزینخانەی سان","kind":"poi","tier":"poi_regional","priority":82.086,"context":"وێستگەی سووتەمەنی","category":"وێستگەی سووتەمەنی"},"geometry":{"type":"Point","coordinates":[45.9727686,35.1936873]}},{"type":"Feature","id":"osm-way-540524051-fuel","properties":{"id":"osm-way-540524051-fuel","name":"بەنزینخانەی عەدنان","kind":"poi","tier":"poi_regional","priority":82.086,"context":"وێستگەی سووتەمەنی","category":"وێستگەی سووتەمەنی"},"geometry":{"type":"Point","coordinates":[45.9667547,35.2046578]}},{"type":"Feature","id":"osm-node-10834489583-bus_station","properties":{"id":"osm-node-10834489583-bus_station","name":"گەراجی سلێمانی","kind":"poi","tier":"poi_regional","priority":80.096,"context":"وێستگەی پاس","category":"وێستگەی پاس"},"geometry":{"type":"Point","coordinates":[45.9839137,35.1779833]}},{"type":"Feature","id":"osm-way-424692060-police","properties":{"id":"osm-way-424692060-police","name":"پۆلیسی چالاکیە مەدەنیەکان","kind":"poi","tier":"poi_regional","priority":77.092,"context":"بنکەی پۆلیس","category":"بنکەی پۆلیس"},"geometry":{"type":"Point","coordinates":[45.9754224,35.1881735]}},{"type":"Feature","id":"osm-node-10243670872-car_dealership","properties":{"id":"osm-node-10243670872-car_dealership","name":"iQ Showroom","kind":"poi","tier":"poi_regional","priority":76.1,"context":"پێشانگای ئۆتۆمبیل","category":"پێشانگای ئۆتۆمبیل"},"geometry":{"type":"Point","coordinates":[45.98254,35.17908]}},{"type":"Feature","id":"osm-way-772720009-residential","properties":{"id":"osm-way-772720009-residential","name":"ئیمامی زامن","kind":"poi","tier":"poi_local","priority":68.045,"context":"کۆمپاوندی نیشتەجێبوون","category":"کۆمپاوندی نیشتەجێبوون"},"geometry":{"type":"Point","coordinates":[45.876737,35.2245529]}},{"type":"Feature","id":"osm-way-988265228-residential","properties":{"id":"osm-way-988265228-residential","name":"باخی د.کۆسار","kind":"poi","tier":"poi_local","priority":68.045,"context":"کۆمپاوندی نیشتەجێبوون","category":"کۆمپاوندی نیشتەجێبوون"},"geometry":{"type":"Point","coordinates":[45.9556113,35.2253889]}},{"type":"Feature","id":"osm-way-385089341-residential","properties":{"id":"osm-way-385089341-residential","name":"بانی بۆڵان","kind":"poi","tier":"poi_local","priority":68.045,"context":"کۆمپاوندی نیشتەجێبوون","category":"کۆمپاوندی نیشتەجێبوون"},"geometry":{"type":"Point","coordinates":[45.8267173,35.0249105]}},{"type":"Feature","id":"osm-way-1301447823-residential","properties":{"id":"osm-way-1301447823-residential","name":"باوەکۆچک","kind":"poi","tier":"poi_local","priority":68.045,"context":"کۆمپاوندی نیشتەجێبوون","category":"کۆمپاوندی نیشتەجێبوون"},"geometry":{"type":"Point","coordinates":[45.9808215,35.1561322]}},{"type":"Feature","id":"osm-way-545836530-residential","properties":{"id":"osm-way-545836530-residential","name":"بێسەلمێن","kind":"poi","tier":"poi_local","priority":68.045,"context":"کۆمپاوندی نیشتەجێبوون","category":"کۆمپاوندی نیشتەجێبوون"},"geometry":{"type":"Point","coordinates":[45.8416301,35.2366509]}},{"type":"Feature","id":"osm-way-514968869-residential","properties":{"id":"osm-way-514968869-residential","name":"بێلەنگە","kind":"poi","tier":"poi_local","priority":68.045,"context":"کۆمپاوندی نیشتەجێبوون","category":"کۆمپاوندی نیشتەجێبوون"},"geometry":{"type":"Point","coordinates":[45.9212085,35.1686008]}},{"type":"Feature","id":"osm-way-785417299-residential","properties":{"id":"osm-way-785417299-residential","name":"بێمارۆک","kind":"poi","tier":"poi_local","priority":68.045,"context":"کۆمپاوندی نیشتەجێبوون","category":"کۆمپاوندی نیشتەجێبوون"},"geometry":{"type":"Point","coordinates":[45.8790164,35.0675608]}},{"type":"Feature","id":"osm-way-772721317-residential","properties":{"id":"osm-way-772721317-residential","name":"بێژاوا","kind":"poi","tier":"poi_local","priority":68.045,"context":"کۆمپاوندی نیشتەجێبوون","category":"کۆمپاوندی نیشتەجێبوون"},"geometry":{"type":"Point","coordinates":[45.9049353,35.1958209]}},{"type":"Feature","id":"osm-way-772724015-residential","properties":{"id":"osm-way-772724015-residential","name":"بەشی پیرک","kind":"poi","tier":"poi_local","priority":68.045,"context":"کۆمپاوندی نیشتەجێبوون","category":"کۆمپاوندی نیشتەجێبوون"},"geometry":{"type":"Point","coordinates":[45.8484635,35.1358697]}},{"type":"Feature","id":"osm-way-424696337-residential","properties":{"id":"osm-way-424696337-residential","name":"بەکراوە","kind":"poi","tier":"poi_local","priority":68.045,"context":"کۆمپاوندی نیشتەجێبوون","category":"کۆمپاوندی نیشتەجێبوون"},"geometry":{"type":"Point","coordinates":[45.9409863,35.219214]}},{"type":"Feature","id":"osm-way-772912601-residential","properties":{"id":"osm-way-772912601-residential","name":"تریفە","kind":"poi","tier":"poi_local","priority":68.045,"context":"کۆمپاوندی نیشتەجێبوون","category":"کۆمپاوندی نیشتەجێبوون"},"geometry":{"type":"Point","coordinates":[45.9587419,35.1567742]}},{"type":"Feature","id":"osm-way-772722848-residential","properties":{"id":"osm-way-772722848-residential","name":"تونی حاجی حەسەن","kind":"poi","tier":"poi_local","priority":68.045,"context":"کۆمپاوندی نیشتەجێبوون","category":"کۆمپاوندی نیشتەجێبوون"},"geometry":{"type":"Point","coordinates":[45.8203031,35.1696433]}},{"type":"Feature","id":"osm-way-772718828-residential","properties":{"id":"osm-way-772718828-residential","name":"تووەقوت","kind":"poi","tier":"poi_local","priority":68.045,"context":"کۆمپاوندی نیشتەجێبوون","category":"کۆمپاوندی نیشتەجێبوون"},"geometry":{"type":"Point","coordinates":[45.8505625,35.2160023]}},{"type":"Feature","id":"osm-way-772768357-residential","properties":{"id":"osm-way-772768357-residential","name":"تەوەنەبەل","kind":"poi","tier":"poi_local","priority":68.045,"context":"کۆمپاوندی نیشتەجێبوون","category":"کۆمپاوندی نیشتەجێبوون"},"geometry":{"type":"Point","coordinates":[45.9693268,35.0754343]}},{"type":"Feature","id":"osm-way-545836522-residential","properties":{"id":"osm-way-545836522-residential","name":"جەرداسنە","kind":"poi","tier":"poi_local","priority":68.045,"context":"کۆمپاوندی نیشتەجێبوون","category":"کۆمپاوندی نیشتەجێبوون"},"geometry":{"type":"Point","coordinates":[45.8289522,35.2115542]}},{"type":"Feature","id":"osm-way-852684374-residential","properties":{"id":"osm-way-852684374-residential","name":"حەسەناوا","kind":"poi","tier":"poi_local","priority":68.045,"context":"کۆمپاوندی نیشتەجێبوون","category":"کۆمپاوندی نیشتەجێبوون"},"geometry":{"type":"Point","coordinates":[45.967071,35.1846649]}},{"type":"Feature","id":"osm-way-1301442964-residential","properties":{"id":"osm-way-1301442964-residential","name":"حەمەوغان","kind":"poi","tier":"poi_local","priority":68.045,"context":"کۆمپاوندی نیشتەجێبوون","category":"کۆمپاوندی نیشتەجێبوون"},"geometry":{"type":"Point","coordinates":[45.9709885,35.2091461]}},{"type":"Feature","id":"osm-way-345828013-residential","properties":{"id":"osm-way-345828013-residential","name":"دگاگا","kind":"poi","tier":"poi_local","priority":68.045,"context":"کۆمپاوندی نیشتەجێبوون","category":"کۆمپاوندی نیشتەجێبوون"},"geometry":{"type":"Point","coordinates":[45.9800949,35.0688525]}},{"type":"Feature","id":"osm-way-772736663-residential","properties":{"id":"osm-way-772736663-residential","name":"دێ سوتەک","kind":"poi","tier":"poi_local","priority":68.045,"context":"کۆمپاوندی نیشتەجێبوون","category":"کۆمپاوندی نیشتەجێبوون"},"geometry":{"type":"Point","coordinates":[45.8949271,35.0876222]}},{"type":"Feature","id":"osm-way-785420347-residential","properties":{"id":"osm-way-785420347-residential","name":"دەڵف","kind":"poi","tier":"poi_local","priority":68.045,"context":"کۆمپاوندی نیشتەجێبوون","category":"کۆمپاوندی نیشتەجێبوون"},"geometry":{"type":"Point","coordinates":[45.858189,35.109418]}},{"type":"Feature","id":"osm-way-1301374467-residential","properties":{"id":"osm-way-1301374467-residential","name":"دەڵێنی","kind":"poi","tier":"poi_local","priority":68.045,"context":"کۆمپاوندی نیشتەجێبوون","category":"کۆمپاوندی نیشتەجێبوون"},"geometry":{"type":"Point","coordinates":[45.9554341,35.2319895]}},{"type":"Feature","id":"osm-way-785424703-residential","properties":{"id":"osm-way-785424703-residential","name":"زارێن","kind":"poi","tier":"poi_local","priority":68.045,"context":"کۆمپاوندی نیشتەجێبوون","category":"کۆمپاوندی نیشتەجێبوون"},"geometry":{"type":"Point","coordinates":[45.835303,35.0717363]}},{"type":"Feature","id":"osm-way-321629429-residential","properties":{"id":"osm-way-321629429-residential","name":"زەمەقی خواروو","kind":"poi","tier":"poi_local","priority":68.045,"context":"کۆمپاوندی نیشتەجێبوون","category":"کۆمپاوندی نیشتەجێبوون"},"geometry":{"type":"Point","coordinates":[45.9687648,35.2232492]}},{"type":"Feature","id":"osm-way-513672840-residential","properties":{"id":"osm-way-513672840-residential","name":"سەراو","kind":"poi","tier":"poi_local","priority":68.045,"context":"کۆمپاوندی نیشتەجێبوون","category":"کۆمپاوندی نیشتەجێبوون"},"geometry":{"type":"Point","coordinates":[45.9283744,35.1420075]}},{"type":"Feature","id":"osm-way-785419923-residential","properties":{"id":"osm-way-785419923-residential","name":"سەرشاتەی خواروو","kind":"poi","tier":"poi_local","priority":68.045,"context":"کۆمپاوندی نیشتەجێبوون","category":"کۆمپاوندی نیشتەجێبوون"},"geometry":{"type":"Point","coordinates":[45.8796393,35.0939448]}},{"type":"Feature","id":"osm-way-772720495-residential","properties":{"id":"osm-way-772720495-residential","name":"غوڵامی خوارووی تازە","kind":"poi","tier":"poi_local","priority":68.045,"context":"کۆمپاوندی نیشتەجێبوون","category":"کۆمپاوندی نیشتەجێبوون"},"geometry":{"type":"Point","coordinates":[45.8713964,35.2152419]}},{"type":"Feature","id":"osm-way-772720921-residential","properties":{"id":"osm-way-772720921-residential","name":"غوڵامی خوارووی کۆن","kind":"poi","tier":"poi_local","priority":68.045,"context":"کۆمپاوندی نیشتەجێبوون","category":"کۆمپاوندی نیشتەجێبوون"},"geometry":{"type":"Point","coordinates":[45.8666508,35.2089929]}},{"type":"Feature","id":"osm-way-1301365136-residential","properties":{"id":"osm-way-1301365136-residential","name":"غوڵامی سەروو","kind":"poi","tier":"poi_local","priority":68.045,"context":"کۆمپاوندی نیشتەجێبوون","category":"کۆمپاوندی نیشتەجێبوون"},"geometry":{"type":"Point","coordinates":[45.879649,35.1804123]}},{"type":"Feature","id":"osm-way-514519793-residential","properties":{"id":"osm-way-514519793-residential","name":"قارەمانی","kind":"poi","tier":"poi_local","priority":68.045,"context":"کۆمپاوندی نیشتەجێبوون","category":"کۆمپاوندی نیشتەجێبوون"},"geometry":{"type":"Point","coordinates":[45.8629737,35.1750421]}},{"type":"Feature","id":"osm-way-1301152836-residential","properties":{"id":"osm-way-1301152836-residential","name":"قشڵاغەڕووتە","kind":"poi","tier":"poi_local","priority":68.045,"context":"کۆمپاوندی نیشتەجێبوون","category":"کۆمپاوندی نیشتەجێبوون"},"geometry":{"type":"Point","coordinates":[45.9904619,35.241356]}},{"type":"Feature","id":"osm-way-383577992-residential","properties":{"id":"osm-way-383577992-residential","name":"قەڵپ","kind":"poi","tier":"poi_local","priority":68.045,"context":"کۆمپاوندی نیشتەجێبوون","category":"کۆمپاوندی نیشتەجێبوون"},"geometry":{"type":"Point","coordinates":[45.779504,35.0151379]}},{"type":"Feature","id":"osm-way-772767165-residential","properties":{"id":"osm-way-772767165-residential","name":"لاوران","kind":"poi","tier":"poi_local","priority":68.045,"context":"کۆمپاوندی نیشتەجێبوون","category":"کۆمپاوندی نیشتەجێبوون"},"geometry":{"type":"Point","coordinates":[45.9162406,35.0790305]}},{"type":"Feature","id":"osm-way-514974000-residential","properties":{"id":"osm-way-514974000-residential","name":"مامەشایی","kind":"poi","tier":"poi_local","priority":68.045,"context":"کۆمپاوندی نیشتەجێبوون","category":"کۆمپاوندی نیشتەجێبوون"},"geometry":{"type":"Point","coordinates":[45.8433017,35.156893]}},{"type":"Feature","id":"osm-way-383952973-residential","properties":{"id":"osm-way-383952973-residential","name":"مۆرتکە","kind":"poi","tier":"poi_local","priority":68.045,"context":"کۆمپاوندی نیشتەجێبوون","category":"کۆمپاوندی نیشتەجێبوون"},"geometry":{"type":"Point","coordinates":[45.7825871,35.063693]}},{"type":"Feature","id":"osm-way-772728865-residential","properties":{"id":"osm-way-772728865-residential","name":"میراولی","kind":"poi","tier":"poi_local","priority":68.045,"context":"کۆمپاوندی نیشتەجێبوون","category":"کۆمپاوندی نیشتەجێبوون"},"geometry":{"type":"Point","coordinates":[45.8775181,35.1547901]}},{"type":"Feature","id":"osm-way-514973999-residential","properties":{"id":"osm-way-514973999-residential","name":"نێرگزەجاڕ","kind":"poi","tier":"poi_local","priority":68.045,"context":"کۆمپاوندی نیشتەجێبوون","category":"کۆمپاوندی نیشتەجێبوون"},"geometry":{"type":"Point","coordinates":[45.8192428,35.1876969]}},{"type":"Feature","id":"osm-way-514974001-residential","properties":{"id":"osm-way-514974001-residential","name":"نەوەر","kind":"poi","tier":"poi_local","priority":68.045,"context":"کۆمپاوندی نیشتەجێبوون","category":"کۆمپاوندی نیشتەجێبوون"},"geometry":{"type":"Point","coordinates":[45.88381,35.1310143]}},{"type":"Feature","id":"osm-way-513672834-residential","properties":{"id":"osm-way-513672834-residential","name":"هانەسوورە","kind":"poi","tier":"poi_local","priority":68.045,"context":"کۆمپاوندی نیشتەجێبوون","category":"کۆمپاوندی نیشتەجێبوون"},"geometry":{"type":"Point","coordinates":[45.9402926,35.149406]}},{"type":"Feature","id":"osm-way-772717404-residential","properties":{"id":"osm-way-772717404-residential","name":"وازۆڵ","kind":"poi","tier":"poi_local","priority":68.045,"context":"کۆمپاوندی نیشتەجێبوون","category":"کۆمپاوندی نیشتەجێبوون"},"geometry":{"type":"Point","coordinates":[45.7616247,35.2177796]}},{"type":"Feature","id":"osm-way-772913778-residential","properties":{"id":"osm-way-772913778-residential","name":"پریسی خواروو","kind":"poi","tier":"poi_local","priority":68.045,"context":"کۆمپاوندی نیشتەجێبوون","category":"کۆمپاوندی نیشتەجێبوون"},"geometry":{"type":"Point","coordinates":[45.9370751,35.1931608]}},{"type":"Feature","id":"osm-way-1301301172-residential","properties":{"id":"osm-way-1301301172-residential","name":"پریسی سەروو","kind":"poi","tier":"poi_local","priority":68.045,"context":"کۆمپاوندی نیشتەجێبوون","category":"کۆمپاوندی نیشتەجێبوون"},"geometry":{"type":"Point","coordinates":[45.9414792,35.1595729]}},{"type":"Feature","id":"osm-way-545757255-residential","properties":{"id":"osm-way-545757255-residential","name":"پشتقەڵا","kind":"poi","tier":"poi_local","priority":68.045,"context":"کۆمپاوندی نیشتەجێبوون","category":"کۆمپاوندی نیشتەجێبوون"},"geometry":{"type":"Point","coordinates":[45.8343638,35.1021458]}},{"type":"Feature","id":"osm-way-504444434-residential","properties":{"id":"osm-way-504444434-residential","name":"چاوگی کۆکۆیی","kind":"poi","tier":"poi_local","priority":68.045,"context":"کۆمپاوندی نیشتەجێبوون","category":"کۆمپاوندی نیشتەجێبوون"},"geometry":{"type":"Point","coordinates":[45.9747603,35.1466762]}},{"type":"Feature","id":"osm-way-772730881-residential","properties":{"id":"osm-way-772730881-residential","name":"چروستان","kind":"poi","tier":"poi_local","priority":68.045,"context":"کۆمپاوندی نیشتەجێبوون","category":"کۆمپاوندی نیشتەجێبوون"},"geometry":{"type":"Point","coordinates":[45.8937686,35.1577702]}},{"type":"Feature","id":"osm-way-785426650-residential","properties":{"id":"osm-way-785426650-residential","name":"چەمەڕەش","kind":"poi","tier":"poi_local","priority":68.045,"context":"کۆمپاوندی نیشتەجێبوون","category":"کۆمپاوندی نیشتەجێبوون"},"geometry":{"type":"Point","coordinates":[45.7659115,35.1344277]}},{"type":"Feature","id":"osm-way-772719453-residential","properties":{"id":"osm-way-772719453-residential","name":"کانی بەردینە","kind":"poi","tier":"poi_local","priority":68.045,"context":"کۆمپاوندی نیشتەجێبوون","category":"کۆمپاوندی نیشتەجێبوون"},"geometry":{"type":"Point","coordinates":[45.8090315,35.2380602]}},{"type":"Feature","id":"osm-way-513854778-residential","properties":{"id":"osm-way-513854778-residential","name":"کانی توو","kind":"poi","tier":"poi_local","priority":68.045,"context":"کۆمپاوندی نیشتەجێبوون","category":"کۆمپاوندی نیشتەجێبوون"},"geometry":{"type":"Point","coordinates":[45.8911224,35.1860903]}},{"type":"Feature","id":"osm-way-772767591-residential","properties":{"id":"osm-way-772767591-residential","name":"کانی سالار","kind":"poi","tier":"poi_local","priority":68.045,"context":"کۆمپاوندی نیشتەجێبوون","category":"کۆمپاوندی نیشتەجێبوون"},"geometry":{"type":"Point","coordinates":[45.9273607,35.0812808]}},{"type":"Feature","id":"osm-way-772934007-residential","properties":{"id":"osm-way-772934007-residential","name":"کانی شێخ","kind":"poi","tier":"poi_local","priority":68.045,"context":"کۆمپاوندی نیشتەجێبوون","category":"کۆمپاوندی نیشتەجێبوون"},"geometry":{"type":"Point","coordinates":[45.9054172,35.2391196]}},{"type":"Feature","id":"osm-way-364280661-residential","properties":{"id":"osm-way-364280661-residential","name":"کانی مرواری","kind":"poi","tier":"poi_local","priority":68.045,"context":"کۆمپاوندی نیشتەجێبوون","category":"کۆمپاوندی نیشتەجێبوون"},"geometry":{"type":"Point","coordinates":[45.7765121,35.2498054]}},{"type":"Feature","id":"osm-way-785417187-residential","properties":{"id":"osm-way-785417187-residential","name":"کانی ژنان","kind":"poi","tier":"poi_local","priority":68.045,"context":"کۆمپاوندی نیشتەجێبوون","category":"کۆمپاوندی نیشتەجێبوون"},"geometry":{"type":"Point","coordinates":[45.8659979,35.0570615]}},{"type":"Feature","id":"osm-way-772734844-residential","properties":{"id":"osm-way-772734844-residential","name":"کانی کەروێشکان","kind":"poi","tier":"poi_local","priority":68.045,"context":"کۆمپاوندی نیشتەجێبوون","category":"کۆمپاوندی نیشتەجێبوون"},"geometry":{"type":"Point","coordinates":[45.9007396,35.1360757]}},{"type":"Feature","id":"osm-way-772933618-residential","properties":{"id":"osm-way-772933618-residential","name":"کاگردەڵە","kind":"poi","tier":"poi_local","priority":68.045,"context":"کۆمپاوندی نیشتەجێبوون","category":"کۆمپاوندی نیشتەجێبوون"},"geometry":{"type":"Point","coordinates":[45.9167345,35.2438748]}},{"type":"Feature","id":"osm-way-513680162-residential","properties":{"id":"osm-way-513680162-residential","name":"کەوتە","kind":"poi","tier":"poi_local","priority":68.045,"context":"کۆمپاوندی نیشتەجێبوون","category":"کۆمپاوندی نیشتەجێبوون"},"geometry":{"type":"Point","coordinates":[45.912074,35.104216]}},{"type":"Feature","id":"osm-way-772768797-residential","properties":{"id":"osm-way-772768797-residential","name":"گردەناوێ","kind":"poi","tier":"poi_local","priority":68.045,"context":"کۆمپاوندی نیشتەجێبوون","category":"کۆمپاوندی نیشتەجێبوون"},"geometry":{"type":"Point","coordinates":[45.9937383,35.0893607]}},{"type":"Feature","id":"osm-way-790339991-residential","properties":{"id":"osm-way-790339991-residential","name":"گلە","kind":"poi","tier":"poi_local","priority":68.045,"context":"کۆمپاوندی نیشتەجێبوون","category":"کۆمپاوندی نیشتەجێبوون"},"geometry":{"type":"Point","coordinates":[45.9234842,35.0709418]}},{"type":"Feature","id":"osm-way-785431808-residential","properties":{"id":"osm-way-785431808-residential","name":"گمە","kind":"poi","tier":"poi_local","priority":68.045,"context":"کۆمپاوندی نیشتەجێبوون","category":"کۆمپاوندی نیشتەجێبوون"},"geometry":{"type":"Point","coordinates":[45.8646147,35.0031513]}},{"type":"Feature","id":"osm-way-1301367864-residential","properties":{"id":"osm-way-1301367864-residential","name":"گورگەچیا","kind":"poi","tier":"poi_local","priority":68.045,"context":"کۆمپاوندی نیشتەجێبوون","category":"کۆمپاوندی نیشتەجێبوون"},"geometry":{"type":"Point","coordinates":[45.9078869,35.2237064]}},{"type":"Feature","id":"osm-way-1301302367-residential","properties":{"id":"osm-way-1301302367-residential","name":"گوندە","kind":"poi","tier":"poi_local","priority":68.045,"context":"کۆمپاوندی نیشتەجێبوون","category":"کۆمپاوندی نیشتەجێبوون"},"geometry":{"type":"Point","coordinates":[45.9045786,35.1481239]}},{"type":"Feature","id":"osm-way-364368100-residential","properties":{"id":"osm-way-364368100-residential","name":"گوڵانی حاجی فەرەج","kind":"poi","tier":"poi_local","priority":68.045,"context":"کۆمپاوندی نیشتەجێبوون","category":"کۆمپاوندی نیشتەجێبوون"},"geometry":{"type":"Point","coordinates":[45.7862704,35.208737]}},{"type":"Feature","id":"osm-way-545833569-residential","properties":{"id":"osm-way-545833569-residential","name":"گەڕاو","kind":"poi","tier":"poi_local","priority":68.045,"context":"کۆمپاوندی نیشتەجێبوون","category":"کۆمپاوندی نیشتەجێبوون"},"geometry":{"type":"Point","coordinates":[45.9060502,35.0679978]}},{"type":"Feature","id":"osm-way-723010259-industrial","properties":{"id":"osm-way-723010259-industrial","name":"Halabja Shahid Substation","kind":"poi","tier":"poi_local","priority":66.045,"context":"ناوچەی پیشەسازی","category":"ناوچەی پیشەسازی"},"geometry":{"type":"Point","coordinates":[45.9755218,35.1948601]}},{"type":"Feature","id":"osm-node-10243670878-supermarket","properties":{"id":"osm-node-10243670878-supermarket","name":"Shahidany Halabja Market","kind":"poi","tier":"poi_detail","priority":50.1,"context":"سۆپەرمارکێت","category":"سۆپەرمارکێت"},"geometry":{"type":"Point","coordinates":[45.99557,35.17691]}},{"type":"Feature","id":"osm-node-11181201237-clinic","properties":{"id":"osm-node-11181201237-clinic","name":"talary pzishky Ainda","kind":"poi","tier":"poi_detail","priority":50.1,"context":"کلینیک","category":"کلینیک"},"geometry":{"type":"Point","coordinates":[45.9890018,35.179567]}},{"type":"Feature","id":"osm-node-6757921385-hotel","properties":{"id":"osm-node-6757921385-hotel","name":"ئاپارتمانی سازان","kind":"poi","tier":"poi_detail","priority":50.1,"context":"هۆتێل","category":"هۆتێل"},"geometry":{"type":"Point","coordinates":[45.9911159,35.182402]}},{"type":"Feature","id":"osm-node-4578071890-fire_station","properties":{"id":"osm-node-4578071890-fire_station","name":"بنکەی ئاگر کوژێنەوە","kind":"poi","tier":"poi_detail","priority":50.1,"context":"بنکەی ئاگرکوژێنەوە","category":"بنکەی ئاگرکوژێنەوە"},"geometry":{"type":"Point","coordinates":[45.9878848,35.175039]}},{"type":"Feature","id":"osm-node-5081954822-clinic","properties":{"id":"osm-node-5081954822-clinic","name":"تاقیگەی بایۆ","kind":"poi","tier":"poi_detail","priority":50.1,"context":"کلینیک","category":"کلینیک"},"geometry":{"type":"Point","coordinates":[45.989692,35.1802323]}},{"type":"Feature","id":"osm-node-5066631523-clinic","properties":{"id":"osm-node-5066631523-clinic","name":"تاقیگەی کوردستان","kind":"poi","tier":"poi_detail","priority":50.1,"context":"کلینیک","category":"کلینیک"},"geometry":{"type":"Point","coordinates":[45.989152,35.1794688]}},{"type":"Feature","id":"osm-node-7172639287-clinic","properties":{"id":"osm-node-7172639287-clinic","name":"جراح م.جمال","kind":"poi","tier":"poi_detail","priority":50.1,"context":"کلینیک","category":"کلینیک"},"geometry":{"type":"Point","coordinates":[45.9920758,35.1773196]}},{"type":"Feature","id":"osm-node-7925388785-clinic","properties":{"id":"osm-node-7925388785-clinic","name":"دەرمانخانە","kind":"poi","tier":"poi_detail","priority":50.1,"context":"کلینیک","category":"کلینیک"},"geometry":{"type":"Point","coordinates":[45.9902194,35.1812939]}},{"type":"Feature","id":"osm-node-6788927486-pharmacy","properties":{"id":"osm-node-6788927486-pharmacy","name":"دەرمانخانەی ئاواز","kind":"poi","tier":"poi_detail","priority":50.1,"context":"دەرمانخانە","category":"دەرمانخانە"},"geometry":{"type":"Point","coordinates":[45.9881454,35.1793425]}},{"type":"Feature","id":"osm-node-5814939953-clinic","properties":{"id":"osm-node-5814939953-clinic","name":"دەرمانخانەی شیفا","kind":"poi","tier":"poi_detail","priority":50.1,"context":"کلینیک","category":"کلینیک"},"geometry":{"type":"Point","coordinates":[45.9885428,35.1798641]}},{"type":"Feature","id":"osm-node-4806254922-pharmacy","properties":{"id":"osm-node-4806254922-pharmacy","name":"دەرمانخانەی ونارە","kind":"poi","tier":"poi_detail","priority":50.1,"context":"دەرمانخانە","category":"دەرمانخانە"},"geometry":{"type":"Point","coordinates":[45.9893184,35.1806069]}},{"type":"Feature","id":"osm-node-8579606827-pharmacy","properties":{"id":"osm-node-8579606827-pharmacy","name":"دەمانخانەی شیفا","kind":"poi","tier":"poi_detail","priority":50.1,"context":"دەرمانخانە","category":"دەرمانخانە"},"geometry":{"type":"Point","coordinates":[45.9883257,35.1795857]}},{"type":"Feature","id":"osm-node-6467896487-supermarket","properties":{"id":"osm-node-6467896487-supermarket","name":"سوپەرمارکێتی شاهۆ","kind":"poi","tier":"poi_detail","priority":50.1,"context":"سۆپەرمارکێت","category":"سۆپەرمارکێت"},"geometry":{"type":"Point","coordinates":[45.9882619,35.178452]}},{"type":"Feature","id":"osm-node-6467911286-supermarket","properties":{"id":"osm-node-6467911286-supermarket","name":"سوپەرمارکێتی هۆزان","kind":"poi","tier":"poi_detail","priority":50.1,"context":"سۆپەرمارکێت","category":"سۆپەرمارکێت"},"geometry":{"type":"Point","coordinates":[45.9883738,35.1772287]}},{"type":"Feature","id":"osm-node-6066401863-supermarket","properties":{"id":"osm-node-6066401863-supermarket","name":"سوپەرمارکێتی کانیس","kind":"poi","tier":"poi_detail","priority":50.1,"context":"سۆپەرمارکێت","category":"سۆپەرمارکێت"},"geometry":{"type":"Point","coordinates":[45.9853559,35.1825198]}},{"type":"Feature","id":"osm-node-9419979499-supermarket","properties":{"id":"osm-node-9419979499-supermarket","name":"سۆپەرمارکێتی حاجی محمد","kind":"poi","tier":"poi_detail","priority":50.1,"context":"سۆپەرمارکێت","category":"سۆپەرمارکێت"},"geometry":{"type":"Point","coordinates":[45.9726852,35.1888075]}},{"type":"Feature","id":"osm-node-6811559888-school","properties":{"id":"osm-node-6811559888-school","name":"قوتابخانەی حەموودنی بنەڕەتی","kind":"poi","tier":"poi_detail","priority":50.1,"context":"قوتابخانە","category":"قوتابخانە"},"geometry":{"type":"Point","coordinates":[45.9790194,35.1777546]}},{"type":"Feature","id":"osm-node-5849345186-school","properties":{"id":"osm-node-5849345186-school","name":"قوتابخانەی هەرێز","kind":"poi","tier":"poi_detail","priority":50.1,"context":"قوتابخانە","category":"قوتابخانە"},"geometry":{"type":"Point","coordinates":[45.9453331,35.248451]}},{"type":"Feature","id":"osm-node-7953680635-school","properties":{"id":"osm-node-7953680635-school","name":"قوتابخانەی گوندی گمە","kind":"poi","tier":"poi_detail","priority":50.1,"context":"قوتابخانە","category":"قوتابخانە"},"geometry":{"type":"Point","coordinates":[45.8657758,35.0016325]}},{"type":"Feature","id":"osm-node-5983985885-supermarket","properties":{"id":"osm-node-5983985885-supermarket","name":"مارکیتی هاوکاری","kind":"poi","tier":"poi_detail","priority":50.1,"context":"سۆپەرمارکێت","category":"سۆپەرمارکێت"},"geometry":{"type":"Point","coordinates":[45.982404,35.1857011]}},{"type":"Feature","id":"osm-node-5306466622-supermarket","properties":{"id":"osm-node-5306466622-supermarket","name":"مارکێتی ژیاو","kind":"poi","tier":"poi_detail","priority":50.1,"context":"سۆپەرمارکێت","category":"سۆپەرمارکێت"},"geometry":{"type":"Point","coordinates":[45.9914607,35.1767096]}},{"type":"Feature","id":"osm-node-5609582221-clinic","properties":{"id":"osm-node-5609582221-clinic","name":"مختبر ناجی","kind":"poi","tier":"poi_detail","priority":50.1,"context":"کلینیک","category":"کلینیک"},"geometry":{"type":"Point","coordinates":[45.9897256,35.1808949]}},{"type":"Feature","id":"osm-node-5306466821-school","properties":{"id":"osm-node-5306466821-school","name":"مەکتەبی بورهان","kind":"poi","tier":"poi_detail","priority":50.1,"context":"قوتابخانە","category":"قوتابخانە"},"geometry":{"type":"Point","coordinates":[45.9906573,35.1812009]}},{"type":"Feature","id":"osm-node-9923660717-school","properties":{"id":"osm-node-9923660717-school","name":"ناوەندی مەشخەڵان","kind":"poi","tier":"poi_detail","priority":50.1,"context":"قوتابخانە","category":"قوتابخانە"},"geometry":{"type":"Point","coordinates":[45.9774572,35.1796785]}},{"type":"Feature","id":"osm-node-6014744785-supermarket","properties":{"id":"osm-node-6014744785-supermarket","name":"هەفتەبازاڕی ١٦/٣","kind":"poi","tier":"poi_detail","priority":50.1,"context":"سۆپەرمارکێت","category":"سۆپەرمارکێت"},"geometry":{"type":"Point","coordinates":[45.9853972,35.1809135]}},{"type":"Feature","id":"osm-node-9887544517-clinic","properties":{"id":"osm-node-9887544517-clinic","name":"پۆلیکلینیکی هاوکاری هەڵەبجە","kind":"poi","tier":"poi_detail","priority":50.1,"context":"کلینیک","category":"کلینیک"},"geometry":{"type":"Point","coordinates":[45.9911514,35.1823247]}},{"type":"Feature","id":"osm-node-4662929494-restaurant","properties":{"id":"osm-node-4662929494-restaurant","name":"پیتزا ناپۆلی","kind":"poi","tier":"poi_detail","priority":50.1,"context":"چێشتخانە","category":"چێشتخانە"},"geometry":{"type":"Point","coordinates":[45.9884114,35.1763652]}},{"type":"Feature","id":"osm-node-7925353685-school","properties":{"id":"osm-node-7925353685-school","name":"پەیمانگای تۆپ لێرن","kind":"poi","tier":"poi_detail","priority":50.1,"context":"قوتابخانە","category":"قوتابخانە"},"geometry":{"type":"Point","coordinates":[45.987672,35.1754247]}},{"type":"Feature","id":"osm-node-7925355985-school","properties":{"id":"osm-node-7925355985-school","name":"پەیمانگای لۆیاڵ","kind":"poi","tier":"poi_detail","priority":50.1,"context":"قوتابخانە","category":"قوتابخانە"},"geometry":{"type":"Point","coordinates":[45.9873293,35.1755577]}},{"type":"Feature","id":"osm-node-8069755485-restaurant","properties":{"id":"osm-node-8069755485-restaurant","name":"چێشتخانەی ئیمام","kind":"poi","tier":"poi_detail","priority":50.1,"context":"چێشتخانە","category":"چێشتخانە"},"geometry":{"type":"Point","coordinates":[45.9869581,35.1783229]}},{"type":"Feature","id":"osm-node-7235414986-restaurant","properties":{"id":"osm-node-7235414986-restaurant","name":"ڕێستورانتی وەهبی","kind":"poi","tier":"poi_detail","priority":50.1,"context":"چێشتخانە","category":"چێشتخانە"},"geometry":{"type":"Point","coordinates":[45.986346,35.1776864]}},{"type":"Feature","id":"osm-node-8594693717-restaurant","properties":{"id":"osm-node-8594693717-restaurant","name":"ڕێستۆرانتی لۆڤان","kind":"poi","tier":"poi_detail","priority":50.1,"context":"چێشتخانە","category":"چێشتخانە"},"geometry":{"type":"Point","coordinates":[45.9877377,35.1764899]}},{"type":"Feature","id":"osm-node-13531484101-restaurant","properties":{"id":"osm-node-13531484101-restaurant","name":"کباب حسن","kind":"poi","tier":"poi_detail","priority":50.1,"context":"چێشتخانە","category":"چێشتخانە"},"geometry":{"type":"Point","coordinates":[45.9847437,35.1777692]}},{"type":"Feature","id":"osm-node-6788946285-pharmacy","properties":{"id":"osm-node-6788946285-pharmacy","name":"کۆگای شنروێ","kind":"poi","tier":"poi_detail","priority":50.1,"context":"دەرمانخانە","category":"دەرمانخانە"},"geometry":{"type":"Point","coordinates":[45.9895599,35.1791924]}},{"type":"Feature","id":"osm-node-8069706486-restaurant","properties":{"id":"osm-node-8069706486-restaurant","name":"کەبابی بڕیار","kind":"poi","tier":"poi_detail","priority":50.1,"context":"چێشتخانە","category":"چێشتخانە"},"geometry":{"type":"Point","coordinates":[45.9868195,35.1780944]}},{"type":"Feature","id":"osm-way-425087388-school","properties":{"id":"osm-way-425087388-school","name":"Bamo Elementary School","kind":"poi","tier":"poi_detail","priority":50.092,"context":"قوتابخانە","category":"قوتابخانە"},"geometry":{"type":"Point","coordinates":[45.9712198,35.1904201]}},{"type":"Feature","id":"osm-way-323635173-hotel","properties":{"id":"osm-way-323635173-hotel","name":"Halabja Palace Hotel","kind":"poi","tier":"poi_detail","priority":50.092,"context":"هۆتێل","category":"هۆتێل"},"geometry":{"type":"Point","coordinates":[45.9768798,35.192273]}},{"type":"Feature","id":"osm-way-911442136-supermarket","properties":{"id":"osm-way-911442136-supermarket","name":"Hamisha Bazar","kind":"poi","tier":"poi_detail","priority":50.092,"context":"سۆپەرمارکێت","category":"سۆپەرمارکێت"},"geometry":{"type":"Point","coordinates":[45.9871271,35.1840339]}},{"type":"Feature","id":"osm-way-852371508-supermarket","properties":{"id":"osm-way-852371508-supermarket","name":"Mordin Market","kind":"poi","tier":"poi_detail","priority":50.092,"context":"سۆپەرمارکێت","category":"سۆپەرمارکێت"},"geometry":{"type":"Point","coordinates":[45.9696166,35.1882386]}},{"type":"Feature","id":"osm-way-912246131-supermarket","properties":{"id":"osm-way-912246131-supermarket","name":"awa supermarket","kind":"poi","tier":"poi_detail","priority":50.092,"context":"سۆپەرمارکێت","category":"سۆپەرمارکێت"},"geometry":{"type":"Point","coordinates":[45.9949952,35.1875506]}},{"type":"Feature","id":"osm-way-424694413-school","properties":{"id":"osm-way-424694413-school","name":"ئامادەیی شەهید عەبدوڕەحمانی میرزا حەسەن","kind":"poi","tier":"poi_detail","priority":50.092,"context":"قوتابخانە","category":"قوتابخانە"},"geometry":{"type":"Point","coordinates":[45.9714756,35.1829131]}},{"type":"Feature","id":"osm-way-1444437490-school","properties":{"id":"osm-way-1444437490-school","name":"ئامادەیی هەڵەبجە - کچان","kind":"poi","tier":"poi_detail","priority":50.092,"context":"قوتابخانە","category":"قوتابخانە"},"geometry":{"type":"Point","coordinates":[45.9908705,35.1746143]}},{"type":"Feature","id":"osm-way-912244748-school","properties":{"id":"osm-way-912244748-school","name":"ئامەدەی کیمیابارانی هەلەبجە","kind":"poi","tier":"poi_detail","priority":50.092,"context":"قوتابخانە","category":"قوتابخانە"},"geometry":{"type":"Point","coordinates":[45.9957579,35.1870894]}},{"type":"Feature","id":"osm-way-1444437492-kindergarten","properties":{"id":"osm-way-1444437492-kindergarten","name":"باخچەی ساوایانی شەونم حاجی محمد","kind":"poi","tier":"poi_detail","priority":50.092,"context":"باخچەی ساوایان","category":"باخچەی ساوایان"},"geometry":{"type":"Point","coordinates":[45.9910915,35.1755687]}},{"type":"Feature","id":"osm-way-1471453510-school","properties":{"id":"osm-way-1471453510-school","name":"خوێندنگەی باڵامبۆ","kind":"poi","tier":"poi_detail","priority":50.092,"context":"قوتابخانە","category":"قوتابخانە"},"geometry":{"type":"Point","coordinates":[45.9803985,35.1719189]}},{"type":"Feature","id":"osm-way-1471453511-school","properties":{"id":"osm-way-1471453511-school","name":"خوێندنگەی بنەڕەتی چوارچرا","kind":"poi","tier":"poi_detail","priority":50.092,"context":"قوتابخانە","category":"قوتابخانە"},"geometry":{"type":"Point","coordinates":[45.985692,35.1684623]}},{"type":"Feature","id":"osm-way-1328431153-school","properties":{"id":"osm-way-1328431153-school","name":"خوێندنگەی عادیلە خانم","kind":"poi","tier":"poi_detail","priority":50.092,"context":"قوتابخانە","category":"قوتابخانە"},"geometry":{"type":"Point","coordinates":[45.9899591,35.1747428]}},{"type":"Feature","id":"osm-way-541305262-supermarket","properties":{"id":"osm-way-541305262-supermarket","name":"سووپەرمارکێتی محەمەد","kind":"poi","tier":"poi_detail","priority":50.092,"context":"سۆپەرمارکێت","category":"سۆپەرمارکێت"},"geometry":{"type":"Point","coordinates":[45.9915117,35.1837453]}},{"type":"Feature","id":"osm-way-540690969-supermarket","properties":{"id":"osm-way-540690969-supermarket","name":"سووپەرمارکێتی نوور","kind":"poi","tier":"poi_detail","priority":50.092,"context":"سۆپەرمارکێت","category":"سۆپەرمارکێت"},"geometry":{"type":"Point","coordinates":[45.9916823,35.1838798]}},{"type":"Feature","id":"osm-way-1173416761-school","properties":{"id":"osm-way-1173416761-school","name":"قوتابخانەی مەولەوی بنەڕەتی","kind":"poi","tier":"poi_detail","priority":50.092,"context":"قوتابخانە","category":"قوتابخانە"},"geometry":{"type":"Point","coordinates":[45.9620488,35.1968216]}},{"type":"Feature","id":"osm-way-908156210-supermarket","properties":{"id":"osm-way-908156210-supermarket","name":"هەفتەبازاری بەخشین","kind":"poi","tier":"poi_detail","priority":50.092,"context":"سۆپەرمارکێت","category":"سۆپەرمارکێت"},"geometry":{"type":"Point","coordinates":[45.9981441,35.1775787]}},{"type":"Feature","id":"osm-way-541420885-supermarket","properties":{"id":"osm-way-541420885-supermarket","name":"هەفتەبازاری دایک","kind":"poi","tier":"poi_detail","priority":50.092,"context":"سۆپەرمارکێت","category":"سۆپەرمارکێت"},"geometry":{"type":"Point","coordinates":[45.9923039,35.1743606]}},{"type":"Feature","id":"osm-way-1063514170-restaurant","properties":{"id":"osm-way-1063514170-restaurant","name":"چێشتخانەی هەردی","kind":"poi","tier":"poi_detail","priority":50.092,"context":"چێشتخانە","category":"چێشتخانە"},"geometry":{"type":"Point","coordinates":[45.9854308,35.1933928]}},{"type":"Feature","id":"osm-way-14292726-building","properties":{"id":"osm-way-14292726-building","name":"خوێندنگەی ئەحمەد موختار جاف - کوڕان","kind":"poi","tier":"poi_detail","priority":50.055,"context":"قوتابخانە","category":"قوتابخانە"},"geometry":{"type":"Point","coordinates":[45.9919595,35.1828488]}},{"type":"Feature","id":"osm-way-540730183-building","properties":{"id":"osm-way-540730183-building","name":"قوتابخانەی شاهۆ","kind":"poi","tier":"poi_detail","priority":50.055,"context":"قوتابخانە","category":"قوتابخانە"},"geometry":{"type":"Point","coordinates":[45.9878142,35.1758465]}},{"type":"Feature","id":"osm-way-540950134-building","properties":{"id":"osm-way-540950134-building","name":"قوتابخانەی شنروێ","kind":"poi","tier":"poi_detail","priority":50.055,"context":"قوتابخانە","category":"قوتابخانە"},"geometry":{"type":"Point","coordinates":[45.9988881,35.185187]}},{"type":"Feature","id":"osm-way-14291140-building","properties":{"id":"osm-way-14291140-building","name":"قوتابخانەی مەرزەبۆتۆ","kind":"poi","tier":"poi_detail","priority":50.055,"context":"قوتابخانە","category":"قوتابخانە"},"geometry":{"type":"Point","coordinates":[45.9825523,35.1797892]}},{"type":"Feature","id":"osm-way-424694792-building","properties":{"id":"osm-way-424694792-building","name":"قوتابخانەی پریس","kind":"poi","tier":"poi_detail","priority":50.055,"context":"قوتابخانە","category":"قوتابخانە"},"geometry":{"type":"Point","coordinates":[45.9410533,35.1601713]}},{"type":"Feature","id":"osm-way-541355996-building","properties":{"id":"osm-way-541355996-building","name":"قوتابخانەی گۆران","kind":"poi","tier":"poi_detail","priority":50.055,"context":"قوتابخانە","category":"قوتابخانە"},"geometry":{"type":"Point","coordinates":[45.9819789,35.1806529]}},{"type":"Feature","id":"osm-way-851743925-building","properties":{"id":"osm-way-851743925-building","name":"قوتابخانەی یەکێتی برایانی بنەڕەتی","kind":"poi","tier":"poi_detail","priority":50.055,"context":"قوتابخانە","category":"قوتابخانە"},"geometry":{"type":"Point","coordinates":[45.9685685,35.1847141]}},{"type":"Feature","id":"osm-way-1078421268-commercial","properties":{"id":"osm-way-1078421268-commercial","name":"iQ Office","kind":"poi","tier":"poi_local","priority":64.045,"context":"بینای بازرگانی","category":"بینای بازرگانی"},"geometry":{"type":"Point","coordinates":[45.9824896,35.1791332]}},{"type":"Feature","id":"osm-node-9895995862-cafe","properties":{"id":"osm-node-9895995862-cafe","name":"Borek","kind":"poi","tier":"poi_detail","priority":50.1,"context":"کافێ","category":"کافێ"},"geometry":{"type":"Point","coordinates":[45.9945788,35.1801633]}},{"type":"Feature","id":"osm-node-4577774690-cafe","properties":{"id":"osm-node-4577774690-cafe","name":"Cafe 16","kind":"poi","tier":"poi_detail","priority":50.1,"context":"کافێ","category":"کافێ"},"geometry":{"type":"Point","coordinates":[45.9880318,35.1755332]}},{"type":"Feature","id":"osm-node-11656213863-mobile_phone_shop","properties":{"id":"osm-node-11656213863-mobile_phone_shop","name":"Dana Phone","kind":"poi","tier":"poi_detail","priority":50.1,"context":"دوکانی مۆبایل","category":"دوکانی مۆبایل"},"geometry":{"type":"Point","coordinates":[45.9881438,35.1797437]}},{"type":"Feature","id":"osm-node-11656213575-convenience","properties":{"id":"osm-node-11656213575-convenience","name":"Froshgay Sarkhel","kind":"poi","tier":"poi_detail","priority":50.1,"context":"دوکانی نزیک","category":"دوکانی نزیک"},"geometry":{"type":"Point","coordinates":[45.9869234,35.17816]}},{"type":"Feature","id":"osm-node-11656213864-convenience","properties":{"id":"osm-node-11656213864-convenience","name":"Google Center","kind":"poi","tier":"poi_detail","priority":50.1,"context":"دوکانی نزیک","category":"دوکانی نزیک"},"geometry":{"type":"Point","coordinates":[45.987753,35.177093]}},{"type":"Feature","id":"osm-node-11656213792-convenience","properties":{"id":"osm-node-11656213792-convenience","name":"Hafta Bazary 16, 3","kind":"poi","tier":"poi_detail","priority":50.1,"context":"دوکانی نزیک","category":"دوکانی نزیک"},"geometry":{"type":"Point","coordinates":[45.9849761,35.1805512]}},{"type":"Feature","id":"osm-node-11656213875-convenience","properties":{"id":"osm-node-11656213875-convenience","name":"Hafta Bazary Awin","kind":"poi","tier":"poi_detail","priority":50.1,"context":"دوکانی نزیک","category":"دوکانی نزیک"},"geometry":{"type":"Point","coordinates":[45.9462662,35.2486496]}},{"type":"Feature","id":"osm-node-11656213524-convenience","properties":{"id":"osm-node-11656213524-convenience","name":"Hafta Bazary Frishta","kind":"poi","tier":"poi_detail","priority":50.1,"context":"دوکانی نزیک","category":"دوکانی نزیک"},"geometry":{"type":"Point","coordinates":[45.985714,35.1719971]}},{"type":"Feature","id":"osm-node-11656208513-computer_shop","properties":{"id":"osm-node-11656208513-computer_shop","name":"Kurd Computer","kind":"poi","tier":"poi_detail","priority":50.1,"context":"دوکانی کۆمپیوتەر","category":"دوکانی کۆمپیوتەر"},"geometry":{"type":"Point","coordinates":[45.9864273,35.1769829]}},{"type":"Feature","id":"osm-node-11656213596-convenience","properties":{"id":"osm-node-11656213596-convenience","name":"Marketi Kimyabaran","kind":"poi","tier":"poi_detail","priority":50.1,"context":"دوکانی نزیک","category":"دوکانی نزیک"},"geometry":{"type":"Point","coordinates":[45.9754677,35.1812401]}},{"type":"Feature","id":"osm-node-11656213856-convenience","properties":{"id":"osm-node-11656213856-convenience","name":"Marketi Yad","kind":"poi","tier":"poi_detail","priority":50.1,"context":"دوکانی نزیک","category":"دوکانی نزیک"},"geometry":{"type":"Point","coordinates":[45.9795877,35.1857889]}},{"type":"Feature","id":"osm-node-11656213825-department_store","properties":{"id":"osm-node-11656213825-department_store","name":"Peshangay Paiwand","kind":"poi","tier":"poi_detail","priority":50.1,"context":"فرۆشگای گەورە","category":"فرۆشگای گەورە"},"geometry":{"type":"Point","coordinates":[45.9859322,35.1775642]}},{"type":"Feature","id":"osm-node-11656213576-department_store","properties":{"id":"osm-node-11656213576-department_store","name":"Peshangay Remax","kind":"poi","tier":"poi_detail","priority":50.1,"context":"فرۆشگای گەورە","category":"فرۆشگای گەورە"},"geometry":{"type":"Point","coordinates":[45.9971434,35.1888071]}},{"type":"Feature","id":"osm-node-11656213846-convenience","properties":{"id":"osm-node-11656213846-convenience","name":"Peshangay Soma","kind":"poi","tier":"poi_detail","priority":50.1,"context":"دوکانی نزیک","category":"دوکانی نزیک"},"geometry":{"type":"Point","coordinates":[45.9874724,35.1786226]}},{"type":"Feature","id":"osm-node-11656208547-computer_shop","properties":{"id":"osm-node-11656208547-computer_shop","name":"Shaniar Net","kind":"poi","tier":"poi_detail","priority":50.1,"context":"دوکانی کۆمپیوتەر","category":"دوکانی کۆمپیوتەر"},"geometry":{"type":"Point","coordinates":[45.9914098,35.1864287]}},{"type":"Feature","id":"osm-node-9883331852-clothes","properties":{"id":"osm-node-9883331852-clothes","name":"Taj Collection","kind":"poi","tier":"poi_detail","priority":50.1,"context":"جلوبەرگ فرۆشی","category":"جلوبەرگ فرۆشی"},"geometry":{"type":"Point","coordinates":[45.9876447,35.176813]}},{"type":"Feature","id":"osm-node-4620909589-jeweller","properties":{"id":"osm-node-4620909589-jeweller","name":"aland jewelry","kind":"poi","tier":"poi_detail","priority":50.1,"context":"زێڕ فرۆشی","category":"زێڕ فرۆشی"},"geometry":{"type":"Point","coordinates":[45.9870605,35.177134]}},{"type":"Feature","id":"osm-node-11842916135-mobile_phone_shop","properties":{"id":"osm-node-11842916135-mobile_phone_shop","name":"lia phone","kind":"poi","tier":"poi_detail","priority":50.1,"context":"دوکانی مۆبایل","category":"دوکانی مۆبایل"},"geometry":{"type":"Point","coordinates":[45.9859274,35.1777432]}},{"type":"Feature","id":"osm-node-10291834609-community_centre","properties":{"id":"osm-node-10291834609-community_centre","name":"بارکی کیمیا باران","kind":"poi","tier":"poi_detail","priority":50.1,"context":"ناوەندی کۆمەڵایەتی","category":"ناوەندی کۆمەڵایەتی"},"geometry":{"type":"Point","coordinates":[45.9748526,35.181378]}},{"type":"Feature","id":"osm-node-5506672722-mobile_phone_shop","properties":{"id":"osm-node-5506672722-mobile_phone_shop","name":"بریکاری فاست لینک","kind":"poi","tier":"poi_detail","priority":50.1,"context":"دوکانی مۆبایل","category":"دوکانی مۆبایل"},"geometry":{"type":"Point","coordinates":[45.9883557,35.1764229]}},{"type":"Feature","id":"osm-node-4897033021-pub","properties":{"id":"osm-node-4897033021-pub","name":"حلبجە بار","kind":"poi","tier":"poi_detail","priority":50.1,"context":"پەب","category":"پەب"},"geometry":{"type":"Point","coordinates":[45.9761207,35.1918725]}},{"type":"Feature","id":"osm-node-8399326417-hostel","properties":{"id":"osm-node-8399326417-hostel","name":"داخلی کوڕان","kind":"poi","tier":"poi_detail","priority":50.1,"context":"هۆستێل","category":"هۆستێل"},"geometry":{"type":"Point","coordinates":[45.9982253,35.180535]}},{"type":"Feature","id":"osm-node-7172639199-clothes","properties":{"id":"osm-node-7172639199-clothes","name":"دوکان","kind":"poi","tier":"poi_detail","priority":50.1,"context":"جلوبەرگ فرۆشی","category":"جلوبەرگ فرۆشی"},"geometry":{"type":"Point","coordinates":[45.9877858,35.1767299]}},{"type":"Feature","id":"osm-node-4458726094-outdoor_shop","properties":{"id":"osm-node-4458726094-outdoor_shop","name":"دوکانی جوانکاری ئۆتۆمبیلی ئارام عومەر","kind":"poi","tier":"poi_detail","priority":50.1,"context":"فرۆشگای کەلوپەلی دەرەوە","category":"فرۆشگای کەلوپەلی دەرەوە"},"geometry":{"type":"Point","coordinates":[45.9834762,35.1781157]}},{"type":"Feature","id":"osm-node-4949167922-department_store","properties":{"id":"osm-node-4949167922-department_store","name":"دوکانی حسەین","kind":"poi","tier":"poi_detail","priority":50.1,"context":"فرۆشگای گەورە","category":"فرۆشگای گەورە"},"geometry":{"type":"Point","coordinates":[45.9849418,35.1792277]}},{"type":"Feature","id":"osm-node-6569314694-dentist","properties":{"id":"osm-node-6569314694-dentist","name":"دکتۆرە ئاشنا","kind":"poi","tier":"poi_detail","priority":50.1,"context":"کلینیکی ددان","category":"کلینیکی ددان"},"geometry":{"type":"Point","coordinates":[45.9861316,35.1791348]}},{"type":"Feature","id":"osm-node-11592973369-beauty_shop","properties":{"id":"osm-node-11592973369-beauty_shop","name":"زیوە کۆزمەتیک","kind":"poi","tier":"poi_detail","priority":50.1,"context":"جوانکاری","category":"جوانکاری"},"geometry":{"type":"Point","coordinates":[45.9944128,35.1811496]}},{"type":"Feature","id":"osm-node-4577735792-beauty_shop","properties":{"id":"osm-node-4577735792-beauty_shop","name":"ساڵۆن سۆلین","kind":"poi","tier":"poi_detail","priority":50.1,"context":"جوانکاری","category":"جوانکاری"},"geometry":{"type":"Point","coordinates":[45.9887761,35.1758519]}},{"type":"Feature","id":"osm-node-5436375025-beauty_shop","properties":{"id":"osm-node-5436375025-beauty_shop","name":"سه رتاشخانه ی کارزان","kind":"poi","tier":"poi_detail","priority":50.1,"context":"جوانکاری","category":"جوانکاری"},"geometry":{"type":"Point","coordinates":[45.9450724,35.2494559]}},{"type":"Feature","id":"osm-node-5506672724-hairdresser","properties":{"id":"osm-node-5506672724-hairdresser","name":"سەرتاشخانەی دابان","kind":"poi","tier":"poi_detail","priority":50.1,"context":"سەرتاشخانە","category":"سەرتاشخانە"},"geometry":{"type":"Point","coordinates":[45.9878969,35.1765784]}},{"type":"Feature","id":"osm-node-4946656923-hairdresser","properties":{"id":"osm-node-4946656923-hairdresser","name":"سەرتاشخانەی زەکەریا","kind":"poi","tier":"poi_detail","priority":50.1,"context":"سەرتاشخانە","category":"سەرتاشخانە"},"geometry":{"type":"Point","coordinates":[45.9873411,35.1767659]}},{"type":"Feature","id":"osm-node-4815950223-hairdresser","properties":{"id":"osm-node-4815950223-hairdresser","name":"سەرتاشخانەی مەروان","kind":"poi","tier":"poi_detail","priority":50.1,"context":"سەرتاشخانە","category":"سەرتاشخانە"},"geometry":{"type":"Point","coordinates":[45.9879366,35.1765763]}},{"type":"Feature","id":"osm-node-5506672725-hairdresser","properties":{"id":"osm-node-5506672725-hairdresser","name":"سەرتاشخانەی پاریس","kind":"poi","tier":"poi_detail","priority":50.1,"context":"سەرتاشخانە","category":"سەرتاشخانە"},"geometry":{"type":"Point","coordinates":[45.9899806,35.1814438]}},{"type":"Feature","id":"osm-node-5848374787-hairdresser","properties":{"id":"osm-node-5848374787-hairdresser","name":"سەرتاشخانەی پایەی ڕەش","kind":"poi","tier":"poi_detail","priority":50.1,"context":"سەرتاشخانە","category":"سەرتاشخانە"},"geometry":{"type":"Point","coordinates":[45.9880265,35.1765295]}},{"type":"Feature","id":"osm-node-5848374786-hairdresser","properties":{"id":"osm-node-5848374786-hairdresser","name":"سەرتاشخانەی یاسین","kind":"poi","tier":"poi_detail","priority":50.1,"context":"سەرتاشخانە","category":"سەرتاشخانە"},"geometry":{"type":"Point","coordinates":[45.9878262,35.176441]}},{"type":"Feature","id":"osm-node-4622163189-computer_shop","properties":{"id":"osm-node-4622163189-computer_shop","name":"سەنتەری سامان","kind":"poi","tier":"poi_detail","priority":50.1,"context":"دوکانی کۆمپیوتەر","category":"دوکانی کۆمپیوتەر"},"geometry":{"type":"Point","coordinates":[45.987647,35.1766675]}},{"type":"Feature","id":"osm-node-5306466623-computer_shop","properties":{"id":"osm-node-5306466623-computer_shop","name":"سەنتەری گووگڵ","kind":"poi","tier":"poi_detail","priority":50.1,"context":"دوکانی کۆمپیوتەر","category":"دوکانی کۆمپیوتەر"},"geometry":{"type":"Point","coordinates":[45.9882163,35.1766977]}},{"type":"Feature","id":"osm-node-4458721792-chalet","properties":{"id":"osm-node-4458721792-chalet","name":"سەیرانگای چاوگ","kind":"poi","tier":"poi_detail","priority":50.1,"context":"کەپر","category":"کەپر"},"geometry":{"type":"Point","coordinates":[45.9709062,35.1515433]}},{"type":"Feature","id":"osm-node-13359753092-battlefield","properties":{"id":"osm-node-13359753092-battlefield","name":"شوێنی کۆمەڵکوژی هەڵەبجە","kind":"poi","tier":"poi_detail","priority":50.1,"context":"گۆڕەپانی جەنگ","category":"گۆڕەپانی جەنگ"},"geometry":{"type":"Point","coordinates":[45.9904059,35.1760653]}},{"type":"Feature","id":"osm-node-10578510242-bakery","properties":{"id":"osm-node-10578510242-bakery","name":"شیرینی دینا","kind":"poi","tier":"poi_detail","priority":50.1,"context":"نانەواخانە","category":"نانەواخانە"},"geometry":{"type":"Point","coordinates":[45.9876151,35.1779573]}},{"type":"Feature","id":"osm-node-9135471017-viewpoint","properties":{"id":"osm-node-9135471017-viewpoint","name":"شەقامی پێشمەرگە","kind":"poi","tier":"poi_detail","priority":50.1,"context":"شوێنی سەیران","category":"شوێنی سەیران"},"geometry":{"type":"Point","coordinates":[45.9640405,35.2071655]}},{"type":"Feature","id":"osm-node-6015759687-car_wash","properties":{"id":"osm-node-6015759687-car_wash","name":"عدنان","kind":"poi","tier":"poi_detail","priority":50.1,"context":"شۆردنەوەی ئۆتۆمبیل","category":"شۆردنەوەی ئۆتۆمبیل"},"geometry":{"type":"Point","coordinates":[45.967383,35.204813]}},{"type":"Feature","id":"osm-node-5751689724-artwork","properties":{"id":"osm-node-5751689724-artwork","name":"فولکەی عومەرە خاوەر","kind":"poi","tier":"poi_detail","priority":50.1,"context":"هونەری گشتی","category":"هونەری گشتی"},"geometry":{"type":"Point","coordinates":[45.9831989,35.1782047]}},{"type":"Feature","id":"osm-node-3284045986-memorial","properties":{"id":"osm-node-3284045986-memorial","name":"ماڵ عومەری خاوەر","kind":"poi","tier":"poi_detail","priority":50.1,"context":"یادەوەری","category":"یادەوەری"},