{"type":"FeatureCollection","features":[{"type":"Feature","id":"osm-node-2488220303","properties":{"id":"osm-node-2488220303","name":"بارە","kind":"village","tier":"locality","priority":300,"context":"سنوونێ · شنگال · نەینەوا","category":"گوند"},"geometry":{"type":"Point","coordinates":[41.491003,36.371137]}},{"type":"Feature","id":"osm-natural-mountain_pass-1293d7740e947d","properties":{"id":"osm-natural-mountain_pass-1293d7740e947d","name":"Bab ash Shilu","kind":"natural","tier":"natural","priority":180,"context":"دەروازەی شاخ · قەحەتانیە · نەینەوا","category":"دەروازەی شاخ"},"geometry":{"type":"Point","coordinates":[41.48333,36.33333]}},{"type":"Feature","id":"osm-natural-hill-c2d4c6ebc4b964","properties":{"id":"osm-natural-hill-c2d4c6ebc4b964","name":"Tur Hajji","kind":"natural","tier":"natural","priority":180,"context":"گرد · شنگال · نەینەوا","category":"گرد"},"geometry":{"type":"Point","coordinates":[41.3925,36.40917]}},{"type":"Feature","id":"osm-natural-water_well-d95cc5d8fbe3c9","properties":{"id":"osm-natural-water_well-d95cc5d8fbe3c9","name":"`Akakis","kind":"natural","tier":"natural","priority":180,"context":"بیری ئاو · شنگال · نەینەوا","category":"بیری ئاو"},"geometry":{"type":"Point","coordinates":[41.45,36.41667]}},{"type":"Feature","id":"osm-natural-hill-e335d376f83142","properties":{"id":"osm-natural-hill-e335d376f83142","name":"تل الرز","kind":"natural","tier":"natural","priority":180,"context":"گرد · شنگال · نەینەوا","category":"گرد"},"geometry":{"type":"Point","coordinates":[41.47749,36.46735]}},{"type":"Feature","id":"osm-natural-hill-fc772eae0e146a","properties":{"id":"osm-natural-hill-fc772eae0e146a","name":"تل تر هنزي","kind":"natural","tier":"natural","priority":180,"context":"گرد · شنگال · نەینەوا","category":"گرد"},"geometry":{"type":"Point","coordinates":[41.48336,36.42701]}},{"type":"Feature","id":"osm-natural-mountain-c94bc5a776eab1","properties":{"id":"osm-natural-mountain-c94bc5a776eab1","name":"جبل جفري","kind":"natural","tier":"natural","priority":180,"context":"شاخ · شنگال · نەینەوا","category":"شاخ"},"geometry":{"type":"Point","coordinates":[41.43617,36.33667]}},{"type":"Feature","id":"osm-natural-mountain-dcf7156549eb35","properties":{"id":"osm-natural-mountain-dcf7156549eb35","name":"جبل جيريب","kind":"natural","tier":"natural","priority":180,"context":"شاخ · شنگال · نەینەوا","category":"شاخ"},"geometry":{"type":"Point","coordinates":[41.38715,36.34156]}},{"type":"Feature","id":"osm-natural-stream-b73e195b0db6ea","properties":{"id":"osm-natural-stream-b73e195b0db6ea","name":"وادي الصفاوي","kind":"natural","tier":"natural","priority":180,"context":"جۆگە · شنگال · نەینەوا","category":"جۆگە"},"geometry":{"type":"Point","coordinates":[41.37471,36.43836]}},{"type":"Feature","id":"osm-natural-stream-7e86778c8b73ea","properties":{"id":"osm-natural-stream-7e86778c8b73ea","name":"وادي بيرجاري","kind":"natural","tier":"natural","priority":180,"context":"جۆگە · شنگال · نەینەوا","category":"جۆگە"},"geometry":{"type":"Point","coordinates":[41.45888,36.48845]}},{"type":"Feature","id":"osm-node-4779498824-hospital","properties":{"id":"osm-node-4779498824-hospital","name":"المرکز الصحی","kind":"poi","tier":"poi_landmark","priority":95.1,"context":"نەخۆشخانە","category":"نەخۆشخانە"},"geometry":{"type":"Point","coordinates":[41.3675022,36.2720007]}},{"type":"Feature","id":"osm-node-2480203902-ruins","properties":{"id":"osm-node-2480203902-ruins","name":"روفیان","kind":"poi","tier":"poi_detail","priority":50.1,"context":"شوێنی شوێنەوار","category":"شوێنی شوێنەوار"},"geometry":{"type":"Point","coordinates":[41.495529,36.457497]}},{"type":"Feature","id":"osm-node-11010485105-police","properties":{"id":"osm-node-11010485105-police","name":"تقاطع ام جریس","kind":"poi","tier":"poi_regional","priority":77.1,"context":"بنکەی پۆلیس","category":"بنکەی پۆلیس"},"geometry":{"type":"Point","coordinates":[41.2959175,36.2766193]}},{"type":"Feature","id":"osm-node-11010485205-police","properties":{"id":"osm-node-11010485205-police","name":"تقاطع ام جریص","kind":"poi","tier":"poi_regional","priority":77.1,"context":"بنکەی پۆلیس","category":"بنکەی پۆلیس"},"geometry":{"type":"Point","coordinates":[41.2962482,36.2766114]}},{"type":"Feature","id":"osm-node-11006199644-police","properties":{"id":"osm-node-11006199644-police","name":"ق ق م٦","kind":"poi","tier":"poi_regional","priority":77.1,"context":"بنکەی پۆلیس","category":"بنکەی پۆلیس"},"geometry":{"type":"Point","coordinates":[41.3381567,36.2715438]}},{"type":"Feature","id":"osm-node-11111201636-police","properties":{"id":"osm-node-11111201636-police","name":"مخفر البحرە","kind":"poi","tier":"poi_regional","priority":77.1,"context":"بنکەی پۆلیس","category":"بنکەی پۆلیس"},"geometry":{"type":"Point","coordinates":[41.372429,36.455257]}},{"type":"Feature","id":"osm-node-11111201660-police","properties":{"id":"osm-node-11111201660-police","name":"مخفر الزکو","kind":"poi","tier":"poi_regional","priority":77.1,"context":"بنکەی پۆلیس","category":"بنکەی پۆلیس"},"geometry":{"type":"Point","coordinates":[41.395718,36.48883]}},{"type":"Feature","id":"osm-node-2485303544-police","properties":{"id":"osm-node-2485303544-police","name":"مخفر شرطە ام الذیبان","kind":"poi","tier":"poi_regional","priority":77.1,"context":"بنکەی پۆلیس","category":"بنکەی پۆلیس"},"geometry":{"type":"Point","coordinates":[41.379938,36.276554]}},{"type":"Feature","id":"osm-node-2480203889-police","properties":{"id":"osm-node-2480203889-police","name":"مخفر شرطە بئر جاری","kind":"poi","tier":"poi_regional","priority":77.1,"context":"بنکەی پۆلیس","category":"بنکەی پۆلیس"},"geometry":{"type":"Point","coordinates":[41.434445,36.474547]}},{"type":"Feature","id":"osm-node-11111201707-police","properties":{"id":"osm-node-11111201707-police","name":"ملحق البحرە","kind":"poi","tier":"poi_regional","priority":77.1,"context":"بنکەی پۆلیس","category":"بنکەی پۆلیس"},"geometry":{"type":"Point","coordinates":[41.358011,36.439587]}},{"type":"Feature","id":"osm-node-11111201653-police","properties":{"id":"osm-node-11111201653-police","name":"ملحق الجبل1","kind":"poi","tier":"poi_regional","priority":77.1,"context":"بنکەی پۆلیس","category":"بنکەی پۆلیس"},"geometry":{"type":"Point","coordinates":[41.304632,36.314532]}},{"type":"Feature","id":"osm-node-11111201724-police","properties":{"id":"osm-node-11111201724-police","name":"ملحق الجبل2","kind":"poi","tier":"poi_regional","priority":77.1,"context":"بنکەی پۆلیس","category":"بنکەی پۆلیس"},"geometry":{"type":"Point","coordinates":[41.294585,36.313822]}},{"type":"Feature","id":"osm-node-11111201704-police","properties":{"id":"osm-node-11111201704-police","name":"ملحق الشهید محسن","kind":"poi","tier":"poi_regional","priority":77.1,"context":"بنکەی پۆلیس","category":"بنکەی پۆلیس"},"geometry":{"type":"Point","coordinates":[41.2942813,36.2540416]}},{"type":"Feature","id":"osm-node-11111201711-police","properties":{"id":"osm-node-11111201711-police","name":"ملحق جریبە1","kind":"poi","tier":"poi_regional","priority":77.1,"context":"بنکەی پۆلیس","category":"بنکەی پۆلیس"},"geometry":{"type":"Point","coordinates":[41.347266,36.425179]}},{"type":"Feature","id":"osm-node-11111201664-police","properties":{"id":"osm-node-11111201664-police","name":"ملحق جریبە2","kind":"poi","tier":"poi_regional","priority":77.1,"context":"بنکەی پۆلیس","category":"بنکەی پۆلیس"},"geometry":{"type":"Point","coordinates":[41.3326321,36.4097785]}},{"type":"Feature","id":"osm-node-11111201639-police","properties":{"id":"osm-node-11111201639-police","name":"ملحق قربطە1","kind":"poi","tier":"poi_regional","priority":77.1,"context":"بنکەی پۆلیس","category":"بنکەی پۆلیس"},"geometry":{"type":"Point","coordinates":[41.3045127,36.35483]}},{"type":"Feature","id":"osm-node-11111201678-police","properties":{"id":"osm-node-11111201678-police","name":"ملحق قرطبە2","kind":"poi","tier":"poi_regional","priority":77.1,"context":"بنکەی پۆلیس","category":"بنکەی پۆلیس"},"geometry":{"type":"Point","coordinates":[41.293938,36.345581]}}]}