{"type":"FeatureCollection","features":[{"type":"Feature","id":"osm-natural-valley-9a98632d936fec","properties":{"id":"osm-natural-valley-9a98632d936fec","name":"وادي الزور","kind":"natural","tier":"natural","priority":180,"context":"دۆڵ · شنگال · نەینەوا","category":"دۆڵ"},"geometry":{"type":"Point","coordinates":[41.4398,36.51269]}},{"type":"Feature","id":"osm-natural-valley-b9c61373da521e","properties":{"id":"osm-natural-valley-b9c61373da521e","name":"وادي المجبورية","kind":"natural","tier":"natural","priority":180,"context":"دۆڵ · شنگال · نەینەوا","category":"دۆڵ"},"geometry":{"type":"Point","coordinates":[41.4777,36.53159]}},{"type":"Feature","id":"osm-natural-valley-e4618c4c48d908","properties":{"id":"osm-natural-valley-e4618c4c48d908","name":"وادي حصاويك","kind":"natural","tier":"natural","priority":180,"context":"دۆڵ · شنگال · نەینەوا","category":"دۆڵ"},"geometry":{"type":"Point","coordinates":[41.47467,36.51808]}},{"type":"Feature","id":"osm-natural-valley-f74e7b3a6a35da","properties":{"id":"osm-natural-valley-f74e7b3a6a35da","name":"وادي سهل","kind":"natural","tier":"natural","priority":180,"context":"دۆڵ · شنگال · نەینەوا","category":"دۆڵ"},"geometry":{"type":"Point","coordinates":[41.41382,36.52181]}},{"type":"Feature","id":"osm-natural-valley-b063369ab43f54","properties":{"id":"osm-natural-valley-b063369ab43f54","name":"وادي غنام خيطة","kind":"natural","tier":"natural","priority":180,"context":"دۆڵ · شنگال · نەینەوا","category":"دۆڵ"},"geometry":{"type":"Point","coordinates":[41.47725,36.53112]}},{"type":"Feature","id":"osm-node-11111201672-police","properties":{"id":"osm-node-11111201672-police","name":"ملحق بئر جاری1","kind":"poi","tier":"poi_regional","priority":77.1,"context":"بنکەی پۆلیس","category":"بنکەی پۆلیس"},"geometry":{"type":"Point","coordinates":[41.446231,36.524434]}},{"type":"Feature","id":"osm-node-11111201646-police","properties":{"id":"osm-node-11111201646-police","name":"ملحق بئر جاری2","kind":"poi","tier":"poi_regional","priority":77.1,"context":"بنکەی پۆلیس","category":"بنکەی پۆلیس"},"geometry":{"type":"Point","coordinates":[41.419453,36.511046]}},{"type":"Feature","id":"osm-node-11111201712-police","properties":{"id":"osm-node-11111201712-police","name":"ملحق تل مشرف2","kind":"poi","tier":"poi_regional","priority":77.1,"context":"بنکەی پۆلیس","category":"بنکەی پۆلیس"},"geometry":{"type":"Point","coordinates":[41.496425,36.532204]}},{"type":"Feature","id":"osm-node-11111201668-police","properties":{"id":"osm-node-11111201668-police","name":"ملحق تل مشرف3","kind":"poi","tier":"poi_regional","priority":77.1,"context":"بنکەی پۆلیس","category":"بنکەی پۆلیس"},"geometry":{"type":"Point","coordinates":[41.468426,36.529594]}}]}