{"type":"FeatureCollection","features":[{"type":"Feature","id":"osm-node-2488142743","properties":{"id":"osm-node-2488142743","name":"دارۆخان","kind":"village","tier":"locality","priority":300,"context":"پێنجوێن · سلێمانی","category":"گوند"},"geometry":{"type":"Point","coordinates":[46.0758263,35.7969664]}},{"type":"Feature","id":"osm-node-2488142744","properties":{"id":"osm-node-2488142744","name":"دۆڵەبی","kind":"village","tier":"locality","priority":300,"context":"پێنجوێن · سلێمانی","category":"گوند"},"geometry":{"type":"Point","coordinates":[46.0099569,35.7801382]}},{"type":"Feature","id":"osm-node-2488143076","properties":{"id":"osm-node-2488143076","name":"سەرسوراو","kind":"village","tier":"locality","priority":300,"context":"پێنجوێن · سلێمانی","category":"گوند"},"geometry":{"type":"Point","coordinates":[46.000939,35.7599336]}},{"type":"Feature","id":"osm-node-7137530475","properties":{"id":"osm-node-7137530475","name":"شروێنە","kind":"village","tier":"locality","priority":300,"context":"پێنجوێن · سلێمانی","category":"گوند"},"geometry":{"type":"Point","coordinates":[46.1017979,35.8030172]}},{"type":"Feature","id":"osm-node-2488142740","properties":{"id":"osm-node-2488142740","name":"شیوە کویزان","kind":"village","tier":"locality","priority":300,"context":"پێنجوێن · سلێمانی","category":"گوند"},"geometry":{"type":"Point","coordinates":[46.0042,35.824199]}},{"type":"Feature","id":"osm-node-2488142778","properties":{"id":"osm-node-2488142778","name":"شێخەدێ","kind":"village","tier":"locality","priority":300,"context":"پێنجوێن · سلێمانی","category":"گوند"},"geometry":{"type":"Point","coordinates":[46.0151157,35.8113628]}},{"type":"Feature","id":"osm-node-7137613185","properties":{"id":"osm-node-7137613185","name":"شێرزاد","kind":"village","tier":"locality","priority":300,"context":"پێنجوێن · سلێمانی","category":"گوند"},"geometry":{"type":"Point","coordinates":[46.0830933,35.7861432]}},{"type":"Feature","id":"osm-node-7137586337","properties":{"id":"osm-node-7137586337","name":"شێرکوژ","kind":"village","tier":"locality","priority":300,"context":"پێنجوێن · سلێمانی","category":"گوند"},"geometry":{"type":"Point","coordinates":[46.0325551,35.7562966]}},{"type":"Feature","id":"osm-node-2488142748","properties":{"id":"osm-node-2488142748","name":"شێرە","kind":"village","tier":"locality","priority":300,"context":"پێنجوێن · سلێمانی","category":"گوند"},"geometry":{"type":"Point","coordinates":[46.2427315,35.7657411]}},{"type":"Feature","id":"osm-node-2488142714","properties":{"id":"osm-node-2488142714","name":"عەواڵان","kind":"village","tier":"locality","priority":300,"context":"پێنجوێن · سلێمانی","category":"گوند"},"geometry":{"type":"Point","coordinates":[46.2016737,35.7805746]}},{"type":"Feature","id":"osm-node-2488142760","properties":{"id":"osm-node-2488142760","name":"لەنگەدێ","kind":"village","tier":"locality","priority":300,"context":"پێنجوێن · سلێمانی","category":"گوند"},"geometry":{"type":"Point","coordinates":[46.0759294,35.7639023]}},{"type":"Feature","id":"osm-node-2488142765","properties":{"id":"osm-node-2488142765","name":"ماسیدەر","kind":"village","tier":"locality","priority":300,"context":"پێنجوێن · سلێمانی","category":"گوند"},"geometry":{"type":"Point","coordinates":[46.042787,35.775203]}},{"type":"Feature","id":"osm-node-2488142767","properties":{"id":"osm-node-2488142767","name":"مڕان","kind":"village","tier":"locality","priority":300,"context":"پێنجوێن · سلێمانی","category":"گوند"},"geometry":{"type":"Point","coordinates":[46.0524361,35.8360374]}},{"type":"Feature","id":"osm-node-2488142747","properties":{"id":"osm-node-2488142747","name":"هاربڕ","kind":"village","tier":"locality","priority":300,"context":"پێنجوێن · سلێمانی","category":"گوند"},"geometry":{"type":"Point","coordinates":[46.0930997,35.8216862]}},{"type":"Feature","id":"osm-node-2488142784","properties":{"id":"osm-node-2488142784","name":"وێنە","kind":"village","tier":"locality","priority":300,"context":"پێنجوێن · سلێمانی","category":"گوند"},"geometry":{"type":"Point","coordinates":[46.0400992,35.8024877]}},{"type":"Feature","id":"osm-node-2488142739","properties":{"id":"osm-node-2488142739","name":"چاژ","kind":"village","tier":"locality","priority":300,"context":"پێنجوێن · سلێمانی","category":"گوند"},"geometry":{"type":"Point","coordinates":[46.1661047,35.7756942]}},{"type":"Feature","id":"osm-node-7137601997","properties":{"id":"osm-node-7137601997","name":"چاڵاو","kind":"village","tier":"locality","priority":300,"context":"پێنجوێن · سلێمانی","category":"گوند"},"geometry":{"type":"Point","coordinates":[46.0562125,35.7728384]}},{"type":"Feature","id":"osm-node-7137601996","properties":{"id":"osm-node-7137601996","name":"چاڵە بێ ئاو","kind":"village","tier":"locality","priority":300,"context":"پێنجوێن · سلێمانی","category":"گوند"},"geometry":{"type":"Point","coordinates":[46.0319117,35.7665098]}},{"type":"Feature","id":"osm-node-2488142741","properties":{"id":"osm-node-2488142741","name":"چوێسە","kind":"village","tier":"locality","priority":300,"context":"پێنجوێن · سلێمانی","category":"گوند"},"geometry":{"type":"Point","coordinates":[46.1096917,35.7694967]}},{"type":"Feature","id":"osm-node-2488142802","properties":{"id":"osm-node-2488142802","name":"چەرمەگا","kind":"village","tier":"locality","priority":300,"context":"پێنجوێن · سلێمانی","category":"گوند"},"geometry":{"type":"Point","coordinates":[46.0790555,35.7520253]}},{"type":"Feature","id":"osm-node-2488142751","properties":{"id":"osm-node-2488142751","name":"کانی بی","kind":"village","tier":"locality","priority":300,"context":"پێنجوێن · سلێمانی","category":"گوند"},"geometry":{"type":"Point","coordinates":[46.048463,35.7536968]}},{"type":"Feature","id":"osm-node-7137606477","properties":{"id":"osm-node-7137606477","name":"کانی دارۆخان","kind":"village","tier":"locality","priority":300,"context":"پێنجوێن · سلێمانی","category":"گوند"},"geometry":{"type":"Point","coordinates":[46.0879351,35.798195]}},{"type":"Feature","id":"osm-node-7137592513","properties":{"id":"osm-node-7137592513","name":"کانی ژاژ","kind":"village","tier":"locality","priority":300,"context":"پێنجوێن · سلێمانی","category":"گوند"},"geometry":{"type":"Point","coordinates":[46.0750539,35.8196598]}},{"type":"Feature","id":"osm-natural-stream-87a0272bc12e29","properties":{"id":"osm-natural-stream-87a0272bc12e29","name":"Cham-i Kurlash","kind":"natural","tier":"natural","priority":180,"context":"جۆگە · بنجوين · سلێمانی","category":"جۆگە"},"geometry":{"type":"Point","coordinates":[46.04667,35.75222]}},{"type":"Feature","id":"osm-natural-valley-8a43db9a6a53d0","properties":{"id":"osm-natural-valley-8a43db9a6a53d0","name":"Darreh-ye Shiler","kind":"natural","tier":"natural","priority":180,"context":"دۆڵ · بنجوين · سلێمانی","category":"دۆڵ"},"geometry":{"type":"Point","coordinates":[46.0148,35.7524]}},{"type":"Feature","id":"osm-natural-valley-2284506967230e","properties":{"id":"osm-natural-valley-2284506967230e","name":"Darreh-ye Shiler","kind":"natural","tier":"natural","priority":180,"context":"دۆڵ · بنجوين · سلێمانی","category":"دۆڵ"},"geometry":{"type":"Point","coordinates":[46.2152,35.765]}},{"type":"Feature","id":"osm-natural-valley-cba82c28a5ee8f","properties":{"id":"osm-natural-valley-cba82c28a5ee8f","name":"وادي داروخان","kind":"natural","tier":"natural","priority":180,"context":"دۆڵ · بنجوين · سلێمانی","category":"دۆڵ"},"geometry":{"type":"Point","coordinates":[46.0751,35.79535]}},{"type":"Feature","id":"osm-natural-valley-b79bf9b6f8247f","properties":{"id":"osm-natural-valley-b79bf9b6f8247f","name":"وادي سر سوراو","kind":"natural","tier":"natural","priority":180,"context":"دۆڵ · بنجوين · سلێمانی","category":"دۆڵ"},"geometry":{"type":"Point","coordinates":[46.00371,35.75979]}},{"type":"Feature","id":"osm-natural-valley-20fe4c8b9a7143","properties":{"id":"osm-natural-valley-20fe4c8b9a7143","name":"وادي سيونبة","kind":"natural","tier":"natural","priority":180,"context":"دۆڵ · بنجوين · سلێمانی","category":"دۆڵ"},"geometry":{"type":"Point","coordinates":[46.10302,35.77063]}},{"type":"Feature","id":"osm-natural-valley-a99c215527c76e","properties":{"id":"osm-natural-valley-a99c215527c76e","name":"وادي كاني تبكي","kind":"natural","tier":"natural","priority":180,"context":"دۆڵ · بنجوين · سلێمانی","category":"دۆڵ"},"geometry":{"type":"Point","coordinates":[46.0083,35.79574]}},{"type":"Feature","id":"osm-natural-valley-53ec1634fb26fc","properties":{"id":"osm-natural-valley-53ec1634fb26fc","name":"وادي كمروه","kind":"natural","tier":"natural","priority":180,"context":"دۆڵ · بنجوين · سلێمانی","category":"دۆڵ"},"geometry":{"type":"Point","coordinates":[46.05263,35.83315]}},{"type":"Feature","id":"osm-natural-valley-f15a206f10a3e7","properties":{"id":"osm-natural-valley-f15a206f10a3e7","name":"وادي ماسيدر","kind":"natural","tier":"natural","priority":180,"context":"دۆڵ · بنجوين · سلێمانی","category":"دۆڵ"},"geometry":{"type":"Point","coordinates":[46.01487,35.75805]}},{"type":"Feature","id":"osm-natural-valley-7af23d49ebfdbd","properties":{"id":"osm-natural-valley-7af23d49ebfdbd","name":"وادي ميران","kind":"natural","tier":"natural","priority":180,"context":"دۆڵ · بنجوين · سلێمانی","category":"دۆڵ"},"geometry":{"type":"Point","coordinates":[46.02216,35.77815]}},{"type":"Feature","id":"osm-natural-valley-d97d7b2fdd630a","properties":{"id":"osm-natural-valley-d97d7b2fdd630a","name":"وادي ناوخان","kind":"natural","tier":"natural","priority":180,"context":"دۆڵ · بنجوين · سلێمانی","category":"دۆڵ"},"geometry":{"type":"Point","coordinates":[46.21996,35.76861]}},{"type":"Feature","id":"osm-natural-valley-10738798a31144","properties":{"id":"osm-natural-valley-10738798a31144","name":"وادي ورة","kind":"natural","tier":"natural","priority":180,"context":"دۆڵ · بنجوين · سلێمانی","category":"دۆڵ"},"geometry":{"type":"Point","coordinates":[46.16067,35.75037]}},{"type":"Feature","id":"osm-way-1287983841-residential","properties":{"id":"osm-way-1287983841-residential","name":"چەرمەگا","kind":"poi","tier":"poi_local","priority":68.045,"context":"کۆمپاوندی نیشتەجێبوون","category":"کۆمپاوندی نیشتەجێبوون"},"geometry":{"type":"Point","coordinates":[46.0795149,35.7518089]}}]}