{"type":"FeatureCollection","features":[{"type":"Feature","id":"osm-node-2489386792","properties":{"id":"osm-node-2489386792","name":"ئاوەمار","kind":"village","tier":"locality","priority":300,"context":"هەڵەبجە · سلێمانی","category":"گوند"},"geometry":{"type":"Point","coordinates":[46.08,35.086111]}},{"type":"Feature","id":"osm-node-7388656447","properties":{"id":"osm-node-7388656447","name":"بنجەودڕەی","kind":"village","tier":"locality","priority":300,"context":"هەڵەبجە · سلێمانی","category":"گوند"},"geometry":{"type":"Point","coordinates":[46.0834822,35.2346916]}},{"type":"Feature","id":"osm-node-2489386732","properties":{"id":"osm-node-2489386732","name":"بۆین","kind":"village","tier":"locality","priority":300,"context":"هەڵەبجە · سلێمانی","category":"گوند"},"geometry":{"type":"Point","coordinates":[46.1182721,35.1020718]}},{"type":"Feature","id":"geonames-97480","properties":{"id":"geonames-97480","name":"بیارە","kind":"village","tier":"locality","priority":300,"context":"هەڵەبجە · سلێمانی","category":"گوند"},"geometry":{"type":"Point","coordinates":[46.10979,35.22857]}},{"type":"Feature","id":"geonames-97589","properties":{"id":"geonames-97589","name":"بیاوێڵە","kind":"village","tier":"locality","priority":300,"context":"هەڵەبجە · سلێمانی","category":"گوند"},"geometry":{"type":"Point","coordinates":[46.00521,35.2366]}},{"type":"Feature","id":"osm-node-2489386771","properties":{"id":"osm-node-2489386771","name":"بیاوێڵە","kind":"village","tier":"locality","priority":300,"context":"هەڵەبجە · سلێمانی","category":"گوند"},"geometry":{"type":"Point","coordinates":[46.0108981,35.2154452]}},{"type":"Feature","id":"osm-node-2489386759","properties":{"id":"osm-node-2489386759","name":"بەڵخەی خواروو","kind":"village","tier":"locality","priority":300,"context":"هەڵەبجە · سلێمانی","category":"گوند"},"geometry":{"type":"Point","coordinates":[46.140263,35.1951939]}},{"type":"Feature","id":"osm-node-7369636198","properties":{"id":"osm-node-7369636198","name":"بەڵخەی سەروو","kind":"village","tier":"locality","priority":300,"context":"هەڵەبجە · سلێمانی","category":"گوند"},"geometry":{"type":"Point","coordinates":[46.1500919,35.1996017]}},{"type":"Feature","id":"osm-node-7388701203","properties":{"id":"osm-node-7388701203","name":"تاوێرە","kind":"village","tier":"locality","priority":300,"context":"هەڵەبجە · سلێمانی","category":"گوند"},"geometry":{"type":"Point","coordinates":[46.0773874,35.1835467]}},{"type":"Feature","id":"osm-node-6697719498","properties":{"id":"osm-node-6697719498","name":"تلەوەرێ","kind":"village","tier":"locality","priority":300,"context":"هەڵەبجە · سلێمانی","category":"گوند"},"geometry":{"type":"Point","coordinates":[46.0491269,35.1003659]}},{"type":"Feature","id":"osm-node-7388779549","properties":{"id":"osm-node-7388779549","name":"جاوری","kind":"village","tier":"locality","priority":300,"context":"هەڵەبجە · سلێمانی","category":"گوند"},"geometry":{"type":"Point","coordinates":[46.1451552,35.1835837]}},{"type":"Feature","id":"osm-node-2489386853","properties":{"id":"osm-node-2489386853","name":"جەلیلە","kind":"village","tier":"locality","priority":300,"context":"هەڵەبجە · سلێمانی","category":"گوند"},"geometry":{"type":"Point","coordinates":[46.0245285,35.1856864]}},{"type":"Feature","id":"osm-node-7397128084","properties":{"id":"osm-node-7397128084","name":"خارگێڵان","kind":"village","tier":"locality","priority":300,"context":"هەڵەبجە · سلێمانی","category":"گوند"},"geometry":{"type":"Point","coordinates":[46.0567504,35.2427533]}},{"type":"Feature","id":"osm-node-7388692415","properties":{"id":"osm-node-7388692415","name":"خەرپانی","kind":"village","tier":"locality","priority":300,"context":"هەڵەبجە · سلێمانی","category":"گوند"},"geometry":{"type":"Point","coordinates":[46.0705438,35.2174301]}},{"type":"Feature","id":"osm-node-7388634251","properties":{"id":"osm-node-7388634251","name":"درەکێ","kind":"village","tier":"locality","priority":300,"context":"هەڵەبجە · سلێمانی","category":"گوند"},"geometry":{"type":"Point","coordinates":[46.0892114,35.2405628]}},{"type":"Feature","id":"osm-node-6697683638","properties":{"id":"osm-node-6697683638","name":"دۆڵبیان","kind":"village","tier":"locality","priority":300,"context":"هەڵەبجە · سلێمانی","category":"گوند"},"geometry":{"type":"Point","coordinates":[46.1502985,35.1693414]}},{"type":"Feature","id":"geonames-97165","properties":{"id":"geonames-97165","name":"دەرکە شێخان","kind":"village","tier":"locality","priority":300,"context":"هەڵەبجە · سلێمانی","category":"گوند"},"geometry":{"type":"Point","coordinates":[46.12781,35.22342]}},{"type":"Feature","id":"osm-node-7388749992","properties":{"id":"osm-node-7388749992","name":"دەرە تفێ","kind":"village","tier":"locality","priority":300,"context":"هەڵەبجە · سلێمانی","category":"گوند"},"geometry":{"type":"Point","coordinates":[46.149605,35.1472798]}},{"type":"Feature","id":"osm-node-2489386838","properties":{"id":"osm-node-2489386838","name":"دەرەشیشی خواروو","kind":"village","tier":"locality","priority":300,"context":"هەڵەبجە · سلێمانی","category":"گوند"},"geometry":{"type":"Point","coordinates":[46.0175311,35.2198701]}},{"type":"Feature","id":"osm-node-7388699197","properties":{"id":"osm-node-7388699197","name":"دەرەشیشی سەروو","kind":"village","tier":"locality","priority":300,"context":"هەڵەبجە · سلێمانی","category":"گوند"},"geometry":{"type":"Point","coordinates":[46.0364166,35.2115668]}},{"type":"Feature","id":"osm-node-7388676023","properties":{"id":"osm-node-7388676023","name":"دەرەقەیسەر","kind":"village","tier":"locality","priority":300,"context":"هەڵەبجە · سلێمانی","category":"گوند"},"geometry":{"type":"Point","coordinates":[46.0851805,35.2227922]}},{"type":"Feature","id":"osm-node-7369614866","properties":{"id":"osm-node-7369614866","name":"دەگاشێخان","kind":"village","tier":"locality","priority":300,"context":"هەڵەبجە · سلێمانی","category":"گوند"},"geometry":{"type":"Point","coordinates":[46.1278517,35.2234443]}},{"type":"Feature","id":"osm-node-2489386818","properties":{"id":"osm-node-2489386818","name":"دەڵەمەڕ","kind":"village","tier":"locality","priority":300,"context":"هەڵەبجە · سلێمانی","category":"گوند"},"geometry":{"type":"Point","coordinates":[46.0367977,35.1595326]}},{"type":"Feature","id":"osm-node-7388648101","properties":{"id":"osm-node-7388648101","name":"زەردەهاڵ","kind":"village","tier":"locality","priority":300,"context":"هەڵەبجە · سلێمانی","category":"گوند"},"geometry":{"type":"Point","coordinates":[46.0760579,35.2333946]}},{"type":"Feature","id":"osm-node-2480123694","properties":{"id":"osm-node-2480123694","name":"سۆسەکان","kind":"village","tier":"locality","priority":300,"context":"هەڵەبجە · سلێمانی","category":"گوند"},"geometry":{"type":"Point","coordinates":[46.1684305,35.1823328]}},{"type":"Feature","id":"osm-node-7388700847","properties":{"id":"osm-node-7388700847","name":"سەرکەن","kind":"village","tier":"locality","priority":300,"context":"هەڵەبجە · سلێمانی","category":"گوند"},"geometry":{"type":"Point","coordinates":[46.0561752,35.1990285]}},{"type":"Feature","id":"geonames-90852","properties":{"id":"geonames-90852","name":"شندروێ","kind":"village","tier":"locality","priority":300,"context":"هەڵەبجە · سلێمانی","category":"گوند"},"geometry":{"type":"Point","coordinates":[46.08363,35.14487]}},{"type":"Feature","id":"osm-node-2489386687","properties":{"id":"osm-node-2489386687","name":"عەبابەیلێ","kind":"village","tier":"locality","priority":300,"context":"هەڵەبجە · سلێمانی","category":"گوند"},"geometry":{"type":"Point","coordinates":[46.0325606,35.1704762]}},{"type":"Feature","id":"osm-node-2489386705","properties":{"id":"osm-node-2489386705","name":"عەنەب","kind":"village","tier":"locality","priority":300,"context":"هەڵەبجە · سلێمانی","category":"گوند"},"geometry":{"type":"Point","coordinates":[46.0149562,35.2090312]}},{"type":"Feature","id":"osm-node-2489386877","properties":{"id":"osm-node-2489386877","name":"قوڵی متکان","kind":"village","tier":"locality","priority":300,"context":"هەڵەبجە · سلێمانی","category":"گوند"},"geometry":{"type":"Point","coordinates":[46.0647965,35.0484549]}},{"type":"Feature","id":"osm-node-2489386878","properties":{"id":"osm-node-2489386878","name":"لمە","kind":"village","tier":"locality","priority":300,"context":"هەڵەبجە · سلێمانی","category":"گوند"},"geometry":{"type":"Point","coordinates":[46.0681135,35.0757695]}},{"type":"Feature","id":"osm-node-2489386882","properties":{"id":"osm-node-2489386882","name":"مۆردین","kind":"village","tier":"locality","priority":300,"context":"هەڵەبجە · سلێمانی","category":"گوند"},"geometry":{"type":"Point","coordinates":[46.0086986,35.0834598]}},{"type":"Feature","id":"osm-node-7388634634","properties":{"id":"osm-node-7388634634","name":"نارنجڵە","kind":"village","tier":"locality","priority":300,"context":"هەڵەبجە · سلێمانی","category":"گوند"},"geometry":{"type":"Point","coordinates":[46.0997836,35.2454971]}},{"type":"Feature","id":"geonames-92990","properties":{"id":"geonames-92990","name":"نارنجەڵە","kind":"village","tier":"locality","priority":300,"context":"هەڵەبجە · سلێمانی","category":"گوند"},"geometry":{"type":"Point","coordinates":[46.08951,35.24451]}},{"type":"Feature","id":"osm-node-2489386886","properties":{"id":"osm-node-2489386886","name":"نەیجەڵە","kind":"village","tier":"locality","priority":300,"context":"هەڵەبجە · سلێمانی","category":"گوند"},"geometry":{"type":"Point","coordinates":[46.0521424,35.0600026]}},{"type":"Feature","id":"osm-node-7369700230","properties":{"id":"osm-node-7369700230","name":"هانەنەوتێ","kind":"village","tier":"locality","priority":300,"context":"هەڵەبجە · سلێمانی","category":"گوند"},"geometry":{"type":"Point","coordinates":[46.0967028,35.2194144]}},{"type":"Feature","id":"osm-node-9594171262","properties":{"id":"osm-node-9594171262","name":"هاوار","kind":"village","tier":"locality","priority":300,"context":"هەڵەبجە · سلێمانی","category":"گوند"},"geometry":{"type":"Point","coordinates":[46.1178441,35.1608898]}},{"type":"Feature","id":"osm-node-6698106683","properties":{"id":"osm-node-6698106683","name":"هەوارە کۆن","kind":"village","tier":"locality","priority":300,"context":"هەڵەبجە · سلێمانی","category":"گوند"},"geometry":{"type":"Point","coordinates":[46.1317625,35.13535]}},{"type":"Feature","id":"osm-node-7388760509","properties":{"id":"osm-node-7388760509","name":"پاڵانیان","kind":"village","tier":"locality","priority":300,"context":"هەڵەبجە · سلێمانی","category":"گوند"},"geometry":{"type":"Point","coordinates":[46.1245129,35.1807601]}},{"type":"Feature","id":"geonames-97644","properties":{"id":"geonames-97644","name":"پێنجی دڕە","kind":"village","tier":"locality","priority":300,"context":"هەڵەبجە · سلێمانی","category":"گوند"},"geometry":{"type":"Point","coordinates":[46.08514,35.23192]}},{"type":"Feature","id":"osm-node-2489386888","properties":{"id":"osm-node-2489386888","name":"پێگە","kind":"village","tier":"locality","priority":300,"context":"هەڵەبجە · سلێمانی","category":"گوند"},"geometry":{"type":"Point","coordinates":[46.0664255,35.0641374]}},{"type":"Feature","id":"geonames-97347","properties":{"id":"geonames-97347","name":"چنار","kind":"village","tier":"locality","priority":300,"context":"هەڵەبجە · سلێمانی","category":"گوند"},"geometry":{"type":"Point","coordinates":[46.03162,35.07959]}},{"type":"Feature","id":"osm-node-2489386806","properties":{"id":"osm-node-2489386806","name":"چنارەی کۆکۆیی","kind":"village","tier":"locality","priority":300,"context":"هەڵەبجە · سلێمانی","category":"گوند"},"geometry":{"type":"Point","coordinates":[46.0316977,35.079678]}},{"type":"Feature","id":"osm-node-13808129233","properties":{"id":"osm-node-13808129233","name":"چەمەگەری","kind":"village","tier":"locality","priority":300,"context":"هەڵەبجە · سلێمانی","category":"گوند"},"geometry":{"type":"Point","coordinates":[46.0965156,35.1476903]}},{"type":"Feature","id":"osm-node-2489386891","properties":{"id":"osm-node-2489386891","name":"ڕیشاو","kind":"village","tier":"locality","priority":300,"context":"هەڵەبجە · سلێمانی","category":"گوند"},"geometry":{"type":"Point","coordinates":[46.0778447,35.1110728]}},{"type":"Feature","id":"osm-node-2489386857","properties":{"id":"osm-node-2489386857","name":"کانی گوێز","kind":"village","tier":"locality","priority":300,"context":"هەڵەبجە · سلێمانی","category":"گوند"},"geometry":{"type":"Point","coordinates":[46.0530309,35.1287834]}},{"type":"Feature","id":"osm-node-7388671769","properties":{"id":"osm-node-7388671769","name":"کولیژی","kind":"village","tier":"locality","priority":300,"context":"هەڵەبجە · سلێمانی","category":"گوند"},"geometry":{"type":"Point","coordinates":[46.0630551,35.2166237]}},{"type":"Feature","id":"osm-node-2489386860","properties":{"id":"osm-node-2489386860","name":"کۆساوا","kind":"village","tier":"locality","priority":300,"context":"هەڵەبجە · سلێمانی","category":"گوند"},"geometry":{"type":"Point","coordinates":[46.0775418,35.0931905]}},{"type":"Feature","id":"osm-node-7369704941","properties":{"id":"osm-node-7369704941","name":"گریانە","kind":"village","tier":"locality","priority":300,"context":"هەڵەبجە · سلێمانی","category":"گوند"},"geometry":{"type":"Point","coordinates":[46.1501607,35.1170574]}},{"type":"Feature","id":"osm-way-1174827076","properties":{"id":"osm-way-1174827076","name":"بەخشین - ماست","kind":"locality","tier":"locality","priority":200,"context":"هەڵەبجە · سلێمانی","category":"شوێنی ناوخۆیی"},"geometry":{"type":"Point","coordinates":[46.11009075623371,35.1623345]}},{"type":"Feature","id":"osm-node-3524794281","properties":{"id":"osm-node-3524794281","name":"ژاله رحمانیک","kind":"locality","tier":"locality","priority":200,"context":"هەڵەبجە · سلێمانی","category":"شوێنی ناوخۆیی"},"geometry":{"type":"Point","coordinates":[46.0998,35.0771]}},{"type":"Feature","id":"osm-node-3524794280","properties":{"id":"osm-node-3524794280","name":"ژاله قباد بیک","kind":"locality","tier":"locality","priority":200,"context":"هەڵەبجە · سلێمانی","category":"شوێنی ناوخۆیی"},"geometry":{"type":"Point","coordinates":[46.1025433,35.0746073]}},{"type":"Feature","id":"osm-natural-stream-5b0c360d163cdf","properties":{"id":"osm-natural-stream-5b0c360d163cdf","name":"Cham-e Geryaneh","kind":"natural","tier":"natural","priority":180,"context":"جۆگە · حلبجة · سلێمانی","category":"جۆگە"},"geometry":{"type":"Point","coordinates":[46.1733,35.1031]}},{"type":"Feature","id":"osm-natural-stream-ee76b6b2b1fdf0","properties":{"id":"osm-natural-stream-ee76b6b2b1fdf0","name":"Cham-i Chinar","kind":"natural","tier":"natural","priority":180,"context":"جۆگە · حلبجة · سلێمانی","category":"جۆگە"},"geometry":{"type":"Point","coordinates":[46.02111,35.06417]}},{"type":"Feature","id":"osm-natural-stream-7e260ea4b282c7","properties":{"id":"osm-natural-stream-7e260ea4b282c7","name":"Cham-i Sarko","kind":"natural","tier":"natural","priority":180,"context":"جۆگە · حلبجة · سلێمانی","category":"جۆگە"},"geometry":{"type":"Point","coordinates":[46.08,35.08611]}},{"type":"Feature","id":"osm-natural-spring-db3e25f8663f08","properties":{"id":"osm-natural-spring-db3e25f8663f08","name":"Cheshmeh-ye Ab-e Sard","kind":"natural","tier":"natural","priority":180,"context":"کانی · حلبجة · سلێمانی","category":"کانی"},"geometry":{"type":"Point","coordinates":[46.1874,35.2165]}},{"type":"Feature","id":"osm-natural-mountain-ce240a2ce3a4e0","properties":{"id":"osm-natural-mountain-ce240a2ce3a4e0","name":"Kuh-e Shind Ruy","kind":"natural","tier":"natural","priority":180,"context":"شاخ · حلبجة · سلێمانی","category":"شاخ"},"geometry":{"type":"Point","coordinates":[46.1101,35.1213]}},{"type":"Feature","id":"osm-natural-valley-698931b68940a4","properties":{"id":"osm-natural-valley-698931b68940a4","name":"Wadi Giryanah","kind":"natural","tier":"natural","priority":180,"context":"دۆڵ · حلبجة · سلێمانی","category":"دۆڵ"},"geometry":{"type":"Point","coordinates":[46.17253,35.10186]}},{"type":"Feature","id":"osm-natural-orchard-f563b553e1661c","properties":{"id":"osm-natural-orchard-f563b553e1661c","name":"باخەکانی ئاوێسەر","kind":"natural","tier":"natural","priority":180,"context":"باخ · حلبجة · سلێمانی","category":"باخ"},"geometry":{"type":"Point","coordinates":[46.1798316,35.2101533]}},{"type":"Feature","id":"osm-natural-orchard-320bb14ae9652a","properties":{"id":"osm-natural-orchard-320bb14ae9652a","name":"باخەکانی تەوێڵە","kind":"natural","tier":"natural","priority":180,"context":"باخ · حلبجة · سلێمانی","category":"باخ"},"geometry":{"type":"Point","coordinates":[46.1764013,35.1830147]}},{"type":"Feature","id":"osm-natural-orchard-da9adecd7bc6ea","properties":{"id":"osm-natural-orchard-da9adecd7bc6ea","name":"باخەکانی هەوارە کۆن","kind":"natural","tier":"natural","priority":180,"context":"باخ · حلبجة · سلێمانی","category":"باخ"},"geometry":{"type":"Point","coordinates":[46.1346791,35.1382414]}},{"type":"Feature","id":"osm-natural-mountain-3496bb2214275d","properties":{"id":"osm-natural-mountain-3496bb2214275d","name":"جبل بالمبو","kind":"natural","tier":"natural","priority":180,"context":"شاخ · حلبجة · سلێمانی","category":"شاخ"},"geometry":{"type":"Point","coordinates":[46.02513,35.09769]}},{"type":"Feature","id":"osm-natural-mountain-3119c55e8c42b5","properties":{"id":"osm-natural-mountain-3119c55e8c42b5","name":"جبل بفري ميري","kind":"natural","tier":"natural","priority":180,"context":"شاخ · حلبجة · سلێمانی","category":"شاخ"},"geometry":{"type":"Point","coordinates":[46.1034,35.13467]}},{"type":"Feature","id":"osm-natural-mountain-bdccd83f40e34b","properties":{"id":"osm-natural-mountain-bdccd83f40e34b","name":"جبل شنروي","kind":"natural","tier":"natural","priority":180,"context":"شاخ · حلبجة · سلێمانی","category":"شاخ"},"geometry":{"type":"Point","coordinates":[46.07208,35.15539]}},{"type":"Feature","id":"osm-natural-mountain-3ec41599aeaea6","properties":{"id":"osm-natural-mountain-3ec41599aeaea6","name":"جبل مندن","kind":"natural","tier":"natural","priority":180,"context":"شاخ · حلبجة · سلێمانی","category":"شاخ"},"geometry":{"type":"Point","coordinates":[46.14204,35.21767]}},{"type":"Feature","id":"osm-natural-mountain-6ef23f7c895b0c","properties":{"id":"osm-natural-mountain-6ef23f7c895b0c","name":"جبل هورامان","kind":"natural","tier":"natural","priority":180,"context":"شاخ · حلبجة · سلێمانی","category":"شاخ"},"geometry":{"type":"Point","coordinates":[46.15824,35.21859]}},{"type":"Feature","id":"osm-natural-forest-0387ecfe49d357","properties":{"id":"osm-natural-forest-0387ecfe49d357","name":"دارستانی هەورامان","kind":"natural","tier":"natural","priority":180,"context":"دارستان · حلبجة · سلێمانی","category":"دارستان"},"geometry":{"type":"Point","coordinates":[46.0895128,35.1328133]}},{"type":"Feature","id":"osm-natural-valley-fb6638b4d22261","properties":{"id":"osm-natural-valley-fb6638b4d22261","name":"وادي بلخه","kind":"natural","tier":"natural","priority":180,"context":"دۆڵ · حلبجة · سلێمانی","category":"دۆڵ"},"geometry":{"type":"Point","coordinates":[46.13542,35.13763]}},{"type":"Feature","id":"osm-natural-valley-e9c7a098c5043e","properties":{"id":"osm-natural-valley-e9c7a098c5043e","name":"وادي داره شش","kind":"natural","tier":"natural","priority":180,"context":"دۆڵ · حلبجة · سلێمانی","category":"دۆڵ"},"geometry":{"type":"Point","coordinates":[46.00635,35.23511]}},{"type":"Feature","id":"osm-natural-valley-22af4b06860c52","properties":{"id":"osm-natural-valley-22af4b06860c52","name":"وادي طويلة","kind":"natural","tier":"natural","priority":180,"context":"دۆڵ · حلبجة · سلێمانی","category":"دۆڵ"},"geometry":{"type":"Point","coordinates":[46.12181,35.16955]}},{"type":"Feature","id":"osm-natural-orchard-3e67b7741efc0a","properties":{"id":"osm-natural-orchard-3e67b7741efc0a","name":"وەزەنێ","kind":"natural","tier":"natural","priority":180,"context":"باخ · حلبجة · سلێمانی","category":"باخ"},"geometry":{"type":"Point","coordinates":[46.1351767,35.2096089]}},{"type":"Feature","id":"road-label-osm-way-1315473671","properties":{"id":"road-label-osm-way-1315473671","name":"Bazar Street","kind":"road","tier":"road","priority":88,"context":"primary · حلبجة · سلێمانی","category":"ڕێگا"},"geometry":{"type":"Point","coordinates":[46.185385,35.199852]}},{"type":"Feature","id":"road-label-osm-way-513697271","properties":{"id":"road-label-osm-way-513697271","name":"تەوێڵە","kind":"road","tier":"road","priority":88,"context":"primary · حلبجة · سلێمانی","category":"ڕێگا"},"geometry":{"type":"Point","coordinates":[46.147357,35.202884]}},{"type":"Feature","id":"road-label-osm-way-321659383","properties":{"id":"road-label-osm-way-321659383","name":"Hasan Zirak Str.","kind":"road","tier":"road","priority":72,"context":"secondary · حلبجة · سلێمانی","category":"ڕێگا"},"geometry":{"type":"Point","coordinates":[46.000559,35.181382]}},{"type":"Feature","id":"road-label-osm-way-858001115","properties":{"id":"road-label-osm-way-858001115","name":"baranhawsHawar","kind":"road","tier":"road","priority":72,"context":"secondary · حلبجة · سلێمانی","category":"ڕێگا"},"geometry":{"type":"Point","coordinates":[46.027781,35.173236]}},{"type":"Feature","id":"road-label-osm-way-727513582","properties":{"id":"road-label-osm-way-727513582","name":"Dr. Amanj Rahin Str.","kind":"road","tier":"road","priority":55,"context":"tertiary · حلبجة · سلێمانی","category":"ڕێگا"},"geometry":{"type":"Point","coordinates":[46.004181,35.189721]}},{"type":"Feature","id":"road-label-osm-way-447651160","properties":{"id":"road-label-osm-way-447651160","name":"baranhawsHawar","kind":"road","tier":"road","priority":55,"context":"tertiary · حلبجة · سلێمانی","category":"ڕێگا"},"geometry":{"type":"Point","coordinates":[46.040208,35.167906]}},{"type":"Feature","id":"road-label-osm-way-277183040","properties":{"id":"road-label-osm-way-277183040","name":"ڕێگای ئاوێسەر","kind":"road","tier":"road","priority":55,"context":"tertiary · حلبجة · سلێمانی","category":"ڕێگا"},"geometry":{"type":"Point","coordinates":[46.182439,35.210703]}},{"type":"Feature","id":"osm-way-540518570-building","properties":{"id":"osm-way-540518570-building","name":"پزیشکی داد","kind":"poi","tier":"poi_landmark","priority":95.055,"context":"نەخۆشخانە","category":"نەخۆشخانە"},"geometry":{"type":"Point","coordinates":[46.0043668,35.1941132]}},{"type":"Feature","id":"osm-way-850767083-university","properties":{"id":"osm-way-850767083-university","name":"زانکۆی هەڵەبجە","kind":"poi","tier":"poi_landmark","priority":94.092,"context":"زانکۆ","category":"زانکۆ"},"geometry":{"type":"Point","coordinates":[46.0229048,35.1720599]}},{"type":"Feature","id":"osm-way-850767085-building","properties":{"id":"osm-way-850767085-building","name":"داخلی کچانی زانکۆی هەلەبجە","kind":"poi","tier":"poi_landmark","priority":94.055,"context":"زانکۆ","category":"زانکۆ"},"geometry":{"type":"Point","coordinates":[46.0203527,35.1742438]}},{"type":"Feature","id":"osm-way-850767089-building","properties":{"id":"osm-way-850767089-building","name":"زانکۆی هەڵەبجە","kind":"poi","tier":"poi_landmark","priority":94.055,"context":"زانکۆ","category":"زانکۆ"},"geometry":{"type":"Point","coordinates":[46.0220114,35.1718695]}},{"type":"Feature","id":"osm-way-850767090-building","properties":{"id":"osm-way-850767090-building","name":"زانکۆی هەڵەبجە","kind":"poi","tier":"poi_landmark","priority":94.055,"context":"زانکۆ","category":"زانکۆ"},"geometry":{"type":"Point","coordinates":[46.0234972,35.1717484]}},{"type":"Feature","id":"osm-node-2480123693-police","properties":{"id":"osm-node-2480123693-police","name":"بنکەی پۆلیسی سۆسەکان","kind":"poi","tier":"poi_regional","priority":77.1,"context":"بنکەی پۆلیس","category":"بنکەی پۆلیس"},"geometry":{"type":"Point","coordinates":[46.1670938,35.1815453]}},{"type":"Feature","id":"osm-node-11475815769-police","properties":{"id":"osm-node-11475815769-police","name":"بیارە","kind":"poi","tier":"poi_regional","priority":77.1,"context":"بنکەی پۆلیس","category":"بنکەی پۆلیس"},"geometry":{"type":"Point","coordinates":[46.1128413,35.2275999]}},{"type":"Feature","id":"osm-node-11475815869-police","properties":{"id":"osm-node-11475815869-police","name":"فوج ٢ لواء ٢١","kind":"poi","tier":"poi_regional","priority":77.1,"context":"بنکەی پۆلیس","category":"بنکەی پۆلیس"},"geometry":{"type":"Point","coordinates":[46.1131095,35.2268121]}},{"type":"Feature","id":"osm-node-5689369834-police","properties":{"id":"osm-node-5689369834-police","name":"مدیریه منفذ طویلە","kind":"poi","tier":"poi_regional","priority":77.1,"context":"بنکەی پۆلیس","category":"بنکەی پۆلیس"},"geometry":{"type":"Point","coordinates":[46.1929952,35.2020607]}},{"type":"Feature","id":"osm-node-7172639296-police","properties":{"id":"osm-node-7172639296-police","name":"پاسەوانی سنور","kind":"poi","tier":"poi_regional","priority":77.1,"context":"بنکەی پۆلیس","category":"بنکەی پۆلیس"},"geometry":{"type":"Point","coordinates":[46.0904757,35.1737455]}},{"type":"Feature","id":"osm-way-1073096285-police","properties":{"id":"osm-way-1073096285-police","name":"بنکەی ئاشایش","kind":"poi","tier":"poi_regional","priority":77.092,"context":"بنکەی پۆلیس","category":"بنکەی پۆلیس"},"geometry":{"type":"Point","coordinates":[46.0019573,35.1736242]}},{"type":"Feature","id":"osm-way-14292727-police","properties":{"id":"osm-way-14292727-police","name":"بەڕێوبەرێتی ئاسایشی هەڵەبجە","kind":"poi","tier":"poi_regional","priority":77.092,"context":"بنکەی پۆلیس","category":"بنکەی پۆلیس"},"geometry":{"type":"Point","coordinates":[46.0059164,35.1916594]}},{"type":"Feature","id":"osm-way-540518566-police","properties":{"id":"osm-way-540518566-police","name":"پۆلیسی دارستان","kind":"poi","tier":"poi_regional","priority":77.092,"context":"بنکەی پۆلیس","category":"بنکەی پۆلیس"},"geometry":{"type":"Point","coordinates":[46.0038963,35.1938518]}},{"type":"Feature","id":"osm-way-772972706-residential","properties":{"id":"osm-way-772972706-residential","name":"بنجەودڕەی","kind":"poi","tier":"poi_local","priority":68.045,"context":"کۆمپاوندی نیشتەجێبوون","category":"کۆمپاوندی نیشتەجێبوون"},"geometry":{"type":"Point","coordinates":[46.0835098,35.234852]}},{"type":"Feature","id":"osm-way-772774300-residential","properties":{"id":"osm-way-772774300-residential","name":"بۆین","kind":"poi","tier":"poi_local","priority":68.045,"context":"کۆمپاوندی نیشتەجێبوون","category":"کۆمپاوندی نیشتەجێبوون"},"geometry":{"type":"Point","coordinates":[46.1186417,35.1012678]}},{"type":"Feature","id":"osm-way-323939191-residential","properties":{"id":"osm-way-323939191-residential","name":"بیارە","kind":"poi","tier":"poi_local","priority":68.045,"context":"کۆمپاوندی نیشتەجێبوون","category":"کۆمپاوندی نیشتەجێبوون"},"geometry":{"type":"Point","coordinates":[46.1124819,35.2269955]}},{"type":"Feature","id":"osm-way-774641662-residential","properties":{"id":"osm-way-774641662-residential","name":"بیاوێڵە","kind":"poi","tier":"poi_local","priority":68.045,"context":"کۆمپاوندی نیشتەجێبوون","category":"کۆمپاوندی نیشتەجێبوون"},"geometry":{"type":"Point","coordinates":[46.011535,35.2151769]}},{"type":"Feature","id":"osm-way-323939182-residential","properties":{"id":"osm-way-323939182-residential","name":"بەڵخەی سەروو","kind":"poi","tier":"poi_local","priority":68.045,"context":"کۆمپاوندی نیشتەجێبوون","category":"کۆمپاوندی نیشتەجێبوون"},"geometry":{"type":"Point","coordinates":[46.1506007,35.2001513]}},{"type":"Feature","id":"osm-way-790864762-residential","properties":{"id":"osm-way-790864762-residential","name":"تاوێرە","kind":"poi","tier":"poi_local","priority":68.045,"context":"کۆمپاوندی نیشتەجێبوون","category":"کۆمپاوندی نیشتەجێبوون"},"geometry":{"type":"Point","coordinates":[46.0778566,35.1834233]}},{"type":"Feature","id":"osm-way-772773271-residential","properties":{"id":"osm-way-772773271-residential","name":"تلەوەرێ","kind":"poi","tier":"poi_local","priority":68.045,"context":"کۆمپاوندی نیشتەجێبوون","category":"کۆمپاوندی نیشتەجێبوون"},"geometry":{"type":"Point","coordinates":[46.0494055,35.1012513]}},{"type":"Feature","id":"osm-way-791238875-residential","properties":{"id":"osm-way-791238875-residential","name":"تەوێڵە","kind":"poi","tier":"poi_local","priority":68.045,"context":"کۆمپاوندی نیشتەجێبوون","category":"کۆمپاوندی نیشتەجێبوون"},"geometry":{"type":"Point","coordinates":[46.1855232,35.1996559]}},{"type":"Feature","id":"osm-way-772963562-residential","properties":{"id":"osm-way-772963562-residential","name":"جاوری","kind":"poi","tier":"poi_local","priority":68.045,"context":"کۆمپاوندی نیشتەجێبوون","category":"کۆمپاوندی نیشتەجێبوون"},"geometry":{"type":"Point","coordinates":[46.1453127,35.1835784]}},{"type":"Feature","id":"osm-way-278531402-residential","properties":{"id":"osm-way-278531402-residential","name":"جەلیلە","kind":"poi","tier":"poi_local","priority":68.045,"context":"کۆمپاوندی نیشتەجێبوون","category":"کۆمپاوندی نیشتەجێبوون"},"geometry":{"type":"Point","coordinates":[46.0240916,35.1860414]}},{"type":"Feature","id":"osm-way-1301293028-residential","properties":{"id":"osm-way-1301293028-residential","name":"خارگێڵان","kind":"poi","tier":"poi_local","priority":68.045,"context":"کۆمپاوندی نیشتەجێبوون","category":"کۆمپاوندی نیشتەجێبوون"},"geometry":{"type":"Point","coordinates":[46.0561175,35.2431733]}},{"type":"Feature","id":"osm-way-772970360-residential","properties":{"id":"osm-way-772970360-residential","name":"خەرپانی","kind":"poi","tier":"poi_local","priority":68.045,"context":"کۆمپاوندی نیشتەجێبوون","category":"کۆمپاوندی نیشتەجێبوون"},"geometry":{"type":"Point","coordinates":[46.0701698,35.2183019]}},{"type":"Feature","id":"osm-way-772973082-residential","properties":{"id":"osm-way-772973082-residential","name":"درەکێ","kind":"poi","tier":"poi_local","priority":68.045,"context":"کۆمپاوندی نیشتەجێبوون","category":"کۆمپاوندی نیشتەجێبوون"},"geometry":{"type":"Point","coordinates":[46.0896294,35.2408315]}},{"type":"Feature","id":"osm-way-772963254-residential","properties":{"id":"osm-way-772963254-residential","name":"دۆڵبیان","kind":"poi","tier":"poi_local","priority":68.045,"context":"کۆمپاوندی نیشتەجێبوون","category":"کۆمپاوندی نیشتەجێبوون"},"geometry":{"type":"Point","coordinates":[46.1501363,35.1693154]}},{"type":"Feature","id":"osm-way-772775675-residential","properties":{"id":"osm-way-772775675-residential","name":"دەرە تفێ","kind":"poi","tier":"poi_local","priority":68.045,"context":"کۆمپاوندی نیشتەجێبوون","category":"کۆمپاوندی نیشتەجێبوون"},"geometry":{"type":"Point","coordinates":[46.1492795,35.1474733]}},{"type":"Feature","id":"osm-way-774640909-residential","properties":{"id":"osm-way-774640909-residential","name":"دەرەشیشی خواروو","kind":"poi","tier":"poi_local","priority":68.045,"context":"کۆمپاوندی نیشتەجێبوون","category":"کۆمپاوندی نیشتەجێبوون"},"geometry":{"type":"Point","coordinates":[46.0174935,35.2196937]}},{"type":"Feature","id":"osm-way-425078821-residential","properties":{"id":"osm-way-425078821-residential","name":"دەرەشیشی سەروو","kind":"poi","tier":"poi_local","priority":68.045,"context":"کۆمپاوندی نیشتەجێبوون","category":"کۆمپاوندی نیشتەجێبوون"},"geometry":{"type":"Point","coordinates":[46.0367446,35.2117573]}},{"type":"Feature","id":"osm-way-772967654-residential","properties":{"id":"osm-way-772967654-residential","name":"دەرەقەیسەر","kind":"poi","tier":"poi_local","priority":68.045,"context":"کۆمپاوندی نیشتەجێبوون","category":"کۆمپاوندی نیشتەجێبوون"},"geometry":{"type":"Point","coordinates":[46.085154,35.2227109]}},{"type":"Feature","id":"osm-way-323939184-residential","properties":{"id":"osm-way-323939184-residential","name":"دەگاشێخان","kind":"poi","tier":"poi_local","priority":68.045,"context":"کۆمپاوندی نیشتەجێبوون","category":"کۆمپاوندی نیشتەجێبوون"},"geometry":{"type":"Point","coordinates":[46.1278964,35.2234215]}},{"type":"Feature","id":"osm-way-772911024-residential","properties":{"id":"osm-way-772911024-residential","name":"دەڵەمەڕ","kind":"poi","tier":"poi_local","priority":68.045,"context":"کۆمپاوندی نیشتەجێبوون","category":"کۆمپاوندی نیشتەجێبوون"},"geometry":{"type":"Point","coordinates":[46.0347368,35.1602211]}},{"type":"Feature","id":"osm-way-309731039-residential","properties":{"id":"osm-way-309731039-residential","name":"زەردەهاڵ","kind":"poi","tier":"poi_local","priority":68.045,"context":"کۆمپاوندی نیشتەجێبوون","category":"کۆمپاوندی نیشتەجێبوون"},"geometry":{"type":"Point","coordinates":[46.0755963,35.2331532]}},{"type":"Feature","id":"osm-way-772772855-residential","properties":{"id":"osm-way-772772855-residential","name":"سازان","kind":"poi","tier":"poi_local","priority":68.045,"context":"کۆمپاوندی نیشتەجێبوون","category":"کۆمپاوندی نیشتەجێبوون"},"geometry":{"type":"Point","coordinates":[46.0593806,35.0928619]}},{"type":"Feature","id":"osm-way-772965135-residential","properties":{"id":"osm-way-772965135-residential","name":"سۆسەکان","kind":"poi","tier":"poi_local","priority":68.045,"context":"کۆمپاوندی نیشتەجێبوون","category":"کۆمپاوندی نیشتەجێبوون"},"geometry":{"type":"Point","coordinates":[46.1700074,35.1822487]}},{"type":"Feature","id":"osm-way-772907492-residential","properties":{"id":"osm-way-772907492-residential","name":"سەرکەن","kind":"poi","tier":"poi_local","priority":68.045,"context":"کۆمپاوندی نیشتەجێبوون","category":"کۆمپاوندی نیشتەجێبوون"},"geometry":{"type":"Point","coordinates":[46.0561755,35.1991617]}},{"type":"Feature","id":"osm-way-772909025-residential","properties":{"id":"osm-way-772909025-residential","name":"عەبابەیلێ","kind":"poi","tier":"poi_local","priority":68.045,"context":"کۆمپاوندی نیشتەجێبوون","category":"کۆمپاوندی نیشتەجێبوون"},"geometry":{"type":"Point","coordinates":[46.0332883,35.1706966]}},{"type":"Feature","id":"osm-way-772771058-residential","properties":{"id":"osm-way-772771058-residential","name":"قوڵی متکان","kind":"poi","tier":"poi_local","priority":68.045,"context":"کۆمپاوندی نیشتەجێبوون","category":"کۆمپاوندی نیشتەجێبوون"},"geometry":{"type":"Point","coordinates":[46.0651484,35.0488929]}},{"type":"Feature","id":"osm-way-772771985-residential","properties":{"id":"osm-way-772771985-residential","name":"لمە","kind":"poi","tier":"poi_local","priority":68.045,"context":"کۆمپاوندی نیشتەجێبوون","category":"کۆمپاوندی نیشتەجێبوون"},"geometry":{"type":"Point","coordinates":[46.0680902,35.0761827]}},{"type":"Feature","id":"osm-way-772769212-residential","properties":{"id":"osm-way-772769212-residential","name":"مۆردین","kind":"poi","tier":"poi_local","priority":68.045,"context":"کۆمپاوندی نیشتەجێبوون","category":"کۆمپاوندی نیشتەجێبوون"},"geometry":{"type":"Point","coordinates":[46.0079328,35.0836736]}},{"type":"Feature","id":"osm-way-772973798-residential","properties":{"id":"osm-way-772973798-residential","name":"نارنجڵە","kind":"poi","tier":"poi_local","priority":68.045,"context":"کۆمپاوندی نیشتەجێبوون","category":"کۆمپاوندی نیشتەجێبوون"},"geometry":{"type":"Point","coordinates":[46.0998164,35.2453835]}},{"type":"Feature","id":"osm-way-513683957-residential","properties":{"id":"osm-way-513683957-residential","name":"نەیجەڵە","kind":"poi","tier":"poi_local","priority":68.045,"context":"کۆمپاوندی نیشتەجێبوون","category":"کۆمپاوندی نیشتەجێبوون"},"geometry":{"type":"Point","coordinates":[46.0524634,35.0599958]}},{"type":"Feature","id":"osm-way-772967258-residential","properties":{"id":"osm-way-772967258-residential","name":"هانەنەوتێ","kind":"poi","tier":"poi_local","priority":68.045,"context":"کۆمپاوندی نیشتەجێبوون","category":"کۆمپاوندی نیشتەجێبوون"},"geometry":{"type":"Point","coordinates":[46.09685,35.2194833]}},{"type":"Feature","id":"osm-way-324467164-residential","properties":{"id":"osm-way-324467164-residential","name":"هاوار","kind":"poi","tier":"poi_local","priority":68.045,"context":"کۆمپاوندی نیشتەجێبوون","category":"کۆمپاوندی نیشتەجێبوون"},"geometry":{"type":"Point","coordinates":[46.1174918,35.1606957]}},{"type":"Feature","id":"osm-way-772774649-residential","properties":{"id":"osm-way-772774649-residential","name":"هەوارە کۆن","kind":"poi","tier":"poi_local","priority":68.045,"context":"کۆمپاوندی نیشتەجێبوون","category":"کۆمپاوندی نیشتەجێبوون"},"geometry":{"type":"Point","coordinates":[46.131106,35.1351686]}},{"type":"Feature","id":"osm-way-772963955-residential","properties":{"id":"osm-way-772963955-residential","name":"پاڵانیان","kind":"poi","tier":"poi_local","priority":68.045,"context":"کۆمپاوندی نیشتەجێبوون","category":"کۆمپاوندی نیشتەجێبوون"},"geometry":{"type":"Point","coordinates":[46.1244227,35.1810426]}},{"type":"Feature","id":"osm-way-772771274-residential","properties":{"id":"osm-way-772771274-residential","name":"پێگە","kind":"poi","tier":"poi_local","priority":68.045,"context":"کۆمپاوندی نیشتەجێبوون","category":"کۆمپاوندی نیشتەجێبوون"},"geometry":{"type":"Point","coordinates":[46.0662785,35.0640601]}},{"type":"Feature","id":"osm-way-513664855-residential","properties":{"id":"osm-way-513664855-residential","name":"چنارەی کۆکۆیی","kind":"poi","tier":"poi_local","priority":68.045,"context":"کۆمپاوندی نیشتەجێبوون","category":"کۆمپاوندی نیشتەجێبوون"},"geometry":{"type":"Point","coordinates":[46.0319128,35.0791375]}},{"type":"Feature","id":"osm-way-772773500-residential","properties":{"id":"osm-way-772773500-residential","name":"ڕیشاو","kind":"poi","tier":"poi_local","priority":68.045,"context":"کۆمپاوندی نیشتەجێبوون","category":"کۆمپاوندی نیشتەجێبوون"},"geometry":{"type":"Point","coordinates":[46.0778181,35.1116088]}},{"type":"Feature","id":"osm-way-1301299787-residential","properties":{"id":"osm-way-1301299787-residential","name":"کانی گوێز","kind":"poi","tier":"poi_local","priority":68.045,"context":"کۆمپاوندی نیشتەجێبوون","category":"کۆمپاوندی نیشتەجێبوون"},"geometry":{"type":"Point","coordinates":[46.0531541,35.1285111]}},{"type":"Feature","id":"osm-way-772970800-residential","properties":{"id":"osm-way-772970800-residential","name":"کولیژی","kind":"poi","tier":"poi_local","priority":68.045,"context":"کۆمپاوندی نیشتەجێبوون","category":"کۆمپاوندی نیشتەجێبوون"},"geometry":{"type":"Point","coordinates":[46.0631203,35.2165643]}},{"type":"Feature","id":"osm-way-772772237-residential","properties":{"id":"osm-way-772772237-residential","name":"کۆساوە","kind":"poi","tier":"poi_local","priority":68.045,"context":"کۆمپاوندی نیشتەجێبوون","category":"کۆمپاوندی نیشتەجێبوون"},"geometry":{"type":"Point","coordinates":[46.0774065,35.0934366]}},{"type":"Feature","id":"osm-way-772774392-residential","properties":{"id":"osm-way-772774392-residential","name":"گریانە","kind":"poi","tier":"poi_local","priority":68.045,"context":"کۆمپاوندی نیشتەجێبوون","category":"کۆمپاوندی نیشتەجێبوون"},"geometry":{"type":"Point","coordinates":[46.1506472,35.1169201]}},{"type":"Feature","id":"osm-node-8824642420-hotel","properties":{"id":"osm-node-8824642420-hotel","name":"hawraman","kind":"poi","tier":"poi_detail","priority":50.1,"context":"هۆتێل","category":"هۆتێل"},"geometry":{"type":"Point","coordinates":[46.0768042,35.2322296]}},{"type":"Feature","id":"osm-node-5964768497-school","properties":{"id":"osm-node-5964768497-school","name":"خوێندنگەی تەوێڵە","kind":"poi","tier":"poi_detail","priority":50.1,"context":"قوتابخانە","category":"قوتابخانە"},"geometry":{"type":"Point","coordinates":[46.1855383,35.2006463]}},{"type":"Feature","id":"osm-node-5569038933-clinic","properties":{"id":"osm-node-5569038933-clinic","name":"د.سعدی خلیل","kind":"poi","tier":"poi_detail","priority":50.1,"context":"کلینیک","category":"کلینیک"},"geometry":{"type":"Point","coordinates":[46.0021359,35.1703185]}},{"type":"Feature","id":"osm-node-4621678591-restaurant","properties":{"id":"osm-node-4621678591-restaurant","name":"رێستورانتی کوردستان","kind":"poi","tier":"poi_detail","priority":50.1,"context":"چێشتخانە","category":"چێشتخانە"},"geometry":{"type":"Point","coordinates":[46.0129493,35.2069282]}},{"type":"Feature","id":"osm-node-9714659217-hotel","properties":{"id":"osm-node-9714659217-hotel","name":"فندق الجواهر","kind":"poi","tier":"poi_detail","priority":50.1,"context":"هۆتێل","category":"هۆتێل"},"geometry":{"type":"Point","coordinates":[46.185667,35.1998307]}},{"type":"Feature","id":"osm-node-7172639301-school","properties":{"id":"osm-node-7172639301-school","name":"قوتابخانه","kind":"poi","tier":"poi_detail","priority":50.1,"context":"قوتابخانە","category":"قوتابخانە"},"geometry":{"type":"Point","coordinates":[46.0098948,35.2143428]}},{"type":"Feature","id":"osm-node-12143962008-school","properties":{"id":"osm-node-12143962008-school","name":"قوتابخانەی بنەڕەتی بەڵخە","kind":"poi","tier":"poi_detail","priority":50.1,"context":"قوتابخانە","category":"قوتابخانە"},"geometry":{"type":"Point","coordinates":[46.1513656,35.1996338]}},{"type":"Feature","id":"osm-node-9135088617-school","properties":{"id":"osm-node-9135088617-school","name":"قوتابخانەی تەوێڵەی بنەڕەتی","kind":"poi","tier":"poi_detail","priority":50.1,"context":"قوتابخانە","category":"قوتابخانە"},"geometry":{"type":"Point","coordinates":[46.1851208,35.1981911]}},{"type":"Feature","id":"osm-node-9135005617-school","properties":{"id":"osm-node-9135005617-school","name":"قوتابخانەی دواناوەندی بیارەیی شەریف","kind":"poi","tier":"poi_detail","priority":50.1,"context":"قوتابخانە","category":"قوتابخانە"},"geometry":{"type":"Point","coordinates":[46.1142788,35.2278838]}},{"type":"Feature","id":"osm-node-4657376589-supermarket","properties":{"id":"osm-node-4657376589-supermarket","name":"مارکێتی بەختیاری","kind":"poi","tier":"poi_detail","priority":50.1,"context":"سۆپەرمارکێت","category":"سۆپەرمارکێت"},"geometry":{"type":"Point","coordinates":[46.0032152,35.1767909]}},{"type":"Feature","id":"osm-node-9135077017-restaurant","properties":{"id":"osm-node-9135077017-restaurant","name":"چێشتخانەی وەستا ئیدریس","kind":"poi","tier":"poi_detail","priority":50.1,"context":"چێشتخانە","category":"چێشتخانە"},"geometry":{"type":"Point","coordinates":[46.1352825,35.2051312]}},{"type":"Feature","id":"osm-node-9135078417-restaurant","properties":{"id":"osm-node-9135078417-restaurant","name":"کەبابخانەی بەلخە","kind":"poi","tier":"poi_detail","priority":50.1,"context":"چێشتخانە","category":"چێشتخانە"},"geometry":{"type":"Point","coordinates":[46.1503979,35.2034954]}},{"type":"Feature","id":"osm-node-6582283086-restaurant","properties":{"id":"osm-node-6582283086-restaurant","name":"کەبابخانەی هەوارا","kind":"poi","tier":"poi_detail","priority":50.1,"context":"چێشتخانە","category":"چێشتخانە"},"geometry":{"type":"Point","coordinates":[46.1275192,35.222799]}},{"type":"Feature","id":"osm-way-1063518456-school","properties":{"id":"osm-way-1063518456-school","name":"(قوتابخانەی (ئاڵا-بانە","kind":"poi","tier":"poi_detail","priority":50.092,"context":"قوتابخانە","category":"قوتابخانە"},"geometry":{"type":"Point","coordinates":[46.0047372,35.1739663]}},{"type":"Feature","id":"osm-way-1281411879-school","properties":{"id":"osm-way-1281411879-school","name":"قوتابخانەی تەوێڵە","kind":"poi","tier":"poi_detail","priority":50.092,"context":"قوتابخانە","category":"قوتابخانە"},"geometry":{"type":"Point","coordinates":[46.1856222,35.2006454]}},{"type":"Feature","id":"osm-way-908149674-supermarket","properties":{"id":"osm-way-908149674-supermarket","name":"مارکێتی تاقانە","kind":"poi","tier":"poi_detail","priority":50.092,"context":"سۆپەرمارکێت","category":"سۆپەرمارکێت"},"geometry":{"type":"Point","coordinates":[46.0019003,35.1767404]}},{"type":"Feature","id":"osm-way-14291386-building","properties":{"id":"osm-way-14291386-building","name":"ئامادەیی پێشەنگ - کوڕان","kind":"poi","tier":"poi_detail","priority":50.055,"context":"قوتابخانە","category":"قوتابخانە"},"geometry":{"type":"Point","coordinates":[46.0011364,35.1726075]}},{"type":"Feature","id":"osm-node-11656213813-convenience","properties":{"id":"osm-node-11656213813-convenience","name":"Marketi Arwand","kind":"poi","tier":"poi_detail","priority":50.1,"context":"دوکانی نزیک","category":"دوکانی نزیک"},"geometry":{"type":"Point","coordinates":[46.0063602,35.1761556]}},{"type":"Feature","id":"osm-node-10834470346-viewpoint","properties":{"id":"osm-node-10834470346-viewpoint","name":"ئاو سیروان","kind":"poi","tier":"poi_detail","priority":50.1,"context":"شوێنی سەیران","category":"شوێنی سەیران"},"geometry":{"type":"Point","coordinates":[46.0406901,35.2037982]}},{"type":"Feature","id":"osm-node-5506672721-viewpoint","properties":{"id":"osm-node-5506672721-viewpoint","name":"سەر ملە","kind":"poi","tier":"poi_detail","priority":50.1,"context":"شوێنی سەیران","category":"شوێنی سەیران"},"geometry":{"type":"Point","coordinates":[46.0243343,35.1241096]}},{"type":"Feature","id":"osm-node-5499731123-castle","properties":{"id":"osm-node-5499731123-castle","name":"شوێنەواری باوەخەمان","kind":"poi","tier":"poi_detail","priority":50.1,"context":"قەڵا","category":"قەڵا"},"geometry":{"type":"Point","coordinates":[46.0624259,35.0998633]}},{"type":"Feature","id":"osm-node-7944529314-kiosk","properties":{"id":"osm-node-7944529314-kiosk","name":"وەزەنێ","kind":"poi","tier":"poi_detail","priority":50.1,"context":"کۆشک","category":"کۆشک"},"geometry":{"type":"Point","coordinates":[46.1286977,35.2129984]}},{"type":"Feature","id":"osm-node-12529943106-artwork","properties":{"id":"osm-node-12529943106-artwork","name":"پەیکەری گوێز","kind":"poi","tier":"poi_detail","priority":50.1,"context":"هونەری گشتی","category":"هونەری گشتی"},"geometry":{"type":"Point","coordinates":[46.1853741,35.1996895]}},{"type":"Feature","id":"osm-node-7172647588-courthouse","properties":{"id":"osm-node-7172647588-courthouse","name":"کاتب عدل )داواکاری گشتی(","kind":"poi","tier":"poi_detail","priority":50.1,"context":"دادگا","category":"دادگا"},"geometry":{"type":"Point","coordinates":[46.0044665,35.1917335]}},{"type":"Feature","id":"osm-node-9214987717-beauty_shop","properties":{"id":"osm-node-9214987717-beauty_shop","name":"کەمالیاتی گۆران سیتی","kind":"poi","tier":"poi_detail","priority":50.1,"context":"جوانکاری","category":"جوانکاری"},"geometry":{"type":"Point","coordinates":[46.0128221,35.186156]}},{"type":"Feature","id":"osm-node-6341936287-viewpoint","properties":{"id":"osm-node-6341936287-viewpoint","name":"گردەناوێ","kind":"poi","tier":"poi_detail","priority":50.1,"context":"شوێنی سەیران","category":"شوێنی سەیران"},"geometry":{"type":"Point","coordinates":[46.0033193,35.0773537]}},{"type":"Feature","id":"osm-node-4449406699-doctors","properties":{"id":"osm-node-4449406699-doctors","name":"گۆران ستی","kind":"poi","tier":"poi_detail","priority":50.1,"context":"ناوەندی پزیشکی","category":"ناوەندی پزیشکی"},"geometry":{"type":"Point","coordinates":[46.0154924,35.1756533]}},{"type":"Feature","id":"osm-node-4458726093-alpine_hut","properties":{"id":"osm-node-4458726093-alpine_hut","name":"گەڕەکی سەروەران شەهیدانی پارتی","kind":"poi","tier":"poi_detail","priority":50.1,"context":"کەپر","category":"کەپر"},"geometry":{"type":"Point","coordinates":[46.0194105,35.1854672]}},{"type":"Feature","id":"osm-node-6771476212-muslim_sunni","properties":{"id":"osm-node-6771476212-muslim_sunni","name":"مزگەوت ومەدرەسەوخانەقای بیارەی شەریفە","kind":"poi","tier":"poi_detail","priority":50.098,"context":"مزگەوت","category":"مزگەوت"},"geometry":{"type":"Point","coordinates":[46.1211236,35.2302252]}},{"type":"Feature","id":"osm-node-6771520843-muslim","properties":{"id":"osm-node-6771520843-muslim","name":"مزگەوت ومەدرەسەوخانەقای تەوێڵە","kind":"poi","tier":"poi_detail","priority":50.098,"context":"مزگەوت","category":"مزگەوت"},"geometry":{"type":"Point","coordinates":[46.1849119,35.1967188]}},{"type":"Feature","id":"osm-node-6606634886-muslim","properties":{"id":"osm-node-6606634886-muslim","name":"مزگەوتی بیارە","kind":"poi","tier":"poi_detail","priority":50.098,"context":"مزگەوت","category":"مزگەوت"},"geometry":{"type":"Point","coordinates":[46.1176296,35.2223993]}},{"type":"Feature","id":"osm-node-9134853417-muslim","properties":{"id":"osm-node-9134853417-muslim","name":"مزگەوتی علی تۆفیق هەورامی","kind":"poi","tier":"poi_detail","priority":50.098,"context":"مزگەوت","category":"مزگەوت"},"geometry":{"type":"Point","coordinates":[46.0786141,35.2330778]}},{"type":"Feature","id":"osm-node-5964768985-muslim","properties":{"id":"osm-node-5964768985-muslim","name":"مزگەوتی گەورەی تەوێلە","kind":"poi","tier":"poi_detail","priority":50.098,"context":"مزگەوت","category":"مزگەوت"},"geometry":{"type":"Point","coordinates":[46.1858969,35.2003561]}},{"type":"Feature","id":"osm-way-540676732-fitness_centre","properties":{"id":"osm-way-540676732-fitness_centre","name":"رۆکی جیم","kind":"poi","tier":"poi_detail","priority":50.092,"context":"جیم","category":"جیم"},"geometry":{"type":"Point","coordinates":[46.0010675,35.1700475]}},{"type":"Feature","id":"osm-way-782632879-town_hall","properties":{"id":"osm-way-782632879-town_hall","name":"هۆڵی هاوار","kind":"poi","tier":"poi_detail","priority":50.092,"context":"شارەوانی","category":"شارەوانی"},"geometry":{"type":"Point","coordinates":[46.1239785,35.1589714]}},{"type":"Feature","id":"osm-way-1320447028-theme_park","properties":{"id":"osm-way-1320447028-theme_park","name":"پارک و شاری یاری هەلەبجە","kind":"poi","tier":"poi_detail","priority":50.092,"context":"پارکی یاری","category":"پارکی یاری"},"geometry":{"type":"Point","coordinates":[46.0023165,35.1687953]}},{"type":"Feature","id":"osm-way-321660384-park","properties":{"id":"osm-way-321660384-park","name":"پارک و شاری یاریی هەڵەبجە","kind":"poi","tier":"poi_detail","priority":50.092,"context":"پارک","category":"پارک"},"geometry":{"type":"Point","coordinates":[46.0023165,35.1687953]}},{"type":"Feature","id":"osm-way-908155780-fast_food","properties":{"id":"osm-way-908155780-fast_food","name":"پیتزای چلچرا","kind":"poi","tier":"poi_detail","priority":50.092,"context":"خواردنی خێرا","category":"خواردنی خێرا"},"geometry":{"type":"Point","coordinates":[46.0005361,35.1771179]}},{"type":"Feature","id":"osm-way-908154318-cafe","properties":{"id":"osm-way-908154318-cafe","name":"کافتریای مامە رەشە","kind":"poi","tier":"poi_detail","priority":50.092,"context":"کافێ","category":"کافێ"},"geometry":{"type":"Point","coordinates":[46.0280315,35.1732183]}},{"type":"Feature","id":"osm-way-680694384-graveyard","properties":{"id":"osm-way-680694384-graveyard","name":"گۆڕستان هاوار","kind":"poi","tier":"poi_detail","priority":50.092,"context":"قەبرستان","category":"قەبرستان"},"geometry":{"type":"Point","coordinates":[46.1235466,35.1582304]}},{"type":"Feature","id":"osm-way-908516275-pitch","properties":{"id":"osm-way-908516275-pitch","name":"یاریگای شنروێ","kind":"poi","tier":"poi_detail","priority":50.092,"context":"ناوەندی وەرزش","category":"ناوەندی وەرزش"},"geometry":{"type":"Point","coordinates":[46.002756,35.1734882]}},{"type":"Feature","id":"osm-way-540708926-muslim","properties":{"id":"osm-way-540708926-muslim","name":"مزگەوتی بەختیاری","kind":"poi","tier":"poi_detail","priority":50.09,"context":"مزگەوت","category":"مزگەوت"},"geometry":{"type":"Point","coordinates":[46.0042165,35.1761128]}},{"type":"Feature","id":"osm-way-540737621-muslim","properties":{"id":"osm-way-540737621-muslim","name":"مزگەوتی رەیان","kind":"poi","tier":"poi_detail","priority":50.09,"context":"مزگەوت","category":"مزگەوت"},"geometry":{"type":"Point","coordinates":[46.0008114,35.1885075]}},{"type":"Feature","id":"osm-way-326704262-muslim","properties":{"id":"osm-way-326704262-muslim","name":"مزگەوتی مامۆستا مەلا عەبدلکەریمی مودەرس","kind":"poi","tier":"poi_detail","priority":50.09,"context":"مزگەوت","category":"مزگەوت"},"geometry":{"type":"Point","coordinates":[46.0022572,35.1923523]}},{"type":"Feature","id":"osm-way-774730470-orchard","properties":{"id":"osm-way-774730470-orchard","name":"باخەکانی ئاوێسەر","kind":"poi","tier":"poi_detail","priority":50.045,"context":"باخ","category":"باخ"},"geometry":{"type":"Point","coordinates":[46.1798316,35.2101533]}},{"type":"Feature","id":"osm-way-774733215-orchard","properties":{"id":"osm-way-774733215-orchard","name":"باخەکانی تەوێڵە","kind":"poi","tier":"poi_detail","priority":50.045,"context":"باخ","category":"باخ"},"geometry":{"type":"Point","coordinates":[46.1764013,35.1830147]}},{"type":"Feature","id":"osm-way-790991421-orchard","properties":{"id":"osm-way-790991421-orchard","name":"باخەکانی هەوارە کۆن","kind":"poi","tier":"poi_detail","priority":50.045,"context":"باخ","category":"باخ"},"geometry":{"type":"Point","coordinates":[46.1346791,35.1382414]}},{"type":"Feature","id":"osm-way-791240010-orchard","properties":{"id":"osm-way-791240010-orchard","name":"وەزەنێ","kind":"poi","tier":"poi_detail","priority":50.045,"context":"باخ","category":"باخ"},"geometry":{"type":"Point","coordinates":[46.1351767,35.2096089]}}]}