{"type":"FeatureCollection","features":[{"type":"Feature","id":"osm-node-2488244415","properties":{"id":"osm-node-2488244415","name":"کن روڤی","kind":"village","tier":"locality","priority":300,"context":"شنگال · شنگال · نەینەوا","category":"گوند"},"geometry":{"type":"Point","coordinates":[41.831831,36.23698]}},{"type":"Feature","id":"osm-node-2488244375","properties":{"id":"osm-node-2488244375","name":"کوجو","kind":"village","tier":"locality","priority":300,"context":"شنگال · نەینەوا","category":"گوند"},"geometry":{"type":"Point","coordinates":[41.909093,36.179423]}},{"type":"Feature","id":"osm-natural-water_well-fd9a530b039056","properties":{"id":"osm-natural-water_well-fd9a530b039056","name":"Rafiyah","kind":"natural","tier":"natural","priority":180,"context":"بیری ئاو · شنگال · نەینەوا","category":"بیری ئاو"},"geometry":{"type":"Point","coordinates":[41.90028,36.12917]}},{"type":"Feature","id":"osm-natural-valley-ae669f43d3294f","properties":{"id":"osm-natural-valley-ae669f43d3294f","name":"Wadi Ranbusi","kind":"natural","tier":"natural","priority":180,"context":"دۆڵ · قەحەتانیە · نەینەوا","category":"دۆڵ"},"geometry":{"type":"Point","coordinates":[41.76833,36.17417]}},{"type":"Feature","id":"osm-natural-hill-18c2fd7ad6ec12","properties":{"id":"osm-natural-hill-18c2fd7ad6ec12","name":"تل ابو حويش","kind":"natural","tier":"natural","priority":180,"context":"گرد · شنگال · نەینەوا","category":"گرد"},"geometry":{"type":"Point","coordinates":[41.9686,36.07755]}},{"type":"Feature","id":"osm-natural-hill-815c142ea1afc0","properties":{"id":"osm-natural-hill-815c142ea1afc0","name":"تل قصب","kind":"natural","tier":"natural","priority":180,"context":"گرد · شنگال · نەینەوا","category":"گرد"},"geometry":{"type":"Point","coordinates":[41.94652,36.24494]}},{"type":"Feature","id":"osm-natural-hill-71afcb526227e0","properties":{"id":"osm-natural-hill-71afcb526227e0","name":"تل متو","kind":"natural","tier":"natural","priority":180,"context":"گرد · شنگال · نەینەوا","category":"گرد"},"geometry":{"type":"Point","coordinates":[41.97836,36.1791]}},{"type":"Feature","id":"osm-natural-hill-55f387f617b5de","properties":{"id":"osm-natural-hill-55f387f617b5de","name":"هايس","kind":"natural","tier":"natural","priority":180,"context":"گرد · شنگال · نەینەوا","category":"گرد"},"geometry":{"type":"Point","coordinates":[41.98636,36.08378]}},{"type":"Feature","id":"osm-natural-valley-ca71848e9bbc5a","properties":{"id":"osm-natural-valley-ca71848e9bbc5a","name":"وادي ابو خويمة","kind":"natural","tier":"natural","priority":180,"context":"دۆڵ · قەحەتانیە · نەینەوا","category":"دۆڵ"},"geometry":{"type":"Point","coordinates":[41.75816,36.07202]}},{"type":"Feature","id":"osm-natural-valley-99495aaf4fe71b","properties":{"id":"osm-natural-valley-99495aaf4fe71b","name":"وادي النيس","kind":"natural","tier":"natural","priority":180,"context":"دۆڵ · شنگال · نەینەوا","category":"دۆڵ"},"geometry":{"type":"Point","coordinates":[41.90528,36.15048]}},{"type":"Feature","id":"osm-natural-valley-af503d20d39300","properties":{"id":"osm-natural-valley-af503d20d39300","name":"وادي الوصيرية","kind":"natural","tier":"natural","priority":180,"context":"دۆڵ · شنگال · نەینەوا","category":"دۆڵ"},"geometry":{"type":"Point","coordinates":[41.89327,36.16392]}},{"type":"Feature","id":"osm-natural-valley-6ae69edfad1d92","properties":{"id":"osm-natural-valley-6ae69edfad1d92","name":"وادي شليمية","kind":"natural","tier":"natural","priority":180,"context":"دۆڵ · شنگال · نەینەوا","category":"دۆڵ"},"geometry":{"type":"Point","coordinates":[41.96122,36.11178]}},{"type":"Feature","id":"osm-natural-valley-facf431fc1e5b2","properties":{"id":"osm-natural-valley-facf431fc1e5b2","name":"وادي هيزروك","kind":"natural","tier":"natural","priority":180,"context":"دۆڵ · شنگال · نەینەوا","category":"دۆڵ"},"geometry":{"type":"Point","coordinates":[41.78577,36.23836]}},{"type":"Feature","id":"osm-node-4779499621-hospital","properties":{"id":"osm-node-4779499621-hospital","name":"المرکز الصحی فی کوجو","kind":"poi","tier":"poi_landmark","priority":95.1,"context":"نەخۆشخانە","category":"نەخۆشخانە"},"geometry":{"type":"Point","coordinates":[41.9074818,36.1780734]}},{"type":"Feature","id":"osm-node-4779495223-hospital","properties":{"id":"osm-node-4779495223-hospital","name":"مرکز صحی","kind":"poi","tier":"poi_landmark","priority":95.1,"context":"نەخۆشخانە","category":"نەخۆشخانە"},"geometry":{"type":"Point","coordinates":[41.8324004,36.2373547]}},{"type":"Feature","id":"osm-node-4792240122-hospital","properties":{"id":"osm-node-4792240122-hospital","name":"مرکز صحی رمبوسی","kind":"poi","tier":"poi_landmark","priority":95.1,"context":"نەخۆشخانە","category":"نەخۆشخانە"},"geometry":{"type":"Point","coordinates":[41.7999025,36.2349873]}},{"type":"Feature","id":"osm-way-1419447368-archaeological","properties":{"id":"osm-way-1419447368-archaeological","name":"Tell Khoshi","kind":"poi","tier":"poi_detail","priority":50.092,"context":"شوێنی شوێنەوار","category":"شوێنی شوێنەوار"},"geometry":{"type":"Point","coordinates":[41.8329138,36.1949297]}}]}