{"type":"FeatureCollection","features":[{"type":"Feature","id":"osm-node-2488244341","properties":{"id":"osm-node-2488244341","name":"ئەشکەفتان","kind":"village","tier":"locality","priority":300,"context":"شنگال · شنگال · نەینەوا","category":"گوند"},"geometry":{"type":"Point","coordinates":[41.9536323,36.3418578]}},{"type":"Feature","id":"osm-node-2488217947","properties":{"id":"osm-node-2488217947","name":"دۆمیز","kind":"village","tier":"locality","priority":300,"context":"شنگال · شنگال · نەینەوا","category":"گوند"},"geometry":{"type":"Point","coordinates":[41.825861,36.272125]}},{"type":"Feature","id":"osm-way-297498895","properties":{"id":"osm-way-297498895","name":"شەهاب","kind":"village","tier":"locality","priority":300,"context":"شنگال · شنگال · نەینەوا","category":"گوند"},"geometry":{"type":"Point","coordinates":[41.893296489107925,36.305088999999995]}},{"type":"Feature","id":"geonames-92208","properties":{"id":"geonames-92208","name":"قزل کەند","kind":"village","tier":"locality","priority":300,"context":"شنگال · شنگال · نەینەوا","category":"گوند"},"geometry":{"type":"Point","coordinates":[41.79178,36.31666]}},{"type":"Feature","id":"geonames-91055","properties":{"id":"geonames-91055","name":"پاشۆک","kind":"village","tier":"locality","priority":300,"context":"شنگال · شنگال · نەینەوا","category":"گوند"},"geometry":{"type":"Point","coordinates":[41.9009,36.28228]}},{"type":"Feature","id":"osm-node-13717416904","properties":{"id":"osm-node-13717416904","name":"که گمت","kind":"village","tier":"locality","priority":300,"context":"شنگال · شنگال · نەینەوا","category":"گوند"},"geometry":{"type":"Point","coordinates":[41.873485,36.3111971]}},{"type":"Feature","id":"osm-node-2488217879","properties":{"id":"osm-node-2488217879","name":"گابارە","kind":"village","tier":"locality","priority":300,"context":"گرعزێر · بەعاج · نەینەوا","category":"گوند"},"geometry":{"type":"Point","coordinates":[41.75228,36.3165608]}},{"type":"Feature","id":"osm-node-13789516974","properties":{"id":"osm-node-13789516974","name":"گاو گومەت","kind":"village","tier":"locality","priority":300,"context":"شنگال · شنگال · نەینەوا","category":"گوند"},"geometry":{"type":"Point","coordinates":[41.873721,36.3118252]}},{"type":"Feature","id":"osm-natural-canyon-ae8ee4bc974a3f","properties":{"id":"osm-natural-canyon-ae8ee4bc974a3f","name":"بكران","kind":"natural","tier":"natural","priority":180,"context":"تەنیشتگا · شنگال · نەینەوا","category":"تەنیشتگا"},"geometry":{"type":"Point","coordinates":[41.91803,36.40452]}},{"type":"Feature","id":"osm-natural-hill-ac91d9c1aed363","properties":{"id":"osm-natural-hill-ac91d9c1aed363","name":"تل كركوهش","kind":"natural","tier":"natural","priority":180,"context":"گرد · شنگال · نەینەوا","category":"گرد"},"geometry":{"type":"Point","coordinates":[41.95519,36.48093]}},{"type":"Feature","id":"osm-natural-hill-da587c3ac17a53","properties":{"id":"osm-natural-hill-da587c3ac17a53","name":"تل كري اجلاس","kind":"natural","tier":"natural","priority":180,"context":"گرد · شنگال · نەینەوا","category":"گرد"},"geometry":{"type":"Point","coordinates":[41.98336,36.43434]}},{"type":"Feature","id":"osm-natural-hill-59211665a3feea","properties":{"id":"osm-natural-hill-59211665a3feea","name":"كري كوندال","kind":"natural","tier":"natural","priority":180,"context":"گرد · شنگال · نەینەوا","category":"گرد"},"geometry":{"type":"Point","coordinates":[41.96738,36.45079]}},{"type":"Feature","id":"osm-natural-valley-288bf2a64e9a0c","properties":{"id":"osm-natural-valley-288bf2a64e9a0c","name":"وادي تم الخنازير","kind":"natural","tier":"natural","priority":180,"context":"دۆڵ · شنگال · نەینەوا","category":"دۆڵ"},"geometry":{"type":"Point","coordinates":[41.82426,36.25217]}},{"type":"Feature","id":"osm-natural-valley-850c621b7a4329","properties":{"id":"osm-natural-valley-850c621b7a4329","name":"وادي زنة سوتاو","kind":"natural","tier":"natural","priority":180,"context":"دۆڵ · شنگال · نەینەوا","category":"دۆڵ"},"geometry":{"type":"Point","coordinates":[41.82321,36.26238]}},{"type":"Feature","id":"osm-natural-stream-ead5378e2df861","properties":{"id":"osm-natural-stream-ead5378e2df861","name":"وادي زنه سوتاو","kind":"natural","tier":"natural","priority":180,"context":"جۆگە · شنگال · نەینەوا","category":"جۆگە"},"geometry":{"type":"Point","coordinates":[41.8252072,36.2512491]}},{"type":"Feature","id":"osm-natural-valley-94831a95506422","properties":{"id":"osm-natural-valley-94831a95506422","name":"وادي سولاغ","kind":"natural","tier":"natural","priority":180,"context":"دۆڵ · شنگال · نەینەوا","category":"دۆڵ"},"geometry":{"type":"Point","coordinates":[41.93818,36.30069]}},{"type":"Feature","id":"osm-natural-valley-db4e54d63bb824","properties":{"id":"osm-natural-valley-db4e54d63bb824","name":"وادي فبليش","kind":"natural","tier":"natural","priority":180,"context":"دۆڵ · شنگال · نەینەوا","category":"دۆڵ"},"geometry":{"type":"Point","coordinates":[41.82674,36.28059]}},{"type":"Feature","id":"osm-natural-valley-560c5a493229b8","properties":{"id":"osm-natural-valley-560c5a493229b8","name":"وادي قزيلك","kind":"natural","tier":"natural","priority":180,"context":"دۆڵ · شنگال · نەینەوا","category":"دۆڵ"},"geometry":{"type":"Point","coordinates":[41.79377,36.26746]}},{"type":"Feature","id":"road-label-osm-way-1365587221","properties":{"id":"road-label-osm-way-1365587221","name":"Genocide of Yezidis in Sinjar","kind":"road","tier":"road","priority":55,"context":"tertiary · شنگال · نەینەوا","category":"ڕێگا"},"geometry":{"type":"Point","coordinates":[41.904738,36.312162]}},{"type":"Feature","id":"osm-node-4779498822-hospital","properties":{"id":"osm-node-4779498822-hospital","name":"المرکز الصحی فی تل قصب","kind":"poi","tier":"poi_landmark","priority":95.1,"context":"نەخۆشخانە","category":"نەخۆشخانە"},"geometry":{"type":"Point","coordinates":[41.9525192,36.2641002]}},{"type":"Feature","id":"osm-node-4768396123-hospital","properties":{"id":"osm-node-4768396123-hospital","name":"مرکز صحی سنجار","kind":"poi","tier":"poi_landmark","priority":95.1,"context":"نەخۆشخانە","category":"نەخۆشخانە"},"geometry":{"type":"Point","coordinates":[41.8673316,36.3224179]}},{"type":"Feature","id":"osm-node-4580689989-hospital","properties":{"id":"osm-node-4580689989-hospital","name":"نه خوش خانه بورک","kind":"poi","tier":"poi_landmark","priority":95.1,"context":"نەخۆشخانە","category":"نەخۆشخانە"},"geometry":{"type":"Point","coordinates":[41.8691949,36.4960966]}},{"type":"Feature","id":"osm-node-4319958390-hospital","properties":{"id":"osm-node-4319958390-hospital","name":"نەخوشخانه بورک","kind":"poi","tier":"poi_landmark","priority":95.1,"context":"نەخۆشخانە","category":"نەخۆشخانە"},"geometry":{"type":"Point","coordinates":[41.8661889,36.499549]}},{"type":"Feature","id":"osm-node-4547930691-hospital","properties":{"id":"osm-node-4547930691-hospital","name":"نەخۆشخانەی گشتی شنگال","kind":"poi","tier":"poi_landmark","priority":95.1,"context":"نەخۆشخانە","category":"نەخۆشخانە"},"geometry":{"type":"Point","coordinates":[41.8543585,36.32242]}},{"type":"Feature","id":"osm-way-382694053-military","properties":{"id":"osm-way-382694053-military","name":"Sinjar Military Base","kind":"poi","tier":"poi_regional","priority":80.045,"context":"بنکەی سەربازی","category":"بنکەی سەربازی"},"geometry":{"type":"Point","coordinates":[41.8088518,36.2641558]}},{"type":"Feature","id":"osm-node-4550848896-attraction","properties":{"id":"osm-node-4550848896-attraction","name":"Betuniy 24st.","kind":"poi","tier":"poi_detail","priority":50.1,"context":"شوێنی گەشتیاری","category":"شوێنی گەشتیاری"},"geometry":{"type":"Point","coordinates":[41.8780219,36.4997385]}},{"type":"Feature","id":"osm-node-4803190921-attraction","properties":{"id":"osm-node-4803190921-attraction","name":"بساتین سنجار","kind":"poi","tier":"poi_detail","priority":50.1,"context":"شوێنی گەشتیاری","category":"شوێنی گەشتیاری"},"geometry":{"type":"Point","coordinates":[41.8569576,36.3247973]}},{"type":"Feature","id":"osm-node-4810415324-attraction","properties":{"id":"osm-node-4810415324-attraction","name":"حی القادسیە","kind":"poi","tier":"poi_detail","priority":50.1,"context":"شوێنی گەشتیاری","category":"شوێنی گەشتیاری"},"geometry":{"type":"Point","coordinates":[41.8724206,36.3251542]}},{"type":"Feature","id":"osm-node-4803188124-attraction","properties":{"id":"osm-node-4803188124-attraction","name":"دورە الیرموک","kind":"poi","tier":"poi_detail","priority":50.1,"context":"شوێنی گەشتیاری","category":"شوێنی گەشتیاری"},"geometry":{"type":"Point","coordinates":[41.874141,36.3193978]}},{"type":"Feature","id":"osm-node-11045873471-attraction","properties":{"id":"osm-node-11045873471-attraction","name":"صولاغ","kind":"poi","tier":"poi_detail","priority":50.1,"context":"شوێنی گەشتیاری","category":"شوێنی گەشتیاری"},"geometry":{"type":"Point","coordinates":[41.8984133,36.335773]}},{"type":"Feature","id":"osm-node-11045923132-attraction","properties":{"id":"osm-node-11045923132-attraction","name":"صولاغ صولاخ","kind":"poi","tier":"poi_detail","priority":50.1,"context":"شوێنی گەشتیاری","category":"شوێنی گەشتیاری"},"geometry":{"type":"Point","coordinates":[41.8984968,36.3364006]}},{"type":"Feature","id":"osm-node-4803189021-attraction","properties":{"id":"osm-node-4803189021-attraction","name":"صولاغ صولاخ","kind":"poi","tier":"poi_detail","priority":50.1,"context":"شوێنی گەشتیاری","category":"شوێنی گەشتیاری"},"geometry":{"type":"Point","coordinates":[41.8975588,36.336575]}},{"type":"Feature","id":"osm-node-4803164822-attraction","properties":{"id":"osm-node-4803164822-attraction","name":"قریە کهکمت","kind":"poi","tier":"poi_detail","priority":50.1,"context":"شوێنی گەشتیاری","category":"شوێنی گەشتیاری"},"geometry":{"type":"Point","coordinates":[41.8737707,36.3119561]}},{"type":"Feature","id":"osm-node-4810415325-attraction","properties":{"id":"osm-node-4810415325-attraction","name":"محلە بربروش","kind":"poi","tier":"poi_detail","priority":50.1,"context":"شوێنی گەشتیاری","category":"شوێنی گەشتیاری"},"geometry":{"type":"Point","coordinates":[41.8534513,36.3257919]}},{"type":"Feature","id":"osm-node-4810416621-attraction","properties":{"id":"osm-node-4810416621-attraction","name":"محلە کلاهی","kind":"poi","tier":"poi_detail","priority":50.1,"context":"شوێنی گەشتیاری","category":"شوێنی گەشتیاری"},"geometry":{"type":"Point","coordinates":[41.8617015,36.3273628]}},{"type":"Feature","id":"osm-node-10064036617-attraction","properties":{"id":"osm-node-10064036617-attraction","name":"مزار مهما رشان","kind":"poi","tier":"poi_detail","priority":50.1,"context":"شوێنی گەشتیاری","category":"شوێنی گەشتیاری"},"geometry":{"type":"Point","coordinates":[41.8866223,36.3569443]}},{"type":"Feature","id":"osm-node-4768407922-fuel","properties":{"id":"osm-node-4768407922-fuel","name":"القبائل","kind":"poi","tier":"poi_regional","priority":82.094,"context":"وێستگەی سووتەمەنی","category":"وێستگەی سووتەمەنی"},"geometry":{"type":"Point","coordinates":[41.845607,36.312049]}},{"type":"Feature","id":"osm-node-4319803020-fuel","properties":{"id":"osm-node-4319803020-fuel","name":"محطە التعبئە جشعمی","kind":"poi","tier":"poi_regional","priority":82.094,"context":"وێستگەی سووتەمەنی","category":"وێستگەی سووتەمەنی"},"geometry":{"type":"Point","coordinates":[41.8759569,36.4511014]}},{"type":"Feature","id":"osm-node-4768397328-fuel","properties":{"id":"osm-node-4768397328-fuel","name":"معمل الغاز السائل","kind":"poi","tier":"poi_regional","priority":82.094,"context":"وێستگەی سووتەمەنی","category":"وێستگەی سووتەمەنی"},"geometry":{"type":"Point","coordinates":[41.8370051,36.3150834]}},{"type":"Feature","id":"osm-node-4845509025-police","properties":{"id":"osm-node-4845509025-police","name":"مدیریە الشرطە","kind":"poi","tier":"poi_regional","priority":77.1,"context":"بنکەی پۆلیس","category":"بنکەی پۆلیس"},"geometry":{"type":"Point","coordinates":[41.8498542,36.3177096]}},{"type":"Feature","id":"osm-node-4803188122-police","properties":{"id":"osm-node-4803188122-police","name":"مدیریە شرطە سنجار","kind":"poi","tier":"poi_regional","priority":77.1,"context":"بنکەی پۆلیس","category":"بنکەی پۆلیس"},"geometry":{"type":"Point","coordinates":[41.8498493,36.3174995]}},{"type":"Feature","id":"osm-node-4547917493-police","properties":{"id":"osm-node-4547917493-police","name":"مرکز شرطە سنجار","kind":"poi","tier":"poi_regional","priority":77.1,"context":"بنکەی پۆلیس","category":"بنکەی پۆلیس"},"geometry":{"type":"Point","coordinates":[41.866851,36.3232772]}},{"type":"Feature","id":"osm-node-6578234685-police","properties":{"id":"osm-node-6578234685-police","name":"مرکز شرطە سنجار","kind":"poi","tier":"poi_regional","priority":77.1,"context":"بنکەی پۆلیس","category":"بنکەی پۆلیس"},"geometry":{"type":"Point","coordinates":[41.8502245,36.3162739]}},{"type":"Feature","id":"osm-node-11812627170-police","properties":{"id":"osm-node-11812627170-police","name":"مفرق مجمع دهولا","kind":"poi","tier":"poi_regional","priority":77.1,"context":"بنکەی پۆلیس","category":"بنکەی پۆلیس"},"geometry":{"type":"Point","coordinates":[41.8280636,36.4548597]}},{"type":"Feature","id":"osm-node-4803188123-police","properties":{"id":"osm-node-4803188123-police","name":"مقر فوج طواریء سنجار","kind":"poi","tier":"poi_regional","priority":77.1,"context":"بنکەی پۆلیس","category":"بنکەی پۆلیس"},"geometry":{"type":"Point","coordinates":[41.8476538,36.3183495]}},{"type":"Feature","id":"osm-node-4803190121-police","properties":{"id":"osm-node-4803190121-police","name":"مقر لواء الحدود","kind":"poi","tier":"poi_regional","priority":77.1,"context":"بنکەی پۆلیس","category":"بنکەی پۆلیس"},"geometry":{"type":"Point","coordinates":[41.8471954,36.3132535]}},{"type":"Feature","id":"osm-node-4845539321-police","properties":{"id":"osm-node-4845539321-police","name":"موقف الشرطە","kind":"poi","tier":"poi_regional","priority":77.1,"context":"بنکەی پۆلیس","category":"بنکەی پۆلیس"},"geometry":{"type":"Point","coordinates":[41.8533737,36.3226242]}},{"type":"Feature","id":"osm-node-10219160219-car_dealership","properties":{"id":"osm-node-10219160219-car_dealership","name":"دکان","kind":"poi","tier":"poi_regional","priority":76.1,"context":"پێشانگای ئۆتۆمبیل","category":"پێشانگای ئۆتۆمبیل"},"geometry":{"type":"Point","coordinates":[41.8522171,36.3126281]}},{"type":"Feature","id":"osm-way-297482806-residential","properties":{"id":"osm-way-297482806-residential","name":"الشهابیە","kind":"poi","tier":"poi_local","priority":68.045,"context":"کۆمپاوندی نیشتەجێبوون","category":"کۆمپاوندی نیشتەجێبوون"},"geometry":{"type":"Point","coordinates":[41.8727587,36.297094]}},{"type":"Feature","id":"osm-way-297498895-residential","properties":{"id":"osm-way-297498895-residential","name":"الصباحیە","kind":"poi","tier":"poi_local","priority":68.045,"context":"کۆمپاوندی نیشتەجێبوون","category":"کۆمپاوندی نیشتەجێبوون"},"geometry":{"type":"Point","coordinates":[41.8932965,36.305089]}},{"type":"Feature","id":"osm-way-293058067-residential","properties":{"id":"osm-way-293058067-residential","name":"القادسیە","kind":"poi","tier":"poi_local","priority":68.045,"context":"کۆمپاوندی نیشتەجێبوون","category":"کۆمپاوندی نیشتەجێبوون"},"geometry":{"type":"Point","coordinates":[41.8075456,36.4895406]}},{"type":"Feature","id":"osm-way-297482813-residential","properties":{"id":"osm-way-297482813-residential","name":"الناصریە","kind":"poi","tier":"poi_local","priority":68.045,"context":"کۆمپاوندی نیشتەجێبوون","category":"کۆمپاوندی نیشتەجێبوون"},"geometry":{"type":"Point","coordinates":[41.8630345,36.3036254]}},{"type":"Feature","id":"osm-way-319645476-residential","properties":{"id":"osm-way-319645476-residential","name":"کانی صارک","kind":"poi","tier":"poi_local","priority":68.045,"context":"کۆمپاوندی نیشتەجێبوون","category":"کۆمپاوندی نیشتەجێبوون"},"geometry":{"type":"Point","coordinates":[41.8332956,36.2952495]}},{"type":"Feature","id":"osm-way-297422506-residential","properties":{"id":"osm-way-297422506-residential","name":"کانی عبدو","kind":"poi","tier":"poi_local","priority":68.045,"context":"کۆمپاوندی نیشتەجێبوون","category":"کۆمپاوندی نیشتەجێبوون"},"geometry":{"type":"Point","coordinates":[41.8505567,36.3020066]}},{"type":"Feature","id":"osm-way-319645475-residential","properties":{"id":"osm-way-319645475-residential","name":"کنعان","kind":"poi","tier":"poi_local","priority":68.045,"context":"کۆمپاوندی نیشتەجێبوون","category":"کۆمپاوندی نیشتەجێبوون"},"geometry":{"type":"Point","coordinates":[41.8254338,36.3043181]}},{"type":"Feature","id":"osm-way-297498897-residential","properties":{"id":"osm-way-297498897-residential","name":"کوجک","kind":"poi","tier":"poi_local","priority":68.045,"context":"کۆمپاوندی نیشتەجێبوون","category":"کۆمپاوندی نیشتەجێبوون"},"geometry":{"type":"Point","coordinates":[41.8798638,36.3071584]}},{"type":"Feature","id":"osm-way-239641033-industrial","properties":{"id":"osm-way-239641033-industrial","name":"سایلۆی سنجار","kind":"poi","tier":"poi_local","priority":66.045,"context":"ناوچەی پیشەسازی","category":"ناوچەی پیشەسازی"},"geometry":{"type":"Point","coordinates":[41.874321,36.3142325]}},{"type":"Feature","id":"osm-node-4550839591-school","properties":{"id":"osm-node-4550839591-school","name":"Borek primary school","kind":"poi","tier":"poi_detail","priority":50.1,"context":"قوتابخانە","category":"قوتابخانە"},"geometry":{"type":"Point","coordinates":[41.8716241,36.4966869]}},{"type":"Feature","id":"osm-node-4550798495-clinic","properties":{"id":"osm-node-4550798495-clinic","name":"Jangoo A clinic","kind":"poi","tier":"poi_detail","priority":50.1,"context":"کلینیک","category":"کلینیک"},"geometry":{"type":"Point","coordinates":[41.8696845,36.4961298]}},{"type":"Feature","id":"osm-node-4550728796-supermarket","properties":{"id":"osm-node-4550728796-supermarket","name":"Sheikh Haydar.M","kind":"poi","tier":"poi_detail","priority":50.1,"context":"سۆپەرمارکێت","category":"سۆپەرمارکێت"},"geometry":{"type":"Point","coordinates":[41.8727243,36.4991693]}},{"type":"Feature","id":"osm-node-4563233090-school","properties":{"id":"osm-node-4563233090-school","name":"ثانویە العراق الاولی","kind":"poi","tier":"poi_detail","priority":50.1,"context":"قوتابخانە","category":"قوتابخانە"},"geometry":{"type":"Point","coordinates":[41.8706709,36.4964162]}},{"type":"Feature","id":"osm-node-4591371189-school","properties":{"id":"osm-node-4591371189-school","name":"ثانویە العراق الاولی للبنین","kind":"poi","tier":"poi_detail","priority":50.1,"context":"قوتابخانە","category":"قوتابخانە"},"geometry":{"type":"Point","coordinates":[41.8707872,36.4963161]}},{"type":"Feature","id":"osm-node-4573650492-school","properties":{"id":"osm-node-4573650492-school","name":"ثانویە العراق الثانیە","kind":"poi","tier":"poi_detail","priority":50.1,"context":"قوتابخانە","category":"قوتابخانە"},"geometry":{"type":"Point","coordinates":[41.8706723,36.4963521]}},{"type":"Feature","id":"osm-node-4319934600-school","properties":{"id":"osm-node-4319934600-school","name":"ثانویە العراق الثانیە للبنین","kind":"poi","tier":"poi_detail","priority":50.1,"context":"قوتابخانە","category":"قوتابخانە"},"geometry":{"type":"Point","coordinates":[41.8688443,36.4992927]}},{"type":"Feature","id":"osm-node-4591296591-school","properties":{"id":"osm-node-4591296591-school","name":"ثانویە العراق الثانیە للبنین","kind":"poi","tier":"poi_detail","priority":50.1,"context":"قوتابخانە","category":"قوتابخانە"},"geometry":{"type":"Point","coordinates":[41.8707784,36.4964107]}},{"type":"Feature","id":"osm-node-6314430685-supermarket","properties":{"id":"osm-node-6314430685-supermarket","name":"مارکت سیمان","kind":"poi","tier":"poi_detail","priority":50.1,"context":"سۆپەرمارکێت","category":"سۆپەرمارکێت"},"geometry":{"type":"Point","coordinates":[41.7517923,36.4696301]}},{"type":"Feature","id":"osm-node-11812627169-supermarket","properties":{"id":"osm-node-11812627169-supermarket","name":"مارکیت برکاتو","kind":"poi","tier":"poi_detail","priority":50.1,"context":"سۆپەرمارکێت","category":"سۆپەرمارکێت"},"geometry":{"type":"Point","coordinates":[41.8131522,36.4898985]}},{"type":"Feature","id":"osm-node-4591371589-school","properties":{"id":"osm-node-4591371589-school","name":"مدرسە العراق الاولی للبنین","kind":"poi","tier":"poi_detail","priority":50.1,"context":"قوتابخانە","category":"قوتابخانە"},"geometry":{"type":"Point","coordinates":[41.8669961,36.4992022]}},{"type":"Feature","id":"osm-node-4529076789-school","properties":{"id":"osm-node-4529076789-school","name":"مدرسە العراق المختلطە/الاولی","kind":"poi","tier":"poi_detail","priority":50.1,"context":"قوتابخانە","category":"قوتابخانە"},"geometry":{"type":"Point","coordinates":[41.8713687,36.4963644]}},{"type":"Feature","id":"osm-node-11147845405-school","properties":{"id":"osm-node-11147845405-school","name":"مدرسە المحبە الابتدائیە المختلطە","kind":"poi","tier":"poi_detail","priority":50.1,"context":"قوتابخانە","category":"قوتابخانە"},"geometry":{"type":"Point","coordinates":[41.94942,36.2640557]}},{"type":"Feature","id":"osm-node-4779517621-school","properties":{"id":"osm-node-4779517621-school","name":"مدرسە سنجار الثانیە","kind":"poi","tier":"poi_detail","priority":50.1,"context":"قوتابخانە","category":"قوتابخانە"},"geometry":{"type":"Point","coordinates":[41.852887,36.32143]}},{"type":"Feature","id":"osm-node-12993275401-restaurant","properties":{"id":"osm-node-12993275401-restaurant","name":"مطعم باخان","kind":"poi","tier":"poi_detail","priority":50.1,"context":"چێشتخانە","category":"چێشتخانە"},"geometry":{"type":"Point","coordinates":[41.8701109,36.3210482]}},{"type":"Feature","id":"osm-node-4550725892-supermarket","properties":{"id":"osm-node-4550725892-supermarket","name":"مکتب الذهبی","kind":"poi","tier":"poi_detail","priority":50.1,"context":"سۆپەرمارکێت","category":"سۆپەرمارکێت"},"geometry":{"type":"Point","coordinates":[41.8718685,36.497077]}},{"type":"Feature","id":"osm-way-1499136461-school","properties":{"id":"osm-way-1499136461-school","name":"ئامادەییا کوردستان یا تێکەل","kind":"poi","tier":"poi_detail","priority":50.092,"context":"قوتابخانە","category":"قوتابخانە"},"geometry":{"type":"Point","coordinates":[41.8629943,36.3192387]}},{"type":"Feature","id":"osm-way-1499142306-school","properties":{"id":"osm-way-1499142306-school","name":"اعدادیە محمد بن القاسم للبنین","kind":"poi","tier":"poi_detail","priority":50.092,"context":"قوتابخانە","category":"قوتابخانە"},"geometry":{"type":"Point","coordinates":[41.8491123,36.3207087]}},{"type":"Feature","id":"osm-way-1499156554-school","properties":{"id":"osm-way-1499156554-school","name":"ثانویە سنجار المسائیە للبنین","kind":"poi","tier":"poi_detail","priority":50.092,"context":"قوتابخانە","category":"قوتابخانە"},"geometry":{"type":"Point","coordinates":[41.8652147,36.3255347]}},{"type":"Feature","id":"osm-way-1499156549-school","properties":{"id":"osm-way-1499156549-school","name":"مدرسە سنجار المتوسطە للبنات","kind":"poi","tier":"poi_detail","priority":50.092,"context":"قوتابخانە","category":"قوتابخانە"},"geometry":{"type":"Point","coordinates":[41.8662352,36.3253581]}},{"type":"Feature","id":"osm-way-20444594-clinic","properties":{"id":"osm-way-20444594-clinic","name":"مرکز صحی النصر","kind":"poi","tier":"poi_detail","priority":50.092,"context":"کلینیک","category":"کلینیک"},"geometry":{"type":"Point","coordinates":[41.84402,36.3176605]}},{"type":"Feature","id":"osm-node-4550863992-computer_shop","properties":{"id":"osm-node-4550863992-computer_shop","name":"Nahrin Office Electronics","kind":"poi","tier":"poi_detail","priority":50.1,"context":"دوکانی کۆمپیوتەر","category":"دوکانی کۆمپیوتەر"},"geometry":{"type":"Point","coordinates":[41.8703975,36.4957124]}},{"type":"Feature","id":"osm-node-4550919290-hairdresser","properties":{"id":"osm-node-4550919290-hairdresser","name":"Rejwan Halaq","kind":"poi","tier":"poi_detail","priority":50.1,"context":"سەرتاشخانە","category":"سەرتاشخانە"},"geometry":{"type":"Point","coordinates":[41.8720514,36.4965831]}},{"type":"Feature","id":"osm-node-4563182090-memorial","properties":{"id":"osm-node-4563182090-memorial","name":"بلدیە بورک","kind":"poi","tier":"poi_detail","priority":50.1,"context":"یادەوەری","category":"یادەوەری"},"geometry":{"type":"Point","coordinates":[41.8708715,36.4967069]}},{"type":"Feature","id":"osm-node-4550856993-outdoor_shop","properties":{"id":"osm-node-4550856993-outdoor_shop","name":"بورک للالعاب الالکترونیە","kind":"poi","tier":"poi_detail","priority":50.1,"context":"فرۆشگای کەلوپەلی دەرەوە","category":"فرۆشگای کەلوپەلی دەرەوە"},"geometry":{"type":"Point","coordinates":[41.8696441,36.4967977]}},{"type":"Feature","id":"osm-node-4768373933-castle","properties":{"id":"osm-node-4768373933-castle","name":"سور سنجار الاثری","kind":"poi","tier":"poi_detail","priority":50.1,"context":"قەڵا","category":"قەڵا"},"geometry":{"type":"Point","coordinates":[41.853505,36.3272401]}},{"type":"Feature","id":"osm-node-5934583987-hostel","properties":{"id":"osm-node-5934583987-hostel","name":"شارعا قیجکا","kind":"poi","tier":"poi_detail","priority":50.1,"context":"هۆستێل","category":"هۆستێل"},"geometry":{"type":"Point","coordinates":[41.8749087,36.4943077]}},{"type":"Feature","id":"osm-node-4550835792-fitness_centre","properties":{"id":"osm-node-4550835792-fitness_centre","name":"صالە بورک للریاضە","kind":"poi","tier":"poi_detail","priority":50.1,"context":"جیم","category":"جیم"},"geometry":{"type":"Point","coordinates":[41.8689551,36.4967493]}},{"type":"Feature","id":"osm-node-6432239785-artwork","properties":{"id":"osm-node-6432239785-artwork","name":"صدیق","kind":"poi","tier":"poi_detail","priority":50.1,"context":"هونەری گشتی","category":"هونەری گشتی"},"geometry":{"type":"Point","coordinates":[41.8649676,36.3161934]}},{"type":"Feature","id":"osm-node-4792241923-courthouse","properties":{"id":"osm-node-4792241923-courthouse","name":"محکمە سنجار","kind":"poi","tier":"poi_detail","priority":50.1,"context":"دادگا","category":"دادگا"},"geometry":{"type":"Point","coordinates":[41.8534186,36.3227435]}},{"type":"Feature","id":"osm-node-4547917494-museum","properties":{"id":"osm-node-4547917494-museum","name":"منارە سنجار القدیمە","kind":"poi","tier":"poi_detail","priority":50.1,"context":"مۆزەخانە","category":"مۆزەخانە"},"geometry":{"type":"Point","coordinates":[41.8539632,36.3240532]}},{"type":"Feature","id":"osm-node-13375663141-battlefield","properties":{"id":"osm-node-13375663141-battlefield","name":"موقع مجزرە سنجار","kind":"poi","tier":"poi_detail","priority":50.1,"context":"گۆڕەپانی جەنگ","category":"گۆڕەپانی جەنگ"},"geometry":{"type":"Point","coordinates":[41.9042357,36.3080979]}},{"type":"Feature","id":"osm-node-4550728795-community_centre","properties":{"id":"osm-node-4550728795-community_centre","name":"مکتب لالش الثقافی","kind":"poi","tier":"poi_detail","priority":50.1,"context":"ناوەندی کۆمەڵایەتی","category":"ناوەندی کۆمەڵایەتی"},"geometry":{"type":"Point","coordinates":[41.8709237,36.4967073]}},{"type":"Feature","id":"osm-node-4551020593-bookshop","properties":{"id":"osm-node-4551020593-bookshop","name":"مکتبە ابو ازاد","kind":"poi","tier":"poi_detail","priority":50.1,"context":"کتێب فرۆشی","category":"کتێب فرۆشی"},"geometry":{"type":"Point","coordinates":[41.8708068,36.4957996]}},{"type":"Feature","id":"osm-node-6992857385-bakery","properties":{"id":"osm-node-6992857385-bakery","name":"نانه بیژه حه تین","kind":"poi","tier":"poi_detail","priority":50.1,"context":"نانەواخانە","category":"نانەواخانە"},"geometry":{"type":"Point","coordinates":[41.7517596,36.4696385]}},{"type":"Feature","id":"osm-node-12657301882-memorial","properties":{"id":"osm-node-12657301882-memorial","name":"نصب تذکار ابادە الیزیدیین فی سنجار","kind":"poi","tier":"poi_detail","priority":50.1,"context":"یادەوەری","category":"یادەوەری"},"geometry":{"type":"Point","coordinates":[41.9057769,36.3087712]}},{"type":"Feature","id":"osm-node-11822879469-cafe","properties":{"id":"osm-node-11822879469-cafe","name":"کافتریا خالد","kind":"poi","tier":"poi_detail","priority":50.1,"context":"کافێ","category":"کافێ"},"geometry":{"type":"Point","coordinates":[41.8128243,36.4906042]}},{"type":"Feature","id":"osm-node-6588348485-car_rental","properties":{"id":"osm-node-6588348485-car_rental","name":"کراج الموصل","kind":"poi","tier":"poi_detail","priority":50.1,"context":"کرێی ئۆتۆمبیل","category":"کرێی ئۆتۆمبیل"},"geometry":{"type":"Point","coordinates":[41.8696038,36.3218687]}},{"type":"Feature","id":"osm-node-4550713796-castle","properties":{"id":"osm-node-4550713796-castle","name":"کری کوری","kind":"poi","tier":"poi_detail","priority":50.1,"context":"قەڵا","category":"قەڵا"},"geometry":{"type":"Point","coordinates":[41.8629022,36.4558201]}},{"type":"Feature","id":"osm-node-13728545645-christian","properties":{"id":"osm-node-13728545645-christian","name":"الکنیسە الکاثولیکیە فی شنکال","kind":"poi","tier":"poi_detail","priority":50.098,"context":"کەلیسای مەسیحی","category":"کەلیسای مەسیحی"},"geometry":{"type":"Point","coordinates":[41.8573768,36.3267897]}},{"type":"Feature","id":"osm-node-4547917495-christian","properties":{"id":"osm-node-4547917495-christian","name":"کنیسە مریم العذراء","kind":"poi","tier":"poi_detail","priority":50.098,"context":"کەلیسای مەسیحی","category":"کەلیسای مەسیحی"},"geometry":{"type":"Point","coordinates":[41.8581508,36.3256134]}},{"type":"Feature","id":"osm-way-838253877-graveyard","properties":{"id":"osm-way-838253877-graveyard","name":"مزار شرف الدین","kind":"poi","tier":"poi_detail","priority":50.092,"context":"قەبرستان","category":"قەبرستان"},"geometry":{"type":"Point","coordinates":[41.8639285,36.4275715]}},{"type":"Feature","id":"osm-way-297418229-graveyard","properties":{"id":"osm-way-297418229-graveyard","name":"مقبرە رشکا للیزیدیین","kind":"poi","tier":"poi_detail","priority":50.092,"context":"قەبرستان","category":"قەبرستان"},"geometry":{"type":"Point","coordinates":[41.8819761,36.3585149]}},{"type":"Feature","id":"osm-way-1290241650-pitch","properties":{"id":"osm-way-1290241650-pitch","name":"ملعب کرە القدم","kind":"poi","tier":"poi_detail","priority":50.092,"context":"ناوەندی وەرزش","category":"ناوەندی وەرزش"},"geometry":{"type":"Point","coordinates":[41.8651284,36.4859104]}},{"type":"Feature","id":"osm-way-1499128860-muslim","properties":{"id":"osm-way-1499128860-muslim","name":"مزگهوتی ڕهحمان","kind":"poi","tier":"poi_detail","priority":50.09,"context":"مزگەوت","category":"مزگەوت"},"geometry":{"type":"Point","coordinates":[41.8766224,36.3189502]}},{"type":"Feature","id":"osm-way-1497685036-dam","properties":{"id":"osm-way-1497685036-dam","name":"سد سنجار","kind":"poi","tier":"poi_detail","priority":50.086,"context":"بەنداوی ئاو","category":"بەنداوی ئاو"},"geometry":{"type":"Point","coordinates":[41.8790558,36.3310274]}},{"type":"Feature","id":"osm-way-310878230-parking","properties":{"id":"osm-way-310878230-parking","name":"معارض بیع السیارات","kind":"poi","tier":"poi_detail","priority":50.086,"context":"پارکینگ","category":"پارکینگ"},"geometry":{"type":"Point","coordinates":[41.8659831,36.3155991]}},{"type":"Feature","id":"osm-way-310878231-parking","properties":{"id":"osm-way-310878231-parking","name":"معارض بیع السیارات","kind":"poi","tier":"poi_detail","priority":50.086,"context":"پارکینگ","category":"پارکینگ"},"geometry":{"type":"Point","coordinates":[41.8673506,36.3154322]}}]}