{"type":"FeatureCollection","features":[{"type":"Feature","id":"geonames-386089","properties":{"id":"geonames-386089","name":"حەنانک","kind":"village","tier":"locality","priority":300,"context":"سنوونێ · شنگال · نەینەوا","category":"گوند"},"geometry":{"type":"Point","coordinates":[41.88214,36.53075]}},{"type":"Feature","id":"geonames-386090","properties":{"id":"geonames-386090","name":"قوجی چەم","kind":"village","tier":"locality","priority":300,"context":"سنوونێ · شنگال · نەینەوا","category":"گوند"},"geometry":{"type":"Point","coordinates":[41.79747,36.54142]}},{"type":"Feature","id":"geonames-6962696","properties":{"id":"geonames-6962696","name":"قوجی چەمی","kind":"village","tier":"locality","priority":300,"context":"سنوونێ · شنگال · نەینەوا","category":"گوند"},"geometry":{"type":"Point","coordinates":[41.79432,36.56356]}},{"type":"Feature","id":"geonames-386091","properties":{"id":"geonames-386091","name":"کری شکستی","kind":"village","tier":"locality","priority":300,"context":"سنوونێ · شنگال · نەینەوا","category":"گوند"},"geometry":{"type":"Point","coordinates":[41.75968,36.52616]}},{"type":"Feature","id":"osm-natural-hill-3c66909e16cea8","properties":{"id":"osm-natural-hill-3c66909e16cea8","name":"Tall Ghani","kind":"natural","tier":"natural","priority":180,"context":"گرد · شنگال · نەینەوا","category":"گرد"},"geometry":{"type":"Point","coordinates":[41.91611,36.53972]}},{"type":"Feature","id":"osm-natural-river-0c461fc6dd05c8","properties":{"id":"osm-natural-river-0c461fc6dd05c8","name":"Wadi Kuni","kind":"natural","tier":"natural","priority":180,"context":"ڕووبار · تەلعەفەر · نەینەوا","category":"ڕووبار"},"geometry":{"type":"Point","coordinates":[41.9071139,36.599757]}},{"type":"Feature","id":"osm-natural-stream-9b37d9d2dd43a6","properties":{"id":"osm-natural-stream-9b37d9d2dd43a6","name":"Wadi Kuni","kind":"natural","tier":"natural","priority":180,"context":"جۆگە · تەلعەفەر · نەینەوا","category":"جۆگە"},"geometry":{"type":"Point","coordinates":[41.8883623,36.6304494]}},{"type":"Feature","id":"osm-natural-valley-522c7877d2c150","properties":{"id":"osm-natural-valley-522c7877d2c150","name":"Wadi Tingalah Sakhuk","kind":"natural","tier":"natural","priority":180,"context":"دۆڵ · شنگال · نەینەوا","category":"دۆڵ"},"geometry":{"type":"Point","coordinates":[41.97838,36.55716]}},{"type":"Feature","id":"osm-natural-hill-08a778a6d9ae8e","properties":{"id":"osm-natural-hill-08a778a6d9ae8e","name":"تل الجحش","kind":"natural","tier":"natural","priority":180,"context":"گرد · تەلعەفەر · نەینەوا","category":"گرد"},"geometry":{"type":"Point","coordinates":[41.98667,36.71306]}},{"type":"Feature","id":"osm-natural-hill-8e48265b1dba81","properties":{"id":"osm-natural-hill-8e48265b1dba81","name":"تل الوحش","kind":"natural","tier":"natural","priority":180,"context":"گرد · تەلعەفەر · نەینەوا","category":"گرد"},"geometry":{"type":"Point","coordinates":[41.98835,36.61033]}},{"type":"Feature","id":"osm-natural-hill-fe98ac07c5b52b","properties":{"id":"osm-natural-hill-fe98ac07c5b52b","name":"تل كلي خان","kind":"natural","tier":"natural","priority":180,"context":"گرد · شنگال · نەینەوا","category":"گرد"},"geometry":{"type":"Point","coordinates":[41.91915,36.52295]}},{"type":"Feature","id":"osm-natural-valley-560096dbafd02a","properties":{"id":"osm-natural-valley-560096dbafd02a","name":"وادي ثريا","kind":"natural","tier":"natural","priority":180,"context":"دۆڵ · تەلعەفەر · نەینەوا","category":"دۆڵ"},"geometry":{"type":"Point","coordinates":[41.90122,36.62226]}},{"type":"Feature","id":"osm-natural-valley-b2c90eb0640c88","properties":{"id":"osm-natural-valley-b2c90eb0640c88","name":"وادي كني","kind":"natural","tier":"natural","priority":180,"context":"دۆڵ · تەلعەفەر · نەینەوا","category":"دۆڵ"},"geometry":{"type":"Point","coordinates":[41.90955,36.61261]}},{"type":"Feature","id":"osm-node-4779499622-hospital","properties":{"id":"osm-node-4779499622-hospital","name":"مرکز رعایە الصحیە الاولیە فی کوهبل","kind":"poi","tier":"poi_landmark","priority":95.1,"context":"نەخۆشخانە","category":"نەخۆشخانە"},"geometry":{"type":"Point","coordinates":[41.9621922,36.5144575]}},{"type":"Feature","id":"osm-node-11010485405-police","properties":{"id":"osm-node-11010485405-police","name":"ل ١٧ م ٦ ق ق ح","kind":"poi","tier":"poi_regional","priority":77.1,"context":"بنکەی پۆلیس","category":"بنکەی پۆلیس"},"geometry":{"type":"Point","coordinates":[41.9773724,36.7030193]}},{"type":"Feature","id":"osm-node-11111201641-police","properties":{"id":"osm-node-11111201641-police","name":"مخفر الشمالیە","kind":"poi","tier":"poi_regional","priority":77.1,"context":"بنکەی پۆلیس","category":"بنکەی پۆلیس"},"geometry":{"type":"Point","coordinates":[41.7943201,36.5839817]}},{"type":"Feature","id":"osm-node-11111201699-police","properties":{"id":"osm-node-11111201699-police","name":"مخفر العلم","kind":"poi","tier":"poi_regional","priority":77.1,"context":"بنکەی پۆلیس","category":"بنکەی پۆلیس"},"geometry":{"type":"Point","coordinates":[41.8664531,36.6183308]}},{"type":"Feature","id":"osm-node-2485303562-police","properties":{"id":"osm-node-2485303562-police","name":"مخفر ام الخبازی","kind":"poi","tier":"poi_regional","priority":77.1,"context":"بنکەی پۆلیس","category":"بنکەی پۆلیس"},"geometry":{"type":"Point","coordinates":[41.845329,36.594293]}},{"type":"Feature","id":"osm-node-11111201667-police","properties":{"id":"osm-node-11111201667-police","name":"مخفر ام الغباری","kind":"poi","tier":"poi_regional","priority":77.1,"context":"بنکەی پۆلیس","category":"بنکەی پۆلیس"},"geometry":{"type":"Point","coordinates":[41.8471021,36.5947659]}},{"type":"Feature","id":"osm-node-11111201643-police","properties":{"id":"osm-node-11111201643-police","name":"مخفر رجم العبد","kind":"poi","tier":"poi_regional","priority":77.1,"context":"بنکەی پۆلیس","category":"بنکەی پۆلیس"},"geometry":{"type":"Point","coordinates":[41.769854,36.562218]}},{"type":"Feature","id":"osm-node-2485303432-police","properties":{"id":"osm-node-2485303432-police","name":"مخفر شرطە کانی عفر","kind":"poi","tier":"poi_regional","priority":77.1,"context":"بنکەی پۆلیس","category":"بنکەی پۆلیس"},"geometry":{"type":"Point","coordinates":[41.9765001,36.7040196]}},{"type":"Feature","id":"osm-node-11111201677-police","properties":{"id":"osm-node-11111201677-police","name":"ملحق العلم2","kind":"poi","tier":"poi_regional","priority":77.1,"context":"بنکەی پۆلیس","category":"بنکەی پۆلیس"},"geometry":{"type":"Point","coordinates":[41.8836743,36.6312729]}},{"type":"Feature","id":"osm-node-11111201651-police","properties":{"id":"osm-node-11111201651-police","name":"ملحق العلم3","kind":"poi","tier":"poi_regional","priority":77.1,"context":"بنکەی پۆلیس","category":"بنکەی پۆلیس"},"geometry":{"type":"Point","coordinates":[41.8487094,36.6070056]}},{"type":"Feature","id":"osm-node-11111201691-police","properties":{"id":"osm-node-11111201691-police","name":"ملحق رجم العبد1","kind":"poi","tier":"poi_regional","priority":77.1,"context":"بنکەی پۆلیس","category":"بنکەی پۆلیس"},"geometry":{"type":"Point","coordinates":[41.8170953,36.5874427]}},{"type":"Feature","id":"osm-node-11111201721-police","properties":{"id":"osm-node-11111201721-police","name":"ملحق رجم العبد2","kind":"poi","tier":"poi_regional","priority":77.1,"context":"بنکەی پۆلیس","category":"بنکەی پۆلیس"},"geometry":{"type":"Point","coordinates":[41.782973,36.566782]}},{"type":"Feature","id":"osm-node-11111201666-police","properties":{"id":"osm-node-11111201666-police","name":"ملحق رجم العبد3","kind":"poi","tier":"poi_regional","priority":77.1,"context":"بنکەی پۆلیس","category":"بنکەی پۆلیس"},"geometry":{"type":"Point","coordinates":[41.755774,36.571836]}},{"type":"Feature","id":"osm-node-11111201720-police","properties":{"id":"osm-node-11111201720-police","name":"ملحق نایف الحسن1","kind":"poi","tier":"poi_regional","priority":77.1,"context":"بنکەی پۆلیس","category":"بنکەی پۆلیس"},"geometry":{"type":"Point","coordinates":[41.9596006,36.6911347]}},{"type":"Feature","id":"osm-way-293038668-residential","properties":{"id":"osm-way-293038668-residential","name":"Gohbal","kind":"poi","tier":"poi_local","priority":68.045,"context":"کۆمپاوندی نیشتەجێبوون","category":"کۆمپاوندی نیشتەجێبوون"},"geometry":{"type":"Point","coordinates":[41.9611613,36.5155397]}},{"type":"Feature","id":"osm-way-1304650967-school","properties":{"id":"osm-way-1304650967-school","name":"مدرسە الاندلس ثانیە المختلطە","kind":"poi","tier":"poi_detail","priority":50.092,"context":"قوتابخانە","category":"قوتابخانە"},"geometry":{"type":"Point","coordinates":[41.9627499,36.514831]}},{"type":"Feature","id":"osm-way-1304650968-building","properties":{"id":"osm-way-1304650968-building","name":"ثانوية الاندلس للبنين","kind":"poi","tier":"poi_detail","priority":50.055,"context":"قوتابخانە","category":"قوتابخانە"},"geometry":{"type":"Point","coordinates":[41.9629285,36.5164682]}},{"type":"Feature","id":"osm-node-4551377589-caravan_site","properties":{"id":"osm-node-4551377589-caravan_site","name":"منطقە بورک_کوهبل الریفیە","kind":"poi","tier":"poi_detail","priority":50.1,"context":"شوێنی کاراڤان","category":"شوێنی کاراڤان"},"geometry":{"type":"Point","coordinates":[41.9255247,36.5572889]}},{"type":"Feature","id":"osm-node-12953518528-community_centre","properties":{"id":"osm-node-12953518528-community_centre","name":"مکتب لالش","kind":"poi","tier":"poi_detail","priority":50.1,"context":"ناوەندی کۆمەڵایەتی","category":"ناوەندی کۆمەڵایەتی"},"geometry":{"type":"Point","coordinates":[41.9618538,36.5154468]}},{"type":"Feature","id":"osm-node-4529070489-castle","properties":{"id":"osm-node-4529070489-castle","name":"کری ره ش","kind":"poi","tier":"poi_detail","priority":50.1,"context":"قەڵا","category":"قەڵا"},"geometry":{"type":"Point","coordinates":[41.900067,36.5022007]}}]}