{"type":"FeatureCollection","features":[{"type":"Feature","id":"osm-node-2486486756","properties":{"id":"osm-node-2486486756","name":"جزرونیە","kind":"village","tier":"locality","priority":300,"context":"زوممار · تەلعەفەر · نەینەوا","category":"گوند"},"geometry":{"type":"Point","coordinates":[42.427059,36.896719]}},{"type":"Feature","id":"geonames-384809","properties":{"id":"geonames-384809","name":"حەرزۆنیە","kind":"village","tier":"locality","priority":300,"context":"زوممار · تەلعەفەر · نەینەوا","category":"گوند"},"geometry":{"type":"Point","coordinates":[42.42736,36.89749]}},{"type":"Feature","id":"geonames-384806","properties":{"id":"geonames-384806","name":"سلێمان خلیو","kind":"village","tier":"locality","priority":300,"context":"زوممار · تەلعەفەر · نەینەوا","category":"گوند"},"geometry":{"type":"Point","coordinates":[42.2875,36.89583]}},{"type":"Feature","id":"osm-node-2486486742","properties":{"id":"osm-node-2486486742","name":"شێخان","kind":"village","tier":"locality","priority":300,"context":"زوممار · تەلعەفەر · نەینەوا","category":"گوند"},"geometry":{"type":"Point","coordinates":[42.3642151,36.8854304]}},{"type":"Feature","id":"geonames-384810","properties":{"id":"geonames-384810","name":"عومەر خالید","kind":"village","tier":"locality","priority":300,"context":"زوممار · تەلعەفەر · نەینەوا","category":"گوند"},"geometry":{"type":"Point","coordinates":[42.36013,36.93363]}},{"type":"Feature","id":"geonames-384811","properties":{"id":"geonames-384811","name":"عومەر سەڵاح","kind":"village","tier":"locality","priority":300,"context":"زوممار · تەلعەفەر · نەینەوا","category":"گوند"},"geometry":{"type":"Point","coordinates":[42.33205,36.92931]}},{"type":"Feature","id":"osm-node-2488238293","properties":{"id":"osm-node-2488238293","name":"مشارا","kind":"village","tier":"locality","priority":300,"context":"سێمێل · دهۆک","category":"گوند"},"geometry":{"type":"Point","coordinates":[42.448658,36.988577]}},{"type":"Feature","id":"osm-node-2488238276","properties":{"id":"osm-node-2488238276","name":"مچری","kind":"village","tier":"locality","priority":300,"context":"زوممار · تەلعەفەر · نەینەوا","category":"گوند"},"geometry":{"type":"Point","coordinates":[42.34828,36.975917]}},{"type":"Feature","id":"geonames-93154","properties":{"id":"geonames-93154","name":"کلهی","kind":"village","tier":"locality","priority":300,"context":"زوممار · تەلعەفەر · نەینەوا","category":"گوند"},"geometry":{"type":"Point","coordinates":[42.27082,36.95579]}},{"type":"Feature","id":"osm-node-12083009106","properties":{"id":"osm-node-12083009106","name":"کوندی حمد ئاغا","kind":"village","tier":"locality","priority":300,"context":"زوممار · تەلعەفەر · نەینەوا","category":"گوند"},"geometry":{"type":"Point","coordinates":[42.4225323,36.8169539]}},{"type":"Feature","id":"osm-natural-mountain-2b4b9e48b64072","properties":{"id":"osm-natural-mountain-2b4b9e48b64072","name":"Mashurah Dagh","kind":"natural","tier":"natural","priority":180,"context":"شاخ · تەلعەفەر · نەینەوا","category":"شاخ"},"geometry":{"type":"Point","coordinates":[42.43306,36.94278]}},{"type":"Feature","id":"osm-natural-valley-2921b305cb042d","properties":{"id":"osm-natural-valley-2921b305cb042d","name":"Wadi Cham Nayif","kind":"natural","tier":"natural","priority":180,"context":"دۆڵ · تەلعەفەر · نەینەوا","category":"دۆڵ"},"geometry":{"type":"Point","coordinates":[42.44381,36.96461]}},{"type":"Feature","id":"osm-natural-valley-acacdf725fc674","properties":{"id":"osm-natural-valley-acacdf725fc674","name":"Wadi Gali Kandu","kind":"natural","tier":"natural","priority":180,"context":"دۆڵ · سميل · دهۆک","category":"دۆڵ"},"geometry":{"type":"Point","coordinates":[42.42057,36.9889]}},{"type":"Feature","id":"osm-natural-valley-7fa358c5c285de","properties":{"id":"osm-natural-valley-7fa358c5c285de","name":"Wadi Mishrfah","kind":"natural","tier":"natural","priority":180,"context":"دۆڵ · تەلعەفەر · نەینەوا","category":"دۆڵ"},"geometry":{"type":"Point","coordinates":[42.29083,36.75028]}},{"type":"Feature","id":"osm-natural-hill-8c90c8e9b964f4","properties":{"id":"osm-natural-hill-8c90c8e9b964f4","name":"تل الفردي","kind":"natural","tier":"natural","priority":180,"context":"گرد · تەلعەفەر · نەینەوا","category":"گرد"},"geometry":{"type":"Point","coordinates":[42.2883,36.83733]}},{"type":"Feature","id":"osm-natural-stream-9bf7cc60ace18b","properties":{"id":"osm-natural-stream-9bf7cc60ace18b","name":"مشروع الجزيرة الجنوبي","kind":"natural","tier":"natural","priority":180,"context":"جۆگە · تەلعەفەر · نەینەوا","category":"جۆگە"},"geometry":{"type":"Point","coordinates":[42.30023,36.76826]}},{"type":"Feature","id":"osm-natural-valley-09353809bb10dc","properties":{"id":"osm-natural-valley-09353809bb10dc","name":"وادي السويدي","kind":"natural","tier":"natural","priority":180,"context":"دۆڵ · تەلعەفەر · نەینەوا","category":"دۆڵ"},"geometry":{"type":"Point","coordinates":[42.42574,36.84409]}},{"type":"Feature","id":"osm-natural-valley-e6116aab765811","properties":{"id":"osm-natural-valley-e6116aab765811","name":"وادي خنزير","kind":"natural","tier":"natural","priority":180,"context":"دۆڵ · تەلعەفەر · نەینەوا","category":"دۆڵ"},"geometry":{"type":"Point","coordinates":[42.3046,36.92964]}},{"type":"Feature","id":"osm-natural-stream-a2e72d9b8e70ef","properties":{"id":"osm-natural-stream-a2e72d9b8e70ef","name":"وادي سويدية","kind":"natural","tier":"natural","priority":180,"context":"جۆگە · تەلعەفەر · نەینەوا","category":"جۆگە"},"geometry":{"type":"Point","coordinates":[42.44793,36.84992]}},{"type":"Feature","id":"osm-natural-valley-ee4515e3ce81fc","properties":{"id":"osm-natural-valley-ee4515e3ce81fc","name":"وادي عسيلة","kind":"natural","tier":"natural","priority":180,"context":"دۆڵ · تەلعەفەر · نەینەوا","category":"دۆڵ"},"geometry":{"type":"Point","coordinates":[42.30944,36.88167]}},{"type":"Feature","id":"osm-natural-valley-736390a84149db","properties":{"id":"osm-natural-valley-736390a84149db","name":"وادي فرحان","kind":"natural","tier":"natural","priority":180,"context":"دۆڵ · تەلعەفەر · نەینەوا","category":"دۆڵ"},"geometry":{"type":"Point","coordinates":[42.35867,36.86025]}},{"type":"Feature","id":"osm-natural-valley-48509b821209ac","properties":{"id":"osm-natural-valley-48509b821209ac","name":"وادي كربير","kind":"natural","tier":"natural","priority":180,"context":"دۆڵ · تەلعەفەر · نەینەوا","category":"دۆڵ"},"geometry":{"type":"Point","coordinates":[42.42656,36.84489]}},{"type":"Feature","id":"osm-natural-valley-b4cc3134280e54","properties":{"id":"osm-natural-valley-b4cc3134280e54","name":"وادي كرلوند","kind":"natural","tier":"natural","priority":180,"context":"دۆڵ · تەلعەفەر · نەینەوا","category":"دۆڵ"},"geometry":{"type":"Point","coordinates":[42.38759,36.82016]}},{"type":"Feature","id":"osm-natural-valley-bd0328c9c6d034","properties":{"id":"osm-natural-valley-bd0328c9c6d034","name":"وادي كزال","kind":"natural","tier":"natural","priority":180,"context":"دۆڵ · تەلعەفەر · نەینەوا","category":"دۆڵ"},"geometry":{"type":"Point","coordinates":[42.30664,36.92353]}},{"type":"Feature","id":"osm-natural-valley-52e5154734f938","properties":{"id":"osm-natural-valley-52e5154734f938","name":"وادي كشتة","kind":"natural","tier":"natural","priority":180,"context":"دۆڵ · تەلعەفەر · نەینەوا","category":"دۆڵ"},"geometry":{"type":"Point","coordinates":[42.41212,36.97885]}},{"type":"Feature","id":"osm-natural-valley-62be5946540f90","properties":{"id":"osm-natural-valley-62be5946540f90","name":"وادي ماسكة","kind":"natural","tier":"natural","priority":180,"context":"دۆڵ · تەلعەفەر · نەینەوا","category":"دۆڵ"},"geometry":{"type":"Point","coordinates":[42.31041,36.88098]}},{"type":"Feature","id":"osm-natural-valley-bb8bfe002b9344","properties":{"id":"osm-natural-valley-bb8bfe002b9344","name":"وادي يانهي","kind":"natural","tier":"natural","priority":180,"context":"دۆڵ · تەلعەفەر · نەینەوا","category":"دۆڵ"},"geometry":{"type":"Point","coordinates":[42.48935,36.88264]}},{"type":"Feature","id":"osm-node-8571663217-fuel","properties":{"id":"osm-node-8571663217-fuel","name":"دکازن محطە صفیە","kind":"poi","tier":"poi_regional","priority":82.094,"context":"وێستگەی سووتەمەنی","category":"وێستگەی سووتەمەنی"},"geometry":{"type":"Point","coordinates":[42.2610168,36.9176545]}},{"type":"Feature","id":"osm-node-11111143899-police","properties":{"id":"osm-node-11111143899-police","name":"مخفر ماسکە","kind":"poi","tier":"poi_regional","priority":77.1,"context":"بنکەی پۆلیس","category":"بنکەی پۆلیس"},"geometry":{"type":"Point","coordinates":[42.316053,36.991197]}},{"type":"Feature","id":"osm-node-11111201685-police","properties":{"id":"osm-node-11111201685-police","name":"مخفر کلهی","kind":"poi","tier":"poi_regional","priority":77.1,"context":"بنکەی پۆلیس","category":"بنکەی پۆلیس"},"geometry":{"type":"Point","coordinates":[42.275837,36.966781]}},{"type":"Feature","id":"osm-node-11111201607-police","properties":{"id":"osm-node-11111201607-police","name":"ملحق ماسکە","kind":"poi","tier":"poi_regional","priority":77.1,"context":"بنکەی پۆلیس","category":"بنکەی پۆلیس"},"geometry":{"type":"Point","coordinates":[42.2920088,36.9855454]}},{"type":"Feature","id":"osm-way-294693131-residential","properties":{"id":"osm-way-294693131-residential","name":"الشیخان","kind":"poi","tier":"poi_local","priority":68.045,"context":"کۆمپاوندی نیشتەجێبوون","category":"کۆمپاوندی نیشتەجێبوون"},"geometry":{"type":"Point","coordinates":[42.3647394,36.8840241]}},{"type":"Feature","id":"osm-way-293175709-residential","properties":{"id":"osm-way-293175709-residential","name":"عمر خلە","kind":"poi","tier":"poi_local","priority":68.045,"context":"کۆمپاوندی نیشتەجێبوون","category":"کۆمپاوندی نیشتەجێبوون"},"geometry":{"type":"Point","coordinates":[42.3595919,36.9340744]}},{"type":"Feature","id":"osm-node-10869037105-school","properties":{"id":"osm-node-10869037105-school","name":"القریە جم باهیفی","kind":"poi","tier":"poi_detail","priority":50.1,"context":"قوتابخانە","category":"قوتابخانە"},"geometry":{"type":"Point","coordinates":[42.4141352,36.953926]}},{"type":"Feature","id":"osm-way-1381997636-school","properties":{"id":"osm-way-1381997636-school","name":"قوتابخانا چیاڤان","kind":"poi","tier":"poi_detail","priority":50.092,"context":"قوتابخانە","category":"قوتابخانە"},"geometry":{"type":"Point","coordinates":[42.4683032,36.799834]}},{"type":"Feature","id":"osm-node-4729033391-monument","properties":{"id":"osm-node-4729033391-monument","name":"جسر","kind":"poi","tier":"poi_detail","priority":50.1,"context":"پەیکەر","category":"پەیکەر"},"geometry":{"type":"Point","coordinates":[42.3784978,36.8539963]}},{"type":"Feature","id":"osm-node-4729008790-monument","properties":{"id":"osm-node-4729008790-monument","name":"طسە","kind":"poi","tier":"poi_detail","priority":50.1,"context":"پەیکەر","category":"پەیکەر"},"geometry":{"type":"Point","coordinates":[42.4712866,36.7976506]}},{"type":"Feature","id":"osm-node-4729008791-monument","properties":{"id":"osm-node-4729008791-monument","name":"طسە","kind":"poi","tier":"poi_detail","priority":50.1,"context":"پەیکەر","category":"پەیکەر"},"geometry":{"type":"Point","coordinates":[42.4695866,36.798351]}},{"type":"Feature","id":"osm-node-4729022093-monument","properties":{"id":"osm-node-4729022093-monument","name":"طسە","kind":"poi","tier":"poi_detail","priority":50.1,"context":"پەیکەر","category":"پەیکەر"},"geometry":{"type":"Point","coordinates":[42.4729656,36.7969634]}},{"type":"Feature","id":"osm-node-4729033390-monument","properties":{"id":"osm-node-4729033390-monument","name":"طسە","kind":"poi","tier":"poi_detail","priority":50.1,"context":"پەیکەر","category":"پەیکەر"},"geometry":{"type":"Point","coordinates":[42.3848502,36.8446334]}},{"type":"Feature","id":"osm-node-4729038890-monument","properties":{"id":"osm-node-4729038890-monument","name":"طسە","kind":"poi","tier":"poi_detail","priority":50.1,"context":"پەیکەر","category":"پەیکەر"},"geometry":{"type":"Point","coordinates":[42.3574564,36.9077382]}},{"type":"Feature","id":"osm-node-5299391622-camp_site","properties":{"id":"osm-node-5299391622-camp_site","name":"مشجب فوج مغاویر الاول","kind":"poi","tier":"poi_detail","priority":50.1,"context":"کەمپینگ","category":"کەمپینگ"},"geometry":{"type":"Point","coordinates":[42.4750304,36.7970016]}},{"type":"Feature","id":"osm-node-5307971023-pub","properties":{"id":"osm-node-5307971023-pub","name":"موقعی","kind":"poi","tier":"poi_detail","priority":50.1,"context":"پەب","category":"پەب"},"geometry":{"type":"Point","coordinates":[42.3830684,36.8256519]}},{"type":"Feature","id":"osm-node-4451396590-muslim_sunni","properties":{"id":"osm-node-4451396590-muslim_sunni","name":"جامع شیبانا","kind":"poi","tier":"poi_detail","priority":50.098,"context":"مزگەوت","category":"مزگەوت"},"geometry":{"type":"Point","coordinates":[42.322533,36.9916217]}}]}