{"type":"FeatureCollection","features":[{"type":"Feature","id":"osm-node-2488238235","properties":{"id":"osm-node-2488238235","name":"باجد بەراڤ","kind":"village","tier":"locality","priority":300,"context":"سێمێل · دهۆک","category":"گوند"},"geometry":{"type":"Point","coordinates":[42.40131,37.023305]}},{"type":"Feature","id":"geonames-6910081","properties":{"id":"geonames-6910081","name":"باجد میری","kind":"village","tier":"locality","priority":300,"context":"سێمێل · دهۆک","category":"گوند"},"geometry":{"type":"Point","coordinates":[42.46012,37.05025]}},{"type":"Feature","id":"osm-node-2488213550","properties":{"id":"osm-node-2488213550","name":"باجد کەنداڵ","kind":"village","tier":"locality","priority":300,"context":"سێمێل · دهۆک","category":"گوند"},"geometry":{"type":"Point","coordinates":[42.4496266,37.0456737]}},{"type":"Feature","id":"osm-node-2488213556","properties":{"id":"osm-node-2488213556","name":"خەراپ کانی عەرەب","kind":"village","tier":"locality","priority":300,"context":"سێمێل · دهۆک","category":"گوند"},"geometry":{"type":"Point","coordinates":[42.464614,37.0273342]}},{"type":"Feature","id":"osm-node-2488238242","properties":{"id":"osm-node-2488238242","name":"دێرەبوون","kind":"village","tier":"locality","priority":300,"context":"زاخۆ · دهۆک","category":"گوند"},"geometry":{"type":"Point","coordinates":[42.4257702,37.0852605]}},{"type":"Feature","id":"geonames-11793201","properties":{"id":"geonames-11793201","name":"سوریا","kind":"village","tier":"locality","priority":300,"context":"سێمێل · دهۆک","category":"گوند"},"geometry":{"type":"Point","coordinates":[42.48525,37.00207]}},{"type":"Feature","id":"osm-node-2488238313","properties":{"id":"osm-node-2488238313","name":"شایلە","kind":"village","tier":"locality","priority":300,"context":"زوممار · تەلعەفەر · نەینەوا","category":"گوند"},"geometry":{"type":"Point","coordinates":[42.341556,37.0154915]}},{"type":"Feature","id":"geonames-6910083","properties":{"id":"geonames-6910083","name":"شیگلیە","kind":"village","tier":"locality","priority":300,"context":"زوممار · تەلعەفەر · نەینەوا","category":"گوند"},"geometry":{"type":"Point","coordinates":[42.39342,37.01958]}},{"type":"Feature","id":"osm-node-2488213564","properties":{"id":"osm-node-2488213564","name":"مێرگەسوور","kind":"village","tier":"locality","priority":300,"context":"سێمێل · دهۆک","category":"گوند"},"geometry":{"type":"Point","coordinates":[42.483333,37.083333]}},{"type":"Feature","id":"geonames-95787","properties":{"id":"geonames-95787","name":"هێتیان","kind":"village","tier":"locality","priority":300,"context":"زاخۆ · دهۆک","category":"گوند"},"geometry":{"type":"Point","coordinates":[42.49396,37.12621]}},{"type":"Feature","id":"osm-node-2488213567","properties":{"id":"osm-node-2488213567","name":"پێ بزنێ","kind":"village","tier":"locality","priority":300,"context":"سێمێل · دهۆک","category":"گوند"},"geometry":{"type":"Point","coordinates":[42.489952,37.040668]}},{"type":"Feature","id":"geonames-6910082","properties":{"id":"geonames-6910082","name":"گۆزگران","kind":"village","tier":"locality","priority":300,"context":"زوممار · تەلعەفەر · نەینەوا","category":"گوند"},"geometry":{"type":"Point","coordinates":[42.40021,37.00562]}},{"type":"Feature","id":"osm-node-2488238244","properties":{"id":"osm-node-2488238244","name":"پێش خابوور","kind":"hamlet","tier":"locality","priority":250,"context":"زاخۆ · دهۆک","category":"گوندۆکە"},"geometry":{"type":"Point","coordinates":[42.392337,37.0786146]}},{"type":"Feature","id":"osm-natural-mountain-a5b526b7acd3ce","properties":{"id":"osm-natural-mountain-a5b526b7acd3ce","name":"Jabal Bikhayr","kind":"natural","tier":"natural","priority":180,"context":"شاخ · سميل · دهۆک","category":"شاخ"},"geometry":{"type":"Point","coordinates":[42.47306,37.09]}},{"type":"Feature","id":"osm-natural-river-103e46cce31c18","properties":{"id":"osm-natural-river-103e46cce31c18","name":"دیجلە","kind":"natural","tier":"natural","priority":180,"context":"ڕووبار · زاخو · دهۆک","category":"ڕووبار"},"geometry":{"type":"Point","coordinates":[42.3739601,37.0479328]}},{"type":"Feature","id":"osm-natural-valley-807aee14e2f1cf","properties":{"id":"osm-natural-valley-807aee14e2f1cf","name":"وادي خانتور","kind":"natural","tier":"natural","priority":180,"context":"دۆڵ · سميل · دهۆک","category":"دۆڵ"},"geometry":{"type":"Point","coordinates":[42.41372,37.01098]}},{"type":"Feature","id":"osm-natural-valley-0037abc240aa61","properties":{"id":"osm-natural-valley-0037abc240aa61","name":"وادي كاركل","kind":"natural","tier":"natural","priority":180,"context":"دۆڵ · سميل · دهۆک","category":"دۆڵ"},"geometry":{"type":"Point","coordinates":[42.49968,37.01422]}},{"type":"Feature","id":"osm-natural-valley-0ddafe127a1079","properties":{"id":"osm-natural-valley-0ddafe127a1079","name":"وادي كاركوران","kind":"natural","tier":"natural","priority":180,"context":"دۆڵ · سميل · دهۆک","category":"دۆڵ"},"geometry":{"type":"Point","coordinates":[42.40314,37.01812]}},{"type":"Feature","id":"osm-natural-stream-60b58e80a8c617","properties":{"id":"osm-natural-stream-60b58e80a8c617","name":"وادي مور","kind":"natural","tier":"natural","priority":180,"context":"جۆگە · زاخو · دهۆک","category":"جۆگە"},"geometry":{"type":"Point","coordinates":[42.37916,37.04256]}},{"type":"Feature","id":"road-label-osm-way-793871884","properties":{"id":"road-label-osm-way-793871884","name":"M88","kind":"road","tier":"road","priority":100,"context":"motorway · سميل · دهۆک","category":"ڕێگا"},"geometry":{"type":"Point","coordinates":[42.436315,37.072223]}},{"type":"Feature","id":"road-label-osm-way-793871886","properties":{"id":"road-label-osm-way-793871886","name":"طريق سيمالكا","kind":"road","tier":"road","priority":100,"context":"motorway · سميل · دهۆک","category":"ڕێگا"},"geometry":{"type":"Point","coordinates":[42.440413,37.072761]}},{"type":"Feature","id":"road-label-osm-way-790226270","properties":{"id":"road-label-osm-way-790226270","name":"88","kind":"road","tier":"road","priority":98,"context":"motorway · سميل · دهۆک","category":"ڕێگا"},"geometry":{"type":"Point","coordinates":[42.437878,37.074166]}},{"type":"Feature","id":"road-label-osm-way-790226272","properties":{"id":"road-label-osm-way-790226272","name":"88","kind":"road","tier":"road","priority":95,"context":"trunk · زاخو · دهۆک","category":"ڕێگا"},"geometry":{"type":"Point","coordinates":[42.430222,37.082722]}},{"type":"Feature","id":"road-label-osm-way-793871882","properties":{"id":"road-label-osm-way-793871882","name":"طريق الحدود التركية والسورية","kind":"road","tier":"road","priority":95,"context":"trunk · سميل · دهۆک","category":"ڕێگا"},"geometry":{"type":"Point","coordinates":[42.434302,37.076057]}},{"type":"Feature","id":"road-label-osm-way-20178780","properties":{"id":"road-label-osm-way-20178780","name":"طريق سيمالكا","kind":"road","tier":"road","priority":95,"context":"trunk · زاخو · دهۆک","category":"ڕێگا"},"geometry":{"type":"Point","coordinates":[42.391349,37.077474]}},{"type":"Feature","id":"road-label-osm-way-130601900","properties":{"id":"road-label-osm-way-130601900","name":"جسر فيشخابور","kind":"road","tier":"road","priority":88,"context":"primary · زاخو · دهۆک","category":"ڕێگا"},"geometry":{"type":"Point","coordinates":[42.377534,37.045474]}},{"type":"Feature","id":"osm-way-976285439-military","properties":{"id":"osm-way-976285439-military","name":"حرس حدود","kind":"poi","tier":"poi_regional","priority":80.045,"context":"بنکەی سەربازی","category":"بنکەی سەربازی"},"geometry":{"type":"Point","coordinates":[42.3755208,37.1058431]}},{"type":"Feature","id":"osm-node-8496813617-attraction","properties":{"id":"osm-node-8496813617-attraction","name":"DEŞTA HESNA","kind":"poi","tier":"poi_detail","priority":50.1,"context":"شوێنی گەشتیاری","category":"شوێنی گەشتیاری"},"geometry":{"type":"Point","coordinates":[42.3570132,37.0172703]}},{"type":"Feature","id":"osm-node-8496813717-attraction","properties":{"id":"osm-node-8496813717-attraction","name":"DEŞTA HESNA","kind":"poi","tier":"poi_detail","priority":50.1,"context":"شوێنی گەشتیاری","category":"شوێنی گەشتیاری"},"geometry":{"type":"Point","coordinates":[42.3653132,37.0173939]}},{"type":"Feature","id":"osm-node-11111201657-police","properties":{"id":"osm-node-11111201657-police","name":"مخفر النهر","kind":"poi","tier":"poi_regional","priority":77.1,"context":"بنکەی پۆلیس","category":"بنکەی پۆلیس"},"geometry":{"type":"Point","coordinates":[42.3657342,37.0499582]}},{"type":"Feature","id":"osm-way-311772789-residential","properties":{"id":"osm-way-311772789-residential","name":"دێرەبوون","kind":"poi","tier":"poi_local","priority":68.045,"context":"کۆمپاوندی نیشتەجێبوون","category":"کۆمپاوندی نیشتەجێبوون"},"geometry":{"type":"Point","coordinates":[42.4267421,37.0852189]}},{"type":"Feature","id":"osm-way-293730006-residential","properties":{"id":"osm-way-293730006-residential","name":"قریە سحیلە","kind":"poi","tier":"poi_local","priority":68.045,"context":"کۆمپاوندی نیشتەجێبوون","category":"کۆمپاوندی نیشتەجێبوون"},"geometry":{"type":"Point","coordinates":[42.3425962,37.0157679]}},{"type":"Feature","id":"osm-way-243905949-industrial","properties":{"id":"osm-way-243905949-industrial","name":"انبوب نفط فیش خابور","kind":"poi","tier":"poi_local","priority":66.045,"context":"ناوچەی پیشەسازی","category":"ناوچەی پیشەسازی"},"geometry":{"type":"Point","coordinates":[42.4051798,37.0848166]}},{"type":"Feature","id":"osm-way-892788606-industrial","properties":{"id":"osm-way-892788606-industrial","name":"معمل البان زاخو","kind":"poi","tier":"poi_local","priority":66.045,"context":"ناوچەی پیشەسازی","category":"ناوچەی پیشەسازی"},"geometry":{"type":"Point","coordinates":[42.4989946,37.1262679]}},{"type":"Feature","id":"osm-node-8491860917-supermarket","properties":{"id":"osm-node-8491860917-supermarket","name":"DEŞTA HESNA","kind":"poi","tier":"poi_detail","priority":50.1,"context":"سۆپەرمارکێت","category":"سۆپەرمارکێت"},"geometry":{"type":"Point","coordinates":[42.3752522,37.0344819]}},{"type":"Feature","id":"osm-node-8491915217-supermarket","properties":{"id":"osm-node-8491915217-supermarket","name":"bazarê deşta hesna","kind":"poi","tier":"poi_detail","priority":50.1,"context":"سۆپەرمارکێت","category":"سۆپەرمارکێت"},"geometry":{"type":"Point","coordinates":[42.3737059,37.0286686]}},{"type":"Feature","id":"osm-node-8491861117-viewpoint","properties":{"id":"osm-node-8491861117-viewpoint","name":"DEŞTA HESNA","kind":"poi","tier":"poi_detail","priority":50.1,"context":"شوێنی سەیران","category":"شوێنی سەیران"},"geometry":{"type":"Point","coordinates":[42.3845412,37.0181096]}},{"type":"Feature","id":"osm-node-8507198417-viewpoint","properties":{"id":"osm-node-8507198417-viewpoint","name":"DEŞTA HESNA","kind":"poi","tier":"poi_detail","priority":50.1,"context":"شوێنی سەیران","category":"شوێنی سەیران"},"geometry":{"type":"Point","coordinates":[42.3509272,37.0381423]}},{"type":"Feature","id":"osm-node-8491861017-camp_site","properties":{"id":"osm-node-8491861017-camp_site","name":"grçepera seri jhê hesna","kind":"poi","tier":"poi_detail","priority":50.1,"context":"کەمپینگ","category":"کەمپینگ"},"geometry":{"type":"Point","coordinates":[42.3661187,37.032414]}},{"type":"Feature","id":"osm-node-8191353118-greengrocer","properties":{"id":"osm-node-8191353118-greengrocer","name":"دکانێت گوزگیرانی لدەشتا هەسنان","kind":"poi","tier":"poi_detail","priority":50.1,"context":"میوە و سەوزە فرۆشی","category":"میوە و سەوزە فرۆشی"},"geometry":{"type":"Point","coordinates":[42.3638216,37.0343652]}},{"type":"Feature","id":"osm-node-8191353217-greengrocer","properties":{"id":"osm-node-8191353217-greengrocer","name":"دکانێت گوزگیرانی لدەشتا هەسنان","kind":"poi","tier":"poi_detail","priority":50.1,"context":"میوە و سەوزە فرۆشی","category":"میوە و سەوزە فرۆشی"},"geometry":{"type":"Point","coordinates":[42.3739205,37.0286248]}},{"type":"Feature","id":"osm-node-9519049017-beverages","properties":{"id":"osm-node-9519049017-beverages","name":"معمل تیان للمیاه المعدنیە","kind":"poi","tier":"poi_detail","priority":50.1,"context":"فرۆشگای خواردنەوە","category":"فرۆشگای خواردنەوە"},"geometry":{"type":"Point","coordinates":[42.4559346,37.1077069]}},{"type":"Feature","id":"osm-node-9990774617-bar","properties":{"id":"osm-node-9990774617-bar","name":"کۆمپانیای جی جی ئێف زێد","kind":"poi","tier":"poi_detail","priority":50.1,"context":"بار","category":"بار"},"geometry":{"type":"Point","coordinates":[42.4233235,37.0700527]}},{"type":"Feature","id":"osm-node-8191877617-camp_site","properties":{"id":"osm-node-8191877617-camp_site","name":"گوندێ گرچەپرا خوارێ دڤەرا هەسنان","kind":"poi","tier":"poi_detail","priority":50.1,"context":"کەمپینگ","category":"کەمپینگ"},"geometry":{"type":"Point","coordinates":[42.3540463,37.0255755]}},{"type":"Feature","id":"osm-way-878861128-christian","properties":{"id":"osm-way-878861128-christian","name":"کنیسە قلب الیسوع الاقدس","kind":"poi","tier":"poi_detail","priority":50.09,"context":"کەلیسای مەسیحی","category":"کەلیسای مەسیحی"},"geometry":{"type":"Point","coordinates":[42.4217104,37.0853958]}}]}