{"type":"FeatureCollection","features":[{"type":"Feature","id":"osm-node-2482493083","properties":{"id":"osm-node-2482493083","name":"لێڤو","kind":"village","tier":"locality","priority":335.836,"context":"زاخۆ · دهۆک","category":"گوند"},"geometry":{"type":"Point","coordinates":[42.9253423,37.1484274]}},{"type":"Feature","id":"osm-node-9926677919","properties":{"id":"osm-node-9926677919","name":"ئاشانکێ","kind":"village","tier":"locality","priority":300,"context":"دهۆک · دهۆک","category":"گوند"},"geometry":{"type":"Point","coordinates":[42.8925492,37.050809]}},{"type":"Feature","id":"osm-node-2482493033","properties":{"id":"osm-node-2482493033","name":"ئاڤ گەنی","kind":"village","tier":"locality","priority":300,"context":"زاخۆ · دهۆک","category":"گوند"},"geometry":{"type":"Point","coordinates":[42.9189215,37.1816922]}},{"type":"Feature","id":"osm-node-12002752304","properties":{"id":"osm-node-12002752304","name":"ئهرمشتێ","kind":"village","tier":"locality","priority":300,"context":"سێمێل · دهۆک","category":"گوند"},"geometry":{"type":"Point","coordinates":[42.7980295,37.0498338]}},{"type":"Feature","id":"osm-node-12002788527","properties":{"id":"osm-node-12002788527","name":"ئوزمانا","kind":"village","tier":"locality","priority":300,"context":"دهۆک · دهۆک","category":"گوند"},"geometry":{"type":"Point","coordinates":[42.9444611,37.0575102]}},{"type":"Feature","id":"osm-node-2482492833","properties":{"id":"osm-node-2482492833","name":"ئێکمالا","kind":"village","tier":"locality","priority":300,"context":"دهۆک · دهۆک","category":"گوند"},"geometry":{"type":"Point","coordinates":[42.9698436,37.0745488]}},{"type":"Feature","id":"osm-node-2480161709","properties":{"id":"osm-node-2480161709","name":"ئەڤلەهێ","kind":"village","tier":"locality","priority":300,"context":"زاخۆ · دهۆک","category":"گوند"},"geometry":{"type":"Point","coordinates":[42.9437607,37.230168]}},{"type":"Feature","id":"osm-node-2482493037","properties":{"id":"osm-node-2482493037","name":"باجلێ","kind":"village","tier":"locality","priority":300,"context":"زاخۆ · دهۆک","category":"گوند"},"geometry":{"type":"Point","coordinates":[42.9151572,37.0885593]}},{"type":"Feature","id":"osm-node-2482492844","properties":{"id":"osm-node-2482492844","name":"باساغا","kind":"village","tier":"locality","priority":300,"context":"زاخۆ · دهۆک","category":"گوند"},"geometry":{"type":"Point","coordinates":[42.8120573,37.0639583]}},{"type":"Feature","id":"osm-node-2480166964","properties":{"id":"osm-node-2480166964","name":"بانکێ","kind":"village","tier":"locality","priority":300,"context":"زاخۆ · دهۆک","category":"گوند"},"geometry":{"type":"Point","coordinates":[42.9675428,37.2202178]}},{"type":"Feature","id":"osm-node-2484311349","properties":{"id":"osm-node-2484311349","name":"باڤیا","kind":"village","tier":"locality","priority":300,"context":"سێمێل · دهۆک","category":"گوند"},"geometry":{"type":"Point","coordinates":[42.769493,37.010895]}},{"type":"Feature","id":"osm-node-2482493036","properties":{"id":"osm-node-2482493036","name":"باگولات","kind":"village","tier":"locality","priority":300,"context":"زاخۆ · دهۆک","category":"گوند"},"geometry":{"type":"Point","coordinates":[42.91182,37.123888]}},{"type":"Feature","id":"osm-node-2482492842","properties":{"id":"osm-node-2482492842","name":"برجین","kind":"village","tier":"locality","priority":300,"context":"دهۆک · دهۆک","category":"گوند"},"geometry":{"type":"Point","coordinates":[42.85691,37.009941]}},{"type":"Feature","id":"geonames-446061","properties":{"id":"geonames-446061","name":"برهاوە","kind":"village","tier":"locality","priority":300,"context":"دهۆک · دهۆک","category":"گوند"},"geometry":{"type":"Point","coordinates":[42.85625,37.03537]}},{"type":"Feature","id":"geonames-11770186","properties":{"id":"geonames-11770186","name":"برو حەجەرا","kind":"village","tier":"locality","priority":300,"context":"دهۆک · دهۆک","category":"گوند"},"geometry":{"type":"Point","coordinates":[42.97266,37.0043]}},{"type":"Feature","id":"geonames-9802208","properties":{"id":"geonames-9802208","name":"بهێری","kind":"village","tier":"locality","priority":300,"context":"زاخۆ · دهۆک","category":"گوند"},"geometry":{"type":"Point","coordinates":[42.81884,37.23979]}},{"type":"Feature","id":"osm-node-2480161741","properties":{"id":"osm-node-2480161741","name":"بیربلا","kind":"village","tier":"locality","priority":300,"context":"زاخۆ · دهۆک","category":"گوند"},"geometry":{"type":"Point","coordinates":[42.926936,37.243403]}},{"type":"Feature","id":"osm-node-2480161735","properties":{"id":"osm-node-2480161735","name":"بێرسڤێ","kind":"village","tier":"locality","priority":300,"context":"زاخۆ · دهۆک","category":"گوند"},"geometry":{"type":"Point","coordinates":[42.8554722,37.1907488]}},{"type":"Feature","id":"geonames-97742","properties":{"id":"geonames-97742","name":"بێزهێ","kind":"village","tier":"locality","priority":300,"context":"زاخۆ · دهۆک","category":"گوند"},"geometry":{"type":"Point","coordinates":[42.76186,37.05728]}},{"type":"Feature","id":"osm-node-12616333174","properties":{"id":"osm-node-12616333174","name":"بێغهبارێ","kind":"village","tier":"locality","priority":300,"context":"زاخۆ · دهۆک","category":"گوند"},"geometry":{"type":"Point","coordinates":[42.9915937,37.1300766]}},{"type":"Feature","id":"osm-node-9520472744","properties":{"id":"osm-node-9520472744","name":"بەرکەڤر","kind":"village","tier":"locality","priority":300,"context":"زاخۆ · دهۆک","category":"گوند"},"geometry":{"type":"Point","coordinates":[42.778886,37.0911212]}},{"type":"Feature","id":"osm-node-2482493039","properties":{"id":"osm-node-2482493039","name":"بەرکەڤرێ","kind":"village","tier":"locality","priority":300,"context":"زاخۆ · دهۆک","category":"گوند"},"geometry":{"type":"Point","coordinates":[42.8953753,37.1046999]}},{"type":"Feature","id":"osm-node-2482493325","properties":{"id":"osm-node-2482493325","name":"بەهراڤا","kind":"village","tier":"locality","priority":300,"context":"زاخۆ · دهۆک","category":"گوند"},"geometry":{"type":"Point","coordinates":[42.825163,37.162134]}},{"type":"Feature","id":"osm-node-2480165991","properties":{"id":"osm-node-2480165991","name":"تاوک","kind":"village","tier":"locality","priority":300,"context":"زاخۆ · دهۆک","category":"گوند"},"geometry":{"type":"Point","coordinates":[42.7637691,37.1340407]}},{"type":"Feature","id":"osm-node-2482492864","properties":{"id":"osm-node-2482492864","name":"تلاکرو","kind":"village","tier":"locality","priority":300,"context":"دهۆک · دهۆک","category":"گوند"},"geometry":{"type":"Point","coordinates":[42.86007,37.065745]}},{"type":"Feature","id":"osm-node-2482493142","properties":{"id":"osm-node-2482493142","name":"توکا","kind":"village","tier":"locality","priority":300,"context":"زاخۆ · دهۆک","category":"گوند"},"geometry":{"type":"Point","coordinates":[42.8911301,37.109254]}},{"type":"Feature","id":"osm-node-2484311363","properties":{"id":"osm-node-2484311363","name":"تێرک حەسەن","kind":"village","tier":"locality","priority":300,"context":"زاخۆ · دهۆک","category":"گوند"},"geometry":{"type":"Point","coordinates":[42.8007496,37.1279987]}},{"type":"Feature","id":"geonames-90263","properties":{"id":"geonames-90263","name":"تێرک سمۆ","kind":"village","tier":"locality","priority":300,"context":"زاخۆ · دهۆک","category":"گوند"},"geometry":{"type":"Point","coordinates":[42.84697,37.13526]}},{"type":"Feature","id":"osm-node-2482493345","properties":{"id":"osm-node-2482493345","name":"تێرک مام یەزدین","kind":"village","tier":"locality","priority":300,"context":"زاخۆ · دهۆک","category":"گوند"},"geometry":{"type":"Point","coordinates":[42.8367606,37.134523]}},{"type":"Feature","id":"geonames-11766327","properties":{"id":"geonames-11766327","name":"خاندق","kind":"village","tier":"locality","priority":300,"context":"زاخۆ · دهۆک","category":"گوند"},"geometry":{"type":"Point","coordinates":[42.97427,37.18361]}},{"type":"Feature","id":"geonames-446092","properties":{"id":"geonames-446092","name":"خرخەپکا","kind":"village","tier":"locality","priority":300,"context":"دهۆک · دهۆک","category":"گوند"},"geometry":{"type":"Point","coordinates":[42.9165,37.08205]}},{"type":"Feature","id":"osm-node-2480166972","properties":{"id":"osm-node-2480166972","name":"خوەکێ","kind":"village","tier":"locality","priority":300,"context":"زاخۆ · دهۆک","category":"گوند"},"geometry":{"type":"Point","coordinates":[42.937927,37.166699]}},{"type":"Feature","id":"osm-node-2480166968","properties":{"id":"osm-node-2480166968","name":"خیزاڤا","kind":"village","tier":"locality","priority":300,"context":"زاخۆ · دهۆک","category":"گوند"},"geometry":{"type":"Point","coordinates":[42.963174,37.195822]}},{"type":"Feature","id":"osm-node-2482492848","properties":{"id":"osm-node-2482492848","name":"درگال شێخ","kind":"village","tier":"locality","priority":300,"context":"دهۆک · دهۆک","category":"گوند"},"geometry":{"type":"Point","coordinates":[42.879249,37.014573]}},{"type":"Feature","id":"geonames-446125","properties":{"id":"geonames-446125","name":"دەحلک","kind":"village","tier":"locality","priority":300,"context":"زاخۆ · دهۆک","category":"گوند"},"geometry":{"type":"Point","coordinates":[42.77212,37.23147]}},{"type":"Feature","id":"osm-node-2480166966","properties":{"id":"osm-node-2480166966","name":"دەحلک","kind":"village","tier":"locality","priority":300,"context":"زاخۆ · دهۆک","category":"گوند"},"geometry":{"type":"Point","coordinates":[42.9768027,37.1774545]}},{"type":"Feature","id":"geonames-89478","properties":{"id":"geonames-89478","name":"زێوک","kind":"village","tier":"locality","priority":300,"context":"زاخۆ · دهۆک","category":"گوند"},"geometry":{"type":"Point","coordinates":[42.90423,37.13384]}},{"type":"Feature","id":"geonames-446118","properties":{"id":"geonames-446118","name":"زێوک بوسەل","kind":"village","tier":"locality","priority":300,"context":"زاخۆ · دهۆک","category":"گوند"},"geometry":{"type":"Point","coordinates":[42.90026,37.20989]}},{"type":"Feature","id":"osm-node-12002797311","properties":{"id":"osm-node-12002797311","name":"زێوکا عهبوی","kind":"village","tier":"locality","priority":300,"context":"دهۆک · دهۆک","category":"گوند"},"geometry":{"type":"Point","coordinates":[42.9962431,37.0380553]}},{"type":"Feature","id":"geonames-446093","properties":{"id":"geonames-446093","name":"سندارۆک","kind":"village","tier":"locality","priority":300,"context":"زاخۆ · دهۆک","category":"گوند"},"geometry":{"type":"Point","coordinates":[42.92839,37.09739]}},{"type":"Feature","id":"geonames-6998224","properties":{"id":"geonames-6998224","name":"سنداڤا","kind":"village","tier":"locality","priority":300,"context":"زاخۆ · دهۆک","category":"گوند"},"geometry":{"type":"Point","coordinates":[42.86613,37.20704]}},{"type":"Feature","id":"osm-node-2482493135","properties":{"id":"osm-node-2482493135","name":"سپیندارۆک","kind":"village","tier":"locality","priority":300,"context":"زاخۆ · دهۆک","category":"گوند"},"geometry":{"type":"Point","coordinates":[42.9230574,37.107475]}},{"type":"Feature","id":"geonames-9184650","properties":{"id":"geonames-9184650","name":"سیارا ستەورێ","kind":"village","tier":"locality","priority":300,"context":"زاخۆ · دهۆک","category":"گوند"},"geometry":{"type":"Point","coordinates":[42.98323,37.22167]}},{"type":"Feature","id":"osm-node-2480166976","properties":{"id":"osm-node-2480166976","name":"سیرکوتک","kind":"village","tier":"locality","priority":300,"context":"زاخۆ · دهۆک","category":"گوند"},"geometry":{"type":"Point","coordinates":[42.9765318,37.1812275]}},{"type":"Feature","id":"osm-node-2482492863","properties":{"id":"osm-node-2482492863","name":"سەرئاڤکێ","kind":"village","tier":"locality","priority":300,"context":"دهۆک · دهۆک","category":"گوند"},"geometry":{"type":"Point","coordinates":[42.9273791,37.0677888]}},{"type":"Feature","id":"osm-node-2480166984","properties":{"id":"osm-node-2480166984","name":"سەرسۆلاڤ","kind":"village","tier":"locality","priority":300,"context":"زاخۆ · دهۆک","category":"گوند"},"geometry":{"type":"Point","coordinates":[42.8761477,37.1596642]}},{"type":"Feature","id":"osm-node-2482493342","properties":{"id":"osm-node-2482493342","name":"سەرکۆ","kind":"village","tier":"locality","priority":300,"context":"زاخۆ · دهۆک","category":"گوند"},"geometry":{"type":"Point","coordinates":[42.829922,37.118027]}},{"type":"Feature","id":"osm-node-2482492176","properties":{"id":"osm-node-2482492176","name":"شاوریکێ","kind":"village","tier":"locality","priority":300,"context":"دهۆک · دهۆک","category":"گوند"},"geometry":{"type":"Point","coordinates":[42.9870464,37.0069285]}},{"type":"Feature","id":"osm-node-2480158673","properties":{"id":"osm-node-2480158673","name":"شەرانش نساری","kind":"village","tier":"locality","priority":300,"context":"زاخۆ · دهۆک","category":"گوند"},"geometry":{"type":"Point","coordinates":[42.8662772,37.2429219]}},{"type":"Feature","id":"osm-way-822073096","properties":{"id":"osm-way-822073096","name":"شەرانشێ","kind":"village","tier":"locality","priority":300,"context":"زاخۆ · دهۆک","category":"گوند"},"geometry":{"type":"Point","coordinates":[42.84597143111807,37.23426375]}},{"type":"Feature","id":"osm-node-2484311365","properties":{"id":"osm-node-2484311365","name":"عومەر ئاغا","kind":"village","tier":"locality","priority":300,"context":"زاخۆ · دهۆک","category":"گوند"},"geometry":{"type":"Point","coordinates":[42.785977,37.15098]}},{"type":"Feature","id":"geonames-446078","properties":{"id":"geonames-446078","name":"مسلمەت","kind":"village","tier":"locality","priority":300,"context":"زاخۆ · دهۆک","category":"گوند"},"geometry":{"type":"Point","coordinates":[42.81236,37.0643]}},{"type":"Feature","id":"osm-node-2480166974","properties":{"id":"osm-node-2480166974","name":"ملا عەرەب","kind":"village","tier":"locality","priority":300,"context":"زاخۆ · دهۆک","category":"گوند"},"geometry":{"type":"Point","coordinates":[42.9464361,37.1860028]}},{"type":"Feature","id":"geonames-99657","properties":{"id":"geonames-99657","name":"میندک","kind":"village","tier":"locality","priority":300,"context":"دهۆک · دهۆک","category":"گوند"},"geometry":{"type":"Point","coordinates":[42.94828,37.01131]}},{"type":"Feature","id":"osm-node-12616350063","properties":{"id":"osm-node-12616350063","name":"مێرگێ","kind":"village","tier":"locality","priority":300,"context":"زاخۆ · دهۆک","category":"گوند"},"geometry":{"type":"Point","coordinates":[42.997543,37.1892005]}},{"type":"Feature","id":"osm-node-2480161728","properties":{"id":"osm-node-2480161728","name":"مێرگێ","kind":"village","tier":"locality","priority":300,"context":"زاخۆ · دهۆک","category":"گوند"},"geometry":{"type":"Point","coordinates":[42.7928972,37.2104835]}},{"type":"Feature","id":"osm-node-2482493086","properties":{"id":"osm-node-2482493086","name":"مێرگە سۆر","kind":"village","tier":"locality","priority":300,"context":"زاخۆ · دهۆک","category":"گوند"},"geometry":{"type":"Point","coordinates":[42.895254,37.132294]}},{"type":"Feature","id":"geonames-11770185","properties":{"id":"geonames-11770185","name":"ناڤدارا","kind":"village","tier":"locality","priority":300,"context":"دهۆک · دهۆک","category":"گوند"},"geometry":{"type":"Point","coordinates":[42.97531,37.01093]}},{"type":"Feature","id":"osm-node-2482492859","properties":{"id":"osm-node-2482492859","name":"ناڤشکێ","kind":"village","tier":"locality","priority":300,"context":"دهۆک · دهۆک","category":"گوند"},"geometry":{"type":"Point","coordinates":[42.9770281,37.0577242]}},{"type":"Feature","id":"osm-node-9520456963","properties":{"id":"osm-node-9520456963","name":"ناڤکەنداڵ","kind":"village","tier":"locality","priority":300,"context":"زاخۆ · دهۆک","category":"گوند"},"geometry":{"type":"Point","coordinates":[42.8988023,37.1505414]}},{"type":"Feature","id":"osm-node-2482493331","properties":{"id":"osm-node-2482493331","name":"هیزاڤا","kind":"village","tier":"locality","priority":300,"context":"زاخۆ · دهۆک","category":"گوند"},"geometry":{"type":"Point","coordinates":[42.8102463,37.1776728]}},{"type":"Feature","id":"geonames-97905","properties":{"id":"geonames-97905","name":"پرکاڤ خابور","kind":"village","tier":"locality","priority":300,"context":"زاخۆ · دهۆک","category":"گوند"},"geometry":{"type":"Point","coordinates":[42.77917,37.09135]}},{"type":"Feature","id":"geonames-446077","properties":{"id":"geonames-446077","name":"پشیلک","kind":"village","tier":"locality","priority":300,"context":"زاخۆ · دهۆک","category":"گوند"},"geometry":{"type":"Point","coordinates":[42.8198,37.08286]}},{"type":"Feature","id":"osm-node-2482492694","properties":{"id":"osm-node-2482492694","name":"چڕان","kind":"village","tier":"locality","priority":300,"context":"دهۆک · دهۆک","category":"گوند"},"geometry":{"type":"Point","coordinates":[42.9282,37.022795]}},{"type":"Feature","id":"geonames-97425","properties":{"id":"geonames-97425","name":"چەم باهیف","kind":"village","tier":"locality","priority":300,"context":"زاخۆ · دهۆک","category":"گوند"},"geometry":{"type":"Point","coordinates":[42.7628,37.10178]}},{"type":"Feature","id":"geonames-11766326","properties":{"id":"geonames-11766326","name":"چەم جهۆر","kind":"village","tier":"locality","priority":300,"context":"زاخۆ · دهۆک","category":"گوند"},"geometry":{"type":"Point","coordinates":[42.96561,37.19326]}},{"type":"Feature","id":"geonames-446122","properties":{"id":"geonames-446122","name":"چەم کورک","kind":"village","tier":"locality","priority":300,"context":"زاخۆ · دهۆک","category":"گوند"},"geometry":{"type":"Point","coordinates":[42.95978,37.21889]}},{"type":"Feature","id":"geonames-446087","properties":{"id":"geonames-446087","name":"چەمتر","kind":"village","tier":"locality","priority":300,"context":"دهۆک · دهۆک","category":"گوند"},"geometry":{"type":"Point","coordinates":[42.88216,37.08519]}},{"type":"Feature","id":"osm-node-2482493333","properties":{"id":"osm-node-2482493333","name":"چەمکێ دەلا","kind":"village","tier":"locality","priority":300,"context":"زاخۆ · دهۆک","category":"گوند"},"geometry":{"type":"Point","coordinates":[42.852011,37.086979]}},{"type":"Feature","id":"osm-node-2482493070","properties":{"id":"osm-node-2482493070","name":"کرپت تیمور","kind":"village","tier":"locality","priority":300,"context":"زاخۆ · دهۆک","category":"گوند"},"geometry":{"type":"Point","coordinates":[42.9547025,37.1112786]}},{"type":"Feature","id":"osm-node-13324153406","properties":{"id":"osm-node-13324153406","name":"کهرپت","kind":"village","tier":"locality","priority":300,"context":"زاخۆ · دهۆک","category":"گوند"},"geometry":{"type":"Point","coordinates":[42.942504,37.1035743]}},{"type":"Feature","id":"osm-node-2482493038","properties":{"id":"osm-node-2482493038","name":"کهڤر بلک","kind":"village","tier":"locality","priority":300,"context":"زاخۆ · دهۆک","category":"گوند"},"geometry":{"type":"Point","coordinates":[42.9148925,37.0973736]}},{"type":"Feature","id":"osm-node-2482493334","properties":{"id":"osm-node-2482493334","name":"کەبەروک","kind":"village","tier":"locality","priority":300,"context":"زاخۆ · دهۆک","category":"گوند"},"geometry":{"type":"Point","coordinates":[42.8137938,37.1396855]}},{"type":"Feature","id":"geonames-446098","properties":{"id":"geonames-446098","name":"گرک","kind":"village","tier":"locality","priority":300,"context":"زاخۆ · دهۆک","category":"گوند"},"geometry":{"type":"Point","coordinates":[42.78272,37.18104]}},{"type":"Feature","id":"osm-node-5893516064","properties":{"id":"osm-node-5893516064","name":"گرکێ","kind":"village","tier":"locality","priority":300,"context":"زاخۆ · دهۆک","category":"گوند"},"geometry":{"type":"Point","coordinates":[42.7837951,37.1809098]}},{"type":"Feature","id":"geonames-446111","properties":{"id":"geonames-446111","name":"گری","kind":"village","tier":"locality","priority":300,"context":"زاخۆ · دهۆک","category":"گوند"},"geometry":{"type":"Point","coordinates":[42.9706,37.19087]}},{"type":"Feature","id":"geonames-446110","properties":{"id":"geonames-446110","name":"گری بەڤشۆ","kind":"village","tier":"locality","priority":300,"context":"زاخۆ · دهۆک","category":"گوند"},"geometry":{"type":"Point","coordinates":[42.97485,37.16166]}},{"type":"Feature","id":"osm-node-2482493053","properties":{"id":"osm-node-2482493053","name":"گوند کۆسە","kind":"village","tier":"locality","priority":300,"context":"دهۆک · دهۆک","category":"گوند"},"geometry":{"type":"Point","coordinates":[42.9437257,37.09172]}},{"type":"Feature","id":"osm-node-2480161793","properties":{"id":"osm-node-2480161793","name":"گوندک ئەیوب","kind":"village","tier":"locality","priority":300,"context":"زاخۆ · دهۆک","category":"گوند"},"geometry":{"type":"Point","coordinates":[42.869341,37.2012]}},{"type":"Feature","id":"osm-node-12966083481","properties":{"id":"osm-node-12966083481","name":"گوندی ناڤدارا","kind":"village","tier":"locality","priority":300,"context":"دهۆک · دهۆک","category":"گوند"},"geometry":{"type":"Point","coordinates":[42.9751332,37.0108228]}},{"type":"Feature","id":"osm-node-12965997571","properties":{"id":"osm-node-12965997571","name":"گوندێ گری","kind":"village","tier":"locality","priority":300,"context":"زاخۆ · دهۆک","category":"گوند"},"geometry":{"type":"Point","coordinates":[42.9739451,37.1891807]}},{"type":"Feature","id":"osm-node-2480161852","properties":{"id":"osm-node-2480161852","name":"یوسف ئاڤا","kind":"village","tier":"locality","priority":300,"context":"زاخۆ · دهۆک","category":"گوند"},"geometry":{"type":"Point","coordinates":[42.854598,37.206621]}},{"type":"Feature","id":"osm-node-2480158625","properties":{"id":"osm-node-2480158625","name":"بهەل","kind":"locality","tier":"locality","priority":200,"context":"زاخۆ · دهۆک","category":"شوێنی ناوخۆیی"},"geometry":{"type":"Point","coordinates":[42.8948754,37.2110909]}},{"type":"Feature","id":"osm-node-2480158649","properties":{"id":"osm-node-2480158649","name":"سندی","kind":"locality","tier":"locality","priority":200,"context":"زاخۆ · دهۆک","category":"شوێنی ناوخۆیی"},"geometry":{"type":"Point","coordinates":[42.846756,37.235568]}},{"type":"Feature","id":"osm-natural-mountain-6e5bd07efac1f0","properties":{"id":"osm-natural-mountain-6e5bd07efac1f0","name":"Bask-e Sarko","kind":"natural","tier":"natural","priority":180,"context":"شاخ · زاخو · دهۆک","category":"شاخ"},"geometry":{"type":"Point","coordinates":[42.80697,37.10742]}},{"type":"Feature","id":"osm-natural-stream-1ed4fc5b33f493","properties":{"id":"osm-natural-stream-1ed4fc5b33f493","name":"Dol-i Bahirank","kind":"natural","tier":"natural","priority":180,"context":"جۆگە · دهوك · دهۆک","category":"جۆگە"},"geometry":{"type":"Point","coordinates":[42.97306,37.00389]}},{"type":"Feature","id":"osm-natural-river-f19543b6ff9095","properties":{"id":"osm-natural-river-f19543b6ff9095","name":"Gali Kalsha","kind":"natural","tier":"natural","priority":180,"context":"ڕووبار · زاخو · دهۆک","category":"ڕووبار"},"geometry":{"type":"Point","coordinates":[42.87389,37.22111]}},{"type":"Feature","id":"osm-natural-mountain-e9292bcf282916","properties":{"id":"osm-natural-mountain-e9292bcf282916","name":"Nizar-i Haliz","kind":"natural","tier":"natural","priority":180,"context":"شاخ · زاخو · دهۆک","category":"شاخ"},"geometry":{"type":"Point","coordinates":[42.99639,37.23056]}},{"type":"Feature","id":"osm-natural-stream-39f0a45f4c74ec","properties":{"id":"osm-natural-stream-39f0a45f4c74ec","name":"Shiv-a Dahlink","kind":"natural","tier":"natural","priority":180,"context":"جۆگە · زاخو · دهۆک","category":"جۆگە"},"geometry":{"type":"Point","coordinates":[42.89528,37.14222]}},{"type":"Feature","id":"osm-natural-valley-7aff5ce942fb64","properties":{"id":"osm-natural-valley-7aff5ce942fb64","name":"Shiv-a Hiski","kind":"natural","tier":"natural","priority":180,"context":"دۆڵ · دهوك · دهۆک","category":"دۆڵ"},"geometry":{"type":"Point","coordinates":[42.90027,37.0425]}},{"type":"Feature","id":"osm-natural-valley-d89c240d105fbc","properties":{"id":"osm-natural-valley-d89c240d105fbc","name":"Shiv-a Mala","kind":"natural","tier":"natural","priority":180,"context":"دۆڵ · زاخو · دهۆک","category":"دۆڵ"},"geometry":{"type":"Point","coordinates":[42.96497,37.12296]}},{"type":"Feature","id":"osm-natural-valley-ea08be7bbfb8e2","properties":{"id":"osm-natural-valley-ea08be7bbfb8e2","name":"Wadi Banig","kind":"natural","tier":"natural","priority":180,"context":"دۆڵ · زاخو · دهۆک","category":"دۆڵ"},"geometry":{"type":"Point","coordinates":[42.99473,37.13369]}},{"type":"Feature","id":"osm-natural-valley-e6ba574110b1b4","properties":{"id":"osm-natural-valley-e6ba574110b1b4","name":"Wadi Jalal Navishkay","kind":"natural","tier":"natural","priority":180,"context":"دۆڵ · دهوك · دهۆک","category":"دۆڵ"},"geometry":{"type":"Point","coordinates":[42.9369,37.06553]}},{"type":"Feature","id":"osm-natural-valley-f36ccdffb2fb6c","properties":{"id":"osm-natural-valley-f36ccdffb2fb6c","name":"Wadi Rugarm","kind":"natural","tier":"natural","priority":180,"context":"دۆڵ · زاخو · دهۆک","category":"دۆڵ"},"geometry":{"type":"Point","coordinates":[42.81023,37.06402]}},{"type":"Feature","id":"osm-natural-lake-bf144540a7c93a","properties":{"id":"osm-natural-lake-bf144540a7c93a","name":"kaniya xema natural spring","kind":"natural","tier":"natural","priority":180,"context":"دەریاچە · زاخو · دهۆک","category":"دەریاچە"},"geometry":{"type":"Point","coordinates":[42.9680857,37.2081199]}},{"type":"Feature","id":"osm-natural-peak-1d37a388eeb3f3","properties":{"id":"osm-natural-peak-1d37a388eeb3f3","name":"باسكي سري طلخي","kind":"natural","tier":"natural","priority":180,"context":"لوتکە · دهوك · دهۆک","category":"لوتکە"},"geometry":{"type":"Point","coordinates":[42.96205,37.07015]}},{"type":"Feature","id":"osm-natural-mountain-154d0927b61fb9","properties":{"id":"osm-natural-mountain-154d0927b61fb9","name":"جبل بيرسيفي","kind":"natural","tier":"natural","priority":180,"context":"شاخ · زاخو · دهۆک","category":"شاخ"},"geometry":{"type":"Point","coordinates":[42.88932,37.19662]}},{"type":"Feature","id":"osm-natural-mountain-c863583fb8d296","properties":{"id":"osm-natural-mountain-c863583fb8d296","name":"جبل دير","kind":"natural","tier":"natural","priority":180,"context":"شاخ · زاخو · دهۆک","category":"شاخ"},"geometry":{"type":"Point","coordinates":[42.8968,37.20807]}},{"type":"Feature","id":"osm-natural-mountain-cda1527b88fa37","properties":{"id":"osm-natural-mountain-cda1527b88fa37","name":"جبل شاباني","kind":"natural","tier":"natural","priority":180,"context":"شاخ · زاخو · دهۆک","category":"شاخ"},"geometry":{"type":"Point","coordinates":[42.98582,37.20828]}},{"type":"Feature","id":"osm-natural-mountain-020f748d15bc12","properties":{"id":"osm-natural-mountain-020f748d15bc12","name":"جبل كلاش","kind":"natural","tier":"natural","priority":180,"context":"شاخ · دهوك · دهۆک","category":"شاخ"},"geometry":{"type":"Point","coordinates":[42.97538,37.03482]}},{"type":"Feature","id":"osm-natural-peak-a2c16a484477b8","properties":{"id":"osm-natural-peak-a2c16a484477b8","name":"سركي غاخوي","kind":"natural","tier":"natural","priority":180,"context":"لوتکە · زاخو · دهۆک","category":"لوتکە"},"geometry":{"type":"Point","coordinates":[42.9019,37.23459]}},{"type":"Feature","id":"osm-natural-peak-d7f6586b0bc7cf","properties":{"id":"osm-natural-peak-d7f6586b0bc7cf","name":"قمة سري دري","kind":"natural","tier":"natural","priority":180,"context":"لوتکە · زاخو · دهۆک","category":"لوتکە"},"geometry":{"type":"Point","coordinates":[42.90875,37.21553]}},{"type":"Feature","id":"osm-natural-valley-c6bc6a9aa4a2e5","properties":{"id":"osm-natural-valley-c6bc6a9aa4a2e5","name":"كانيا خةما","kind":"natural","tier":"natural","priority":180,"context":"دۆڵ · زاخو · دهۆک","category":"دۆڵ"},"geometry":{"type":"Point","coordinates":[42.9684023,37.2082734]}},{"type":"Feature","id":"osm-natural-valley-da5ce64666f7c8","properties":{"id":"osm-natural-valley-da5ce64666f7c8","name":"وادي الوله","kind":"natural","tier":"natural","priority":180,"context":"دۆڵ · زاخو · دهۆک","category":"دۆڵ"},"geometry":{"type":"Point","coordinates":[42.75113,37.13156]}},{"type":"Feature","id":"osm-natural-valley-166eca038af4d3","properties":{"id":"osm-natural-valley-166eca038af4d3","name":"وادي بلبقة","kind":"natural","tier":"natural","priority":180,"context":"دۆڵ · زاخو · دهۆک","category":"دۆڵ"},"geometry":{"type":"Point","coordinates":[42.8677,37.17888]}},{"type":"Feature","id":"osm-natural-valley-8336ff82cc015b","properties":{"id":"osm-natural-valley-8336ff82cc015b","name":"وادي جلال","kind":"natural","tier":"natural","priority":180,"context":"دۆڵ · زاخو · دهۆک","category":"دۆڵ"},"geometry":{"type":"Point","coordinates":[42.82849,37.1849]}},{"type":"Feature","id":"osm-natural-valley-6b02da5fa89904","properties":{"id":"osm-natural-valley-6b02da5fa89904","name":"وادي دفرو","kind":"natural","tier":"natural","priority":180,"context":"دۆڵ · زاخو · دهۆک","category":"دۆڵ"},"geometry":{"type":"Point","coordinates":[42.81827,37.1252]}},{"type":"Feature","id":"osm-natural-valley-136425ef7627d6","properties":{"id":"osm-natural-valley-136425ef7627d6","name":"وادي دوله","kind":"natural","tier":"natural","priority":180,"context":"دۆڵ · زاخو · دهۆک","category":"دۆڵ"},"geometry":{"type":"Point","coordinates":[42.79293,37.06104]}},{"type":"Feature","id":"osm-natural-valley-f740f1d41e94ac","properties":{"id":"osm-natural-valley-f740f1d41e94ac","name":"وادي سولاف","kind":"natural","tier":"natural","priority":180,"context":"دۆڵ · زاخو · دهۆک","category":"دۆڵ"},"geometry":{"type":"Point","coordinates":[42.86815,37.13793]}},{"type":"Feature","id":"osm-natural-valley-100927d0e0bd36","properties":{"id":"osm-natural-valley-100927d0e0bd36","name":"وادي شيربيش","kind":"natural","tier":"natural","priority":180,"context":"دۆڵ · زاخو · دهۆک","category":"دۆڵ"},"geometry":{"type":"Point","coordinates":[42.90381,37.18107]}},{"type":"Feature","id":"osm-natural-valley-7b23b0dbbdbf37","properties":{"id":"osm-natural-valley-7b23b0dbbdbf37","name":"وادي كاني بياره","kind":"natural","tier":"natural","priority":180,"context":"دۆڵ · زاخو · دهۆک","category":"دۆڵ"},"geometry":{"type":"Point","coordinates":[42.95159,37.22167]}},{"type":"Feature","id":"osm-natural-valley-3c7667ccb8c18c","properties":{"id":"osm-natural-valley-3c7667ccb8c18c","name":"وادي كرين","kind":"natural","tier":"natural","priority":180,"context":"دۆڵ · زاخو · دهۆک","category":"دۆڵ"},"geometry":{"type":"Point","coordinates":[42.86775,37.24395]}},{"type":"Feature","id":"osm-natural-valley-d7aa5f168736d8","properties":{"id":"osm-natural-valley-d7aa5f168736d8","name":"وادي كل كفو","kind":"natural","tier":"natural","priority":180,"context":"دۆڵ · زاخو · دهۆک","category":"دۆڵ"},"geometry":{"type":"Point","coordinates":[42.81999,37.07897]}},{"type":"Feature","id":"osm-natural-valley-682bd003d2b942","properties":{"id":"osm-natural-valley-682bd003d2b942","name":"وادي نيهفان","kind":"natural","tier":"natural","priority":180,"context":"دۆڵ · زاخو · دهۆک","category":"دۆڵ"},"geometry":{"type":"Point","coordinates":[42.95017,37.22086]}},{"type":"Feature","id":"road-label-osm-way-436383266","properties":{"id":"road-label-osm-way-436383266","name":"رێکا زاخۆ - باتیفا","kind":"road","tier":"road","priority":95,"context":"trunk · زاخو · دهۆک","category":"ڕێگا"},"geometry":{"type":"Point","coordinates":[42.89404,37.181785]}},{"type":"Feature","id":"road-label-osm-way-1294933481","properties":{"id":"road-label-osm-way-1294933481","name":"Avlih - Sheranish Rd","kind":"road","tier":"road","priority":72,"context":"secondary · زاخو · دهۆک","category":"ڕێگا"},"geometry":{"type":"Point","coordinates":[42.95632,37.21892]}},{"type":"Feature","id":"road-label-osm-way-418777025","properties":{"id":"road-label-osm-way-418777025","name":"Batifa (banik) - Sheranish Rd","kind":"road","tier":"road","priority":72,"context":"secondary · زاخو · دهۆک","category":"ڕێگا"},"geometry":{"type":"Point","coordinates":[42.901843,37.221732]}},{"type":"Feature","id":"road-label-osm-way-418776991","properties":{"id":"road-label-osm-way-418776991","name":"Perekh - Sheransh Road","kind":"road","tier":"road","priority":72,"context":"secondary · زاخو · دهۆک","category":"ڕێگا"},"geometry":{"type":"Point","coordinates":[42.832063,37.219941]}},{"type":"Feature","id":"road-label-osm-way-418777011","properties":{"id":"road-label-osm-way-418777011","name":"Sheransh Road","kind":"road","tier":"road","priority":72,"context":"secondary · زاخو · دهۆک","category":"ڕێگا"},"geometry":{"type":"Point","coordinates":[42.847819,37.226918]}},{"type":"Feature","id":"road-label-osm-way-436428764","properties":{"id":"road-label-osm-way-436428764","name":"طريق ليفو - باطوفا","kind":"road","tier":"road","priority":72,"context":"secondary · زاخو · دهۆک","category":"ڕێگا"},"geometry":{"type":"Point","coordinates":[42.92766,37.171913]}},{"type":"Feature","id":"road-label-osm-way-863113399","properties":{"id":"road-label-osm-way-863113399","name":"Avlih u Pirbla Rd","kind":"road","tier":"road","priority":55,"context":"tertiary · زاخو · دهۆک","category":"ڕێگا"},"geometry":{"type":"Point","coordinates":[42.940605,37.228863]}},{"type":"Feature","id":"road-label-osm-way-418777035","properties":{"id":"road-label-osm-way-418777035","name":"Parakh Road","kind":"road","tier":"road","priority":55,"context":"tertiary · زاخو · دهۆک","category":"ڕێگا"},"geometry":{"type":"Point","coordinates":[42.816125,37.240804]}},{"type":"Feature","id":"road-label-osm-way-418777016","properties":{"id":"road-label-osm-way-418777016","name":"Sheransh Road","kind":"road","tier":"road","priority":55,"context":"tertiary · زاخو · دهۆک","category":"ڕێگا"},"geometry":{"type":"Point","coordinates":[42.852632,37.23001]}},{"type":"Feature","id":"road-label-osm-way-1144360890","properties":{"id":"road-label-osm-way-1144360890","name":"Syara Stawre Road","kind":"road","tier":"road","priority":55,"context":"tertiary · زاخو · دهۆک","category":"ڕێگا"},"geometry":{"type":"Point","coordinates":[42.987627,37.223067]}},{"type":"Feature","id":"osm-node-5248775722-hospital","properties":{"id":"osm-node-5248775722-hospital","name":"بنگەهێ ساخلەمی یێ دەرکار","kind":"poi","tier":"poi_landmark","priority":95.1,"context":"نەخۆشخانە","category":"نەخۆشخانە"},"geometry":{"type":"Point","coordinates":[42.8248984,37.2010873]}},{"type":"Feature","id":"osm-way-542382668-hospital","properties":{"id":"osm-way-542382668-hospital","name":"نەخوشخانا باتیفا","kind":"poi","tier":"poi_landmark","priority":95.092,"context":"نەخۆشخانە","category":"نەخۆشخانە"},"geometry":{"type":"Point","coordinates":[42.995535,37.1814496]}},{"type":"Feature","id":"osm-node-11950572652-attraction","properties":{"id":"osm-node-11950572652-attraction","name":"Bihir Cave","kind":"poi","tier":"poi_detail","priority":50.1,"context":"شوێنی گەشتیاری","category":"شوێنی گەشتیاری"},"geometry":{"type":"Point","coordinates":[42.823847,37.2405384]}},{"type":"Feature","id":"osm-node-5745605721-attraction","properties":{"id":"osm-node-5745605721-attraction","name":"Lêva Xabîrî","kind":"poi","tier":"poi_detail","priority":50.1,"context":"شوێنی گەشتیاری","category":"شوێنی گەشتیاری"},"geometry":{"type":"Point","coordinates":[42.7946274,37.0689394]}},{"type":"Feature","id":"osm-node-12045996199-attraction","properties":{"id":"osm-node-12045996199-attraction","name":"Near Mount peak","kind":"poi","tier":"poi_detail","priority":50.1,"context":"شوێنی گەشتیاری","category":"شوێنی گەشتیاری"},"geometry":{"type":"Point","coordinates":[42.947333,37.2265801]}},{"type":"Feature","id":"osm-node-10651771122-attraction","properties":{"id":"osm-node-10651771122-attraction","name":"Snow Seasonal","kind":"poi","tier":"poi_detail","priority":50.1,"context":"شوێنی گەشتیاری","category":"شوێنی گەشتیاری"},"geometry":{"type":"Point","coordinates":[42.991849,37.2228576]}},{"type":"Feature","id":"osm-node-8986522818-attraction","properties":{"id":"osm-node-8986522818-attraction","name":"بەندافا درکار","kind":"poi","tier":"poi_detail","priority":50.1,"context":"شوێنی گەشتیاری","category":"شوێنی گەشتیاری"},"geometry":{"type":"Point","coordinates":[42.8282398,37.2047231]}},{"type":"Feature","id":"osm-node-9926677219-attraction","properties":{"id":"osm-node-9926677219-attraction","name":"جم تر","kind":"poi","tier":"poi_detail","priority":50.1,"context":"شوێنی گەشتیاری","category":"شوێنی گەشتیاری"},"geometry":{"type":"Point","coordinates":[42.8817403,37.0852855]}},{"type":"Feature","id":"osm-node-8986522917-attraction","properties":{"id":"osm-node-8986522917-attraction","name":"سد درکار","kind":"poi","tier":"poi_detail","priority":50.1,"context":"شوێنی گەشتیاری","category":"شوێنی گەشتیاری"},"geometry":{"type":"Point","coordinates":[42.8281085,37.2044918]}},{"type":"Feature","id":"osm-node-11421083570-attraction","properties":{"id":"osm-node-11421083570-attraction","name":"کهف بهیر زاخو","kind":"poi","tier":"poi_detail","priority":50.1,"context":"شوێنی گەشتیاری","category":"شوێنی گەشتیاری"},"geometry":{"type":"Point","coordinates":[42.8241174,37.2400231]}},{"type":"Feature","id":"osm-node-5424714322-fuel","properties":{"id":"osm-node-5424714322-fuel","name":"DNO","kind":"poi","tier":"poi_regional","priority":82.094,"context":"وێستگەی سووتەمەنی","category":"وێستگەی سووتەمەنی"},"geometry":{"type":"Point","coordinates":[42.7884377,37.1285973]}},{"type":"Feature","id":"osm-node-12405190990-fuel","properties":{"id":"osm-node-12405190990-fuel","name":"Gulan Oil","kind":"poi","tier":"poi_regional","priority":82.094,"context":"وێستگەی سووتەمەنی","category":"وێستگەی سووتەمەنی"},"geometry":{"type":"Point","coordinates":[42.8006572,37.1828768]}},{"type":"Feature","id":"osm-node-4790792421-fuel","properties":{"id":"osm-node-4790792421-fuel","name":"zever oil","kind":"poi","tier":"poi_regional","priority":82.094,"context":"وێستگەی سووتەمەنی","category":"وێستگەی سووتەمەنی"},"geometry":{"type":"Point","coordinates":[42.9995812,37.1810238]}},{"type":"Feature","id":"osm-node-6186722185-police","properties":{"id":"osm-node-6186722185-police","name":"زالگه ها سنوری","kind":"poi","tier":"poi_regional","priority":77.1,"context":"بنکەی پۆلیس","category":"بنکەی پۆلیس"},"geometry":{"type":"Point","coordinates":[42.8398205,37.2259181]}},{"type":"Feature","id":"osm-way-11743871-residential","properties":{"id":"osm-way-11743871-residential","name":"Derkar","kind":"poi","tier":"poi_local","priority":68.045,"context":"کۆمپاوندی نیشتەجێبوون","category":"کۆمپاوندی نیشتەجێبوون"},"geometry":{"type":"Point","coordinates":[42.8239121,37.2001894]}},{"type":"Feature","id":"osm-way-931060178-residential","properties":{"id":"osm-way-931060178-residential","name":"Navishke","kind":"poi","tier":"poi_local","priority":68.045,"context":"کۆمپاوندی نیشتەجێبوون","category":"کۆمپاوندی نیشتەجێبوون"},"geometry":{"type":"Point","coordinates":[42.9771341,37.0575621]}},{"type":"Feature","id":"osm-way-931060170-residential","properties":{"id":"osm-way-931060170-residential","name":"Ozmana","kind":"poi","tier":"poi_local","priority":68.045,"context":"کۆمپاوندی نیشتەجێبوون","category":"کۆمپاوندی نیشتەجێبوون"},"geometry":{"type":"Point","coordinates":[42.9450864,37.0585071]}},{"type":"Feature","id":"osm-way-822073096-residential","properties":{"id":"osm-way-822073096-residential","name":"شرانش / ܫܪܢܘܫ","kind":"poi","tier":"poi_local","priority":68.045,"context":"کۆمپاوندی نیشتەجێبوون","category":"کۆمپاوندی نیشتەجێبوون"},"geometry":{"type":"Point","coordinates":[42.8459714,37.2342637]}},{"type":"Feature","id":"osm-way-605896171-residential","properties":{"id":"osm-way-605896171-residential","name":"میرکه سور","kind":"poi","tier":"poi_local","priority":68.045,"context":"کۆمپاوندی نیشتەجێبوون","category":"کۆمپاوندی نیشتەجێبوون"},"geometry":{"type":"Point","coordinates":[42.8946953,37.1316033]}},{"type":"Feature","id":"osm-way-1288922077-industrial","properties":{"id":"osm-way-1288922077-industrial","name":"معمل غاز","kind":"poi","tier":"poi_local","priority":66.045,"context":"ناوچەی پیشەسازی","category":"ناوچەی پیشەسازی"},"geometry":{"type":"Point","coordinates":[42.7617227,37.1451443]}},{"type":"Feature","id":"osm-way-605900079-industrial","properties":{"id":"osm-way-605900079-industrial","name":"کێڵگەی نەوتی تاوکێ","kind":"poi","tier":"poi_local","priority":66.045,"context":"ناوچەی پیشەسازی","category":"ناوچەی پیشەسازی"},"geometry":{"type":"Point","coordinates":[42.7941785,37.1353423]}},{"type":"Feature","id":"osm-node-12063706919-school","properties":{"id":"osm-node-12063706919-school","name":"Amadaye Darkar ya tekal","kind":"poi","tier":"poi_detail","priority":50.1,"context":"قوتابخانە","category":"قوتابخانە"},"geometry":{"type":"Point","coordinates":[42.8178717,37.1991344]}},{"type":"Feature","id":"osm-node-11961453059-school","properties":{"id":"osm-node-11961453059-school","name":"Sirkutik School","kind":"poi","tier":"poi_detail","priority":50.1,"context":"قوتابخانە","category":"قوتابخانە"},"geometry":{"type":"Point","coordinates":[42.9801063,37.1820254]}},{"type":"Feature","id":"osm-node-5390551322-school","properties":{"id":"osm-node-5390551322-school","name":"darkar school","kind":"poi","tier":"poi_detail","priority":50.1,"context":"قوتابخانە","category":"قوتابخانە"},"geometry":{"type":"Point","coordinates":[42.8233599,37.2013344]}},{"type":"Feature","id":"osm-node-10657313599-marketplace","properties":{"id":"osm-node-10657313599-marketplace","name":"mini market","kind":"poi","tier":"poi_detail","priority":50.1,"context":"بازاڕ","category":"بازاڕ"},"geometry":{"type":"Point","coordinates":[42.9597657,37.1890554]}},{"type":"Feature","id":"osm-node-4984411421-school","properties":{"id":"osm-node-4984411421-school","name":"ئاماده ییا بێرسڤێ یا تێکه ل","kind":"poi","tier":"poi_detail","priority":50.1,"context":"قوتابخانە","category":"قوتابخانە"},"geometry":{"type":"Point","coordinates":[42.8570911,37.1884276]}},{"type":"Feature","id":"osm-node-5893498999-restaurant","properties":{"id":"osm-node-5893498999-restaurant","name":"ئەڤسەر کافێ","kind":"poi","tier":"poi_detail","priority":50.1,"context":"چێشتخانە","category":"چێشتخانە"},"geometry":{"type":"Point","coordinates":[42.9609372,37.1896867]}},{"type":"Feature","id":"osm-node-8986522718-school","properties":{"id":"osm-node-8986522718-school","name":"اعدادیە درکار المختلطە","kind":"poi","tier":"poi_detail","priority":50.1,"context":"قوتابخانە","category":"قوتابخانە"},"geometry":{"type":"Point","coordinates":[42.8209234,37.1960854]}},{"type":"Feature","id":"osm-node-8947473117-school","properties":{"id":"osm-node-8947473117-school","name":"اعدادیە هیزاوا المختلطە","kind":"poi","tier":"poi_detail","priority":50.1,"context":"قوتابخانە","category":"قوتابخانە"},"geometry":{"type":"Point","coordinates":[42.8074919,37.1846886]}},{"type":"Feature","id":"osm-node-10967405344-restaurant","properties":{"id":"osm-node-10967405344-restaurant","name":"خارنگهها دهشت و چیا","kind":"poi","tier":"poi_detail","priority":50.1,"context":"چێشتخانە","category":"چێشتخانە"},"geometry":{"type":"Point","coordinates":[42.9597283,37.1884636]}},{"type":"Feature","id":"osm-node-8892224025-restaurant","properties":{"id":"osm-node-8892224025-restaurant","name":"خارنگەها سنور","kind":"poi","tier":"poi_detail","priority":50.1,"context":"چێشتخانە","category":"چێشتخانە"},"geometry":{"type":"Point","coordinates":[42.9590278,37.1888782]}},{"type":"Feature","id":"osm-node-10629623907-kindergarten","properties":{"id":"osm-node-10629623907-kindergarten","name":"روضە لیفو","kind":"poi","tier":"poi_detail","priority":50.1,"context":"باخچەی ساوایان","category":"باخچەی ساوایان"},"geometry":{"type":"Point","coordinates":[42.9269159,37.1493598]}},{"type":"Feature","id":"osm-node-4472852392-school","properties":{"id":"osm-node-4472852392-school","name":"قوتابخانا هەست","kind":"poi","tier":"poi_detail","priority":50.1,"context":"قوتابخانە","category":"قوتابخانە"},"geometry":{"type":"Point","coordinates":[42.8045738,37.1842086]}},{"type":"Feature","id":"osm-node-11951983292-school","properties":{"id":"osm-node-11951983292-school","name":"مدرسە خرابابک للنازحین","kind":"poi","tier":"poi_detail","priority":50.1,"context":"قوتابخانە","category":"قوتابخانە"},"geometry":{"type":"Point","coordinates":[42.7519241,37.1467037]}},{"type":"Feature","id":"osm-node-8986522719-school","properties":{"id":"osm-node-8986522719-school","name":"مدرسە درکار الاساس","kind":"poi","tier":"poi_detail","priority":50.1,"context":"قوتابخانە","category":"قوتابخانە"},"geometry":{"type":"Point","coordinates":[42.8235446,37.2013109]}},{"type":"Feature","id":"osm-node-8986522717-school","properties":{"id":"osm-node-8986522717-school","name":"مدرسە سنور الاساس","kind":"poi","tier":"poi_detail","priority":50.1,"context":"قوتابخانە","category":"قوتابخانە"},"geometry":{"type":"Point","coordinates":[42.8192644,37.19605]}},{"type":"Feature","id":"osm-node-8947473017-school","properties":{"id":"osm-node-8947473017-school","name":"مدرسە هیزاوا الاساس","kind":"poi","tier":"poi_detail","priority":50.1,"context":"قوتابخانە","category":"قوتابخانە"},"geometry":{"type":"Point","coordinates":[42.807396,37.1846114]}},{"type":"Feature","id":"osm-node-8986559017-clinic","properties":{"id":"osm-node-8986559017-clinic","name":"مستشفی هیزاوا","kind":"poi","tier":"poi_detail","priority":50.1,"context":"کلینیک","category":"کلینیک"},"geometry":{"type":"Point","coordinates":[42.8078074,37.1837234]}},{"type":"Feature","id":"osm-node-6923974156-restaurant","properties":{"id":"osm-node-6923974156-restaurant","name":"مطعم امازون","kind":"poi","tier":"poi_detail","priority":50.1,"context":"چێشتخانە","category":"چێشتخانە"},"geometry":{"type":"Point","coordinates":[42.9601943,37.1889866]}},{"type":"Feature","id":"osm-way-1144904721-restaurant","properties":{"id":"osm-way-1144904721-restaurant","name":"Avsar Cafe & Rest","kind":"poi","tier":"poi_detail","priority":50.092,"context":"چێشتخانە","category":"چێشتخانە"},"geometry":{"type":"Point","coordinates":[42.960825,37.1896718]}},{"type":"Feature","id":"osm-way-1146694591-marketplace","properties":{"id":"osm-way-1146694591-marketplace","name":"Doman Market","kind":"poi","tier":"poi_detail","priority":50.092,"context":"بازاڕ","category":"بازاڕ"},"geometry":{"type":"Point","coordinates":[42.9199883,37.18307]}},{"type":"Feature","id":"osm-way-824782024-school","properties":{"id":"osm-way-824782024-school","name":"Primary, Secondary School","kind":"poi","tier":"poi_detail","priority":50.092,"context":"قوتابخانە","category":"قوتابخانە"},"geometry":{"type":"Point","coordinates":[42.8339677,37.1996967]}},{"type":"Feature","id":"osm-way-1145086419-restaurant","properties":{"id":"osm-way-1145086419-restaurant","name":"Robar Rest","kind":"poi","tier":"poi_detail","priority":50.092,"context":"چێشتخانە","category":"چێشتخانە"},"geometry":{"type":"Point","coordinates":[42.971883,37.182476]}},{"type":"Feature","id":"osm-way-739491518-restaurant","properties":{"id":"osm-way-739491518-restaurant","name":"amazon Rest","kind":"poi","tier":"poi_detail","priority":50.092,"context":"چێشتخانە","category":"چێشتخانە"},"geometry":{"type":"Point","coordinates":[42.9602514,37.1889552]}},{"type":"Feature","id":"osm-way-1144354670-marketplace","properties":{"id":"osm-way-1144354670-marketplace","name":"market","kind":"poi","tier":"poi_detail","priority":50.092,"context":"بازاڕ","category":"بازاڕ"},"geometry":{"type":"Point","coordinates":[42.9679757,37.208595]}},{"type":"Feature","id":"osm-way-1145077714-restaurant","properties":{"id":"osm-way-1145077714-restaurant","name":"سنور كافي مكان لتحضير الطعام","kind":"poi","tier":"poi_detail","priority":50.092,"context":"چێشتخانە","category":"چێشتخانە"},"geometry":{"type":"Point","coordinates":[42.958522,37.1886519]}},{"type":"Feature","id":"osm-way-1140795711-school","properties":{"id":"osm-way-1140795711-school","name":"متوسطە لیفو المختلطە","kind":"poi","tier":"poi_detail","priority":50.092,"context":"قوتابخانە","category":"قوتابخانە"},"geometry":{"type":"Point","coordinates":[42.9282765,37.1479674]}},{"type":"Feature","id":"osm-way-1140795713-school","properties":{"id":"osm-way-1140795713-school","name":"مدرسە لیفو الابتدائیە المختلطە","kind":"poi","tier":"poi_detail","priority":50.092,"context":"قوتابخانە","category":"قوتابخانە"},"geometry":{"type":"Point","coordinates":[42.9271358,37.1485238]}},{"type":"Feature","id":"osm-way-543881656-restaurant","properties":{"id":"osm-way-543881656-restaurant","name":"کانیا خەما","kind":"poi","tier":"poi_detail","priority":50.092,"context":"چێشتخانە","category":"چێشتخانە"},"geometry":{"type":"Point","coordinates":[42.9683085,37.2079739]}},{"type":"Feature","id":"osm-way-1141457360-building","properties":{"id":"osm-way-1141457360-building","name":"hizawa school","kind":"poi","tier":"poi_detail","priority":50.055,"context":"قوتابخانە","category":"قوتابخانە"},"geometry":{"type":"Point","coordinates":[42.8131805,37.1776268]}},{"type":"Feature","id":"osm-way-1141415945-building","properties":{"id":"osm-way-1141415945-building","name":"مدرسە اف گنی","kind":"poi","tier":"poi_detail","priority":50.055,"context":"قوتابخانە","category":"قوتابخانە"},"geometry":{"type":"Point","coordinates":[42.9186239,37.1804208]}},{"type":"Feature","id":"osm-node-6923974151-park","properties":{"id":"osm-node-6923974151-park","name":"Amazon Park","kind":"poi","tier":"poi_detail","priority":50.1,"context":"پارک","category":"پارک"},"geometry":{"type":"Point","coordinates":[42.9604879,37.1893862]}},{"type":"Feature","id":"osm-node-10657392121-fast_food","properties":{"id":"osm-node-10657392121-fast_food","name":"Robar Restaurant","kind":"poi","tier":"poi_detail","priority":50.1,"context":"خواردنی خێرا","category":"خواردنی خێرا"},"geometry":{"type":"Point","coordinates":[42.9716157,37.182444]}},{"type":"Feature","id":"osm-node-12782363001-viewpoint","properties":{"id":"osm-node-12782363001-viewpoint","name":"Tasa","kind":"poi","tier":"poi_detail","priority":50.1,"context":"شوێنی سەیران","category":"شوێنی سەیران"},"geometry":{"type":"Point","coordinates":[42.9784879,37.1809572]}},{"type":"Feature","id":"osm-node-12782416602-viewpoint","properties":{"id":"osm-node-12782416602-viewpoint","name":"Tasa","kind":"poi","tier":"poi_detail","priority":50.1,"context":"شوێنی سەیران","category":"شوێنی سەیران"},"geometry":{"type":"Point","coordinates":[42.7798102,37.1810409]}},{"type":"Feature","id":"osm-node-12782425401-viewpoint","properties":{"id":"osm-node-12782425401-viewpoint","name":"Tasa","kind":"poi","tier":"poi_detail","priority":50.1,"context":"شوێنی سەیران","category":"شوێنی سەیران"},"geometry":{"type":"Point","coordinates":[42.7863849,37.1825882]}},{"type":"Feature","id":"osm-node-12782425601-viewpoint","properties":{"id":"osm-node-12782425601-viewpoint","name":"Tasa","kind":"poi","tier":"poi_detail","priority":50.1,"context":"شوێنی سەیران","category":"شوێنی سەیران"},"geometry":{"type":"Point","coordinates":[42.781723,37.1811764]}},{"type":"Feature","id":"osm-node-4340714293-alpine_hut","properties":{"id":"osm-node-4340714293-alpine_hut","name":"cham bahifi","kind":"poi","tier":"poi_detail","priority":50.1,"context":"کەپر","category":"کەپر"},"geometry":{"type":"Point","coordinates":[42.7627113,37.1020526]}},{"type":"Feature","id":"osm-node-9956522896-cafe","properties":{"id":"osm-node-9956522896-cafe","name":"kanya xema second side cafe","kind":"poi","tier":"poi_detail","priority":50.1,"context":"کافێ","category":"کافێ"},"geometry":{"type":"Point","coordinates":[42.967825,37.2084593]}},{"type":"Feature","id":"osm-node-5689043423-courthouse","properties":{"id":"osm-node-5689043423-courthouse","name":"خه نده ك","kind":"poi","tier":"poi_detail","priority":50.1,"context":"دادگا","category":"دادگا"},"geometry":{"type":"Point","coordinates":[42.9745396,37.1836866]}},{"type":"Feature","id":"osm-node-8231221518-viewpoint","properties":{"id":"osm-node-8231221518-viewpoint","name":"دهوک شرانش","kind":"poi","tier":"poi_detail","priority":50.1,"context":"شوێنی سەیران","category":"شوێنی سەیران"},"geometry":{"type":"Point","coordinates":[42.8350157,37.2309349]}},{"type":"Feature","id":"osm-node-4880197621-artwork","properties":{"id":"osm-node-4880197621-artwork","name":"سندي ريك","kind":"poi","tier":"poi_detail","priority":50.1,"context":"هونەری گشتی","category":"هونەری گشتی"},"geometry":{"type":"Point","coordinates":[42.7911835,37.1398381]}},{"type":"Feature","id":"osm-node-6597346171-viewpoint","properties":{"id":"osm-node-6597346171-viewpoint","name":"شلال شرانش","kind":"poi","tier":"poi_detail","priority":50.1,"context":"شوێنی سەیران","category":"شوێنی سەیران"},"geometry":{"type":"Point","coordinates":[42.8462696,37.2323464]}},{"type":"Feature","id":"osm-node-9002134919-viewpoint","properties":{"id":"osm-node-9002134919-viewpoint","name":"طریق المصایف","kind":"poi","tier":"poi_detail","priority":50.1,"context":"شوێنی سەیران","category":"شوێنی سەیران"},"geometry":{"type":"Point","coordinates":[42.7868333,37.1826422]}},{"type":"Feature","id":"osm-node-5513844923-hostel","properties":{"id":"osm-node-5513844923-hostel","name":"مجمع هیزاوا","kind":"poi","tier":"poi_detail","priority":50.1,"context":"هۆستێل","category":"هۆستێل"},"geometry":{"type":"Point","coordinates":[42.8087778,37.1836589]}},{"type":"Feature","id":"osm-node-5030763321-car_wash","properties":{"id":"osm-node-5030763321-car_wash","name":"محل بايير","kind":"poi","tier":"poi_detail","priority":50.1,"context":"شۆردنەوەی ئۆتۆمبیل","category":"شۆردنەوەی ئۆتۆمبیل"},"geometry":{"type":"Point","coordinates":[42.7836125,37.1815786]}},{"type":"Feature","id":"osm-node-11421083869-viewpoint","properties":{"id":"osm-node-11421083869-viewpoint","name":"مصیف شرانش","kind":"poi","tier":"poi_detail","priority":50.1,"context":"شوێنی سەیران","category":"شوێنی سەیران"},"geometry":{"type":"Point","coordinates":[42.8464721,37.2322306]}},{"type":"Feature","id":"osm-node-10658238805-viewpoint","properties":{"id":"osm-node-10658238805-viewpoint","name":"مصیف شلال زاخو","kind":"poi","tier":"poi_detail","priority":50.1,"context":"شوێنی سەیران","category":"شوێنی سەیران"},"geometry":{"type":"Point","coordinates":[42.8463306,37.2317307]}},{"type":"Feature","id":"osm-node-8986533517-monument","properties":{"id":"osm-node-8986533517-monument","name":"مقبرە درکار","kind":"poi","tier":"poi_detail","priority":50.1,"context":"پەیکەر","category":"پەیکەر"},"geometry":{"type":"Point","coordinates":[42.8268003,37.2070336]}},{"type":"Feature","id":"osm-node-5257586062-drinking_water","properties":{"id":"osm-node-5257586062-drinking_water","name":"کانیک","kind":"poi","tier":"poi_detail","priority":50.1,"context":"ئاوی خواردنەوە","category":"ئاوی خواردنەوە"},"geometry":{"type":"Point","coordinates":[42.9680839,37.208121]}},{"type":"Feature","id":"osm-node-6835592599-viewpoint","properties":{"id":"osm-node-6835592599-viewpoint","name":"کهف بهیر زاخو","kind":"poi","tier":"poi_detail","priority":50.1,"context":"شوێنی سەیران","category":"شوێنی سەیران"},"geometry":{"type":"Point","coordinates":[42.8241127,37.2404392]}},{"type":"Feature","id":"osm-node-8986533617-monument","properties":{"id":"osm-node-8986533617-monument","name":"گورستانا دەرکارێ","kind":"poi","tier":"poi_detail","priority":50.1,"context":"پەیکەر","category":"پەیکەر"},"geometry":{"type":"Point","coordinates":[42.8271739,37.2075068]}},{"type":"Feature","id":"osm-node-5257584049-muslim_sunni","properties":{"id":"osm-node-5257584049-muslim_sunni","name":"mizgefta sirkutk","kind":"poi","tier":"poi_detail","priority":50.098,"context":"مزگەوت","category":"مزگەوت"},"geometry":{"type":"Point","coordinates":[42.9790399,37.1792688]}},{"type":"Feature","id":"osm-node-8986506018-muslim","properties":{"id":"osm-node-8986506018-muslim","name":"مزگەفتا حجی احمد","kind":"poi","tier":"poi_detail","priority":50.098,"context":"مزگەوت","category":"مزگەوت"},"geometry":{"type":"Point","coordinates":[42.8115632,37.1867267]}},{"type":"Feature","id":"osm-node-12002752325-muslim","properties":{"id":"osm-node-12002752325-muslim","name":"مسجد ارمشت","kind":"poi","tier":"poi_detail","priority":50.098,"context":"مزگەوت","category":"مزگەوت"},"geometry":{"type":"Point","coordinates":[42.803058,37.0476574]}},{"type":"Feature","id":"osm-node-10623661813-christian","properties":{"id":"osm-node-10623661813-christian","name":"کنیسە مار اوراها الکلدانیە","kind":"poi","tier":"poi_detail","priority":50.098,"context":"کەلیسای مەسیحی","category":"کەلیسای مەسیحی"},"geometry":{"type":"Point","coordinates":[42.9264456,37.1492999]}},{"type":"Feature","id":"osm-node-5275958042-dam","properties":{"id":"osm-node-5275958042-dam","name":"سیلاف","kind":"poi","tier":"poi_detail","priority":50.094,"context":"بەنداوی ئاو","category":"بەنداوی ئاو"},"geometry":{"type":"Point","coordinates":[42.8466385,37.2320922]}},{"type":"Feature","id":"osm-node-4596261968-waterfall","properties":{"id":"osm-node-4596261968-waterfall","name":"شلال شرانش زاخو","kind":"poi","tier":"poi_detail","priority":50.094,"context":"ئاوشار","category":"ئاوشار"},"geometry":{"type":"Point","coordinates":[42.8460087,37.2332904]}},{"type":"Feature","id":"osm-node-8990014618-waterfall","properties":{"id":"osm-node-8990014618-waterfall","name":"شلال شرنش","kind":"poi","tier":"poi_detail","priority":50.094,"context":"ئاوشار","category":"ئاوشار"},"geometry":{"type":"Point","coordinates":[42.846035,37.2334034]}},{"type":"Feature","id":"osm-node-8991965517-waterfall","properties":{"id":"osm-node-8991965517-waterfall","name":"شلال شرنش زاخو","kind":"poi","tier":"poi_detail","priority":50.094,"context":"ئاوشار","category":"ئاوشار"},"geometry":{"type":"Point","coordinates":[42.8460529,37.233465]}},{"type":"Feature","id":"osm-node-11250673737-waterfall","properties":{"id":"osm-node-11250673737-waterfall","name":"مصیف شرانش فی زاخو","kind":"poi","tier":"poi_detail","priority":50.094,"context":"ئاوشار","category":"ئاوشار"},"geometry":{"type":"Point","coordinates":[42.8462531,37.2315995]}},{"type":"Feature","id":"osm-node-11278067793-speed_camera","properties":{"id":"osm-node-11278067793-speed_camera","name":"کامیرا السرعە 80","kind":"poi","tier":"poi_detail","priority":50.094,"context":"کامێرای خێرایی","category":"کامێرای خێرایی"},"geometry":{"type":"Point","coordinates":[42.8936942,37.1817186]}},{"type":"Feature","id":"osm-node-11348487233-speed_camera","properties":{"id":"osm-node-11348487233-speed_camera","name":"کامیرا السرعە 80","kind":"poi","tier":"poi_detail","priority":50.094,"context":"کامێرای خێرایی","category":"کامێرای خێرایی"},"geometry":{"type":"Point","coordinates":[42.8831857,37.1807859]}},{"type":"Feature","id":"osm-node-4711987791-waterfall","properties":{"id":"osm-node-4711987791-waterfall","name":"کەمب","kind":"poi","tier":"poi_detail","priority":50.094,"context":"ئاوشار","category":"ئاوشار"},"geometry":{"type":"Point","coordinates":[42.8138613,37.1377059]}},{"type":"Feature","id":"osm-way-1536342535-fitness_centre","properties":{"id":"osm-way-1536342535-fitness_centre","name":"Sham sport hall","kind":"poi","tier":"poi_detail","priority":50.092,"context":"جیم","category":"جیم"},"geometry":{"type":"Point","coordinates":[42.7505589,37.1471714]}},{"type":"Feature","id":"osm-way-1144367228-theatre","properties":{"id":"osm-way-1144367228-theatre","name":"stage - Theater","kind":"poi","tier":"poi_detail","priority":50.092,"context":"شانۆ","category":"شانۆ"},"geometry":{"type":"Point","coordinates":[42.9606722,37.1894226]}},{"type":"Feature","id":"osm-way-543774664-park","properties":{"id":"osm-way-543774664-park","name":"قبر زمبیل فروش","kind":"poi","tier":"poi_detail","priority":50.092,"context":"پارک","category":"پارک"},"geometry":{"type":"Point","coordinates":[42.9829364,37.1782966]}},{"type":"Feature","id":"osm-way-1380933431-theatre","properties":{"id":"osm-way-1380933431-theatre","name":"مسرح","kind":"poi","tier":"poi_detail","priority":50.092,"context":"شانۆ","category":"شانۆ"},"geometry":{"type":"Point","coordinates":[42.9964944,37.1987542]}},{"type":"Feature","id":"osm-way-597782613-pitch","properties":{"id":"osm-way-597782613-pitch","name":"ملعب بیرسفی صغری","kind":"poi","tier":"poi_detail","priority":50.092,"context":"ناوەندی وەرزش","category":"ناوەندی وەرزش"},"geometry":{"type":"Point","coordinates":[42.8561282,37.1849118]}},{"type":"Feature","id":"osm-way-1140120836-pitch","properties":{"id":"osm-way-1140120836-pitch","name":"ملعب ریاضی مصغر","kind":"poi","tier":"poi_detail","priority":50.092,"context":"ناوەندی وەرزش","category":"ناوەندی وەرزش"},"geometry":{"type":"Point","coordinates":[42.9305357,37.1496271]}},{"type":"Feature","id":"osm-way-1300525461-fountain","properties":{"id":"osm-way-1300525461-fountain","name":"ينبوع طبيعي","kind":"poi","tier":"poi_detail","priority":50.092,"context":"نافورە","category":"نافورە"},"geometry":{"type":"Point","coordinates":[42.9470932,37.2263947]}},{"type":"Feature","id":"osm-way-548558266-picnic_site","properties":{"id":"osm-way-548558266-picnic_site","name":"پارکا هەوار زاخولی","kind":"poi","tier":"poi_detail","priority":50.092,"context":"شوێنی پیکنیک","category":"شوێنی پیکنیک"},"geometry":{"type":"Point","coordinates":[42.8020679,37.1497113]}},{"type":"Feature","id":"osm-way-883868747-muslim","properties":{"id":"osm-way-883868747-muslim","name":"Karpt Masjid","kind":"poi","tier":"poi_detail","priority":50.09,"context":"مزگەوت","category":"مزگەوت"},"geometry":{"type":"Point","coordinates":[42.9605054,37.1190721]}},{"type":"Feature","id":"osm-way-1145077718-parking","properties":{"id":"osm-way-1145077718-parking","name":"موقف السیارات","kind":"poi","tier":"poi_detail","priority":50.086,"context":"پارکینگ","category":"پارکینگ"},"geometry":{"type":"Point","coordinates":[42.958209,37.1887269]}},{"type":"Feature","id":"osm-way-1144904726-parking","properties":{"id":"osm-way-1144904726-parking","name":"وقوف السیارات","kind":"poi","tier":"poi_detail","priority":50.086,"context":"پارکینگ","category":"پارکینگ"},"geometry":{"type":"Point","coordinates":[42.961639,37.1896693]}}]}