{"type":"FeatureCollection","features":[{"type":"Feature","id":"osm-node-12832950652","properties":{"id":"osm-node-12832950652","name":"بوجواری","kind":"village","tier":"locality","priority":300,"context":"حەمدانییە · نەینەوا","category":"گوند"},"geometry":{"type":"Point","coordinates":[43.2062391,36.219061]}},{"type":"Feature","id":"osm-node-12833001655","properties":{"id":"osm-node-12833001655","name":"قەبر عەبد","kind":"village","tier":"locality","priority":300,"context":"حەمدانییە · نەینەوا","category":"گوند"},"geometry":{"type":"Point","coordinates":[43.2321462,36.1818253]}},{"type":"Feature","id":"osm-node-12839337779","properties":{"id":"osm-node-12839337779","name":"قەسڕ","kind":"village","tier":"locality","priority":300,"context":"حەمدانییە · نەینەوا","category":"گوند"},"geometry":{"type":"Point","coordinates":[43.2254683,36.2257117]}},{"type":"Feature","id":"osm-node-12832908995","properties":{"id":"osm-node-12832908995","name":"لەزاگە","kind":"village","tier":"locality","priority":300,"context":"حەمدانییە · نەینەوا","category":"گوند"},"geometry":{"type":"Point","coordinates":[43.2113183,36.2125092]}},{"type":"Feature","id":"osm-node-12832993089","properties":{"id":"osm-node-12832993089","name":"کەڕامە","kind":"village","tier":"locality","priority":300,"context":"حەمدانییە · نەینەوا","category":"گوند"},"geometry":{"type":"Point","coordinates":[43.2085178,36.2036968]}},{"type":"Feature","id":"osm-node-10924114206-attraction","properties":{"id":"osm-node-10924114206-attraction","name":"بوابە ناحیە حمام العلیل الشمالیە","kind":"poi","tier":"poi_detail","priority":50.1,"context":"شوێنی گەشتیاری","category":"شوێنی گەشتیاری"},"geometry":{"type":"Point","coordinates":[43.2091767,36.1985762]}},{"type":"Feature","id":"osm-node-8347004217-fuel","properties":{"id":"osm-node-8347004217-fuel","name":"مستودع نفط نینوی","kind":"poi","tier":"poi_regional","priority":82.094,"context":"وێستگەی سووتەمەنی","category":"وێستگەی سووتەمەنی"},"geometry":{"type":"Point","coordinates":[43.2178338,36.1861141]}},{"type":"Feature","id":"osm-way-307467349-residential","properties":{"id":"osm-way-307467349-residential","name":"Qaryat al Hamasah","kind":"poi","tier":"poi_local","priority":68.045,"context":"کۆمپاوندی نیشتەجێبوون","category":"کۆمپاوندی نیشتەجێبوون"},"geometry":{"type":"Point","coordinates":[43.1905507,36.2298469]}},{"type":"Feature","id":"osm-way-299055124-residential","properties":{"id":"osm-way-299055124-residential","name":"القصر","kind":"poi","tier":"poi_local","priority":68.045,"context":"کۆمپاوندی نیشتەجێبوون","category":"کۆمپاوندی نیشتەجێبوون"},"geometry":{"type":"Point","coordinates":[43.2269224,36.2279515]}},{"type":"Feature","id":"osm-way-307514053-residential","properties":{"id":"osm-way-307514053-residential","name":"بجواری","kind":"poi","tier":"poi_local","priority":68.045,"context":"کۆمپاوندی نیشتەجێبوون","category":"کۆمپاوندی نیشتەجێبوون"},"geometry":{"type":"Point","coordinates":[43.206256,36.2188282]}},{"type":"Feature","id":"osm-way-307614476-residential","properties":{"id":"osm-way-307614476-residential","name":"قبر العبد","kind":"poi","tier":"poi_local","priority":68.045,"context":"کۆمپاوندی نیشتەجێبوون","category":"کۆمپاوندی نیشتەجێبوون"},"geometry":{"type":"Point","coordinates":[43.2327117,36.181751]}},{"type":"Feature","id":"osm-way-307514051-residential","properties":{"id":"osm-way-307514051-residential","name":"لزاکە","kind":"poi","tier":"poi_local","priority":68.045,"context":"کۆمپاوندی نیشتەجێبوون","category":"کۆمپاوندی نیشتەجێبوون"},"geometry":{"type":"Point","coordinates":[43.2112189,36.2129573]}},{"type":"Feature","id":"osm-way-307467270-industrial","properties":{"id":"osm-way-307467270-industrial","name":"Oil storage","kind":"poi","tier":"poi_local","priority":66.045,"context":"ناوچەی پیشەسازی","category":"ناوچەی پیشەسازی"},"geometry":{"type":"Point","coordinates":[43.2197173,36.184156]}},{"type":"Feature","id":"osm-way-307467271-industrial","properties":{"id":"osm-way-307467271-industrial","name":"معمل اسمنت الحدباء","kind":"poi","tier":"poi_local","priority":66.045,"context":"ناوچەی پیشەسازی","category":"ناوچەی پیشەسازی"},"geometry":{"type":"Point","coordinates":[43.2137551,36.2035154]}},{"type":"Feature","id":"osm-way-1228889653-industrial","properties":{"id":"osm-way-1228889653-industrial","name":"معمل سمنت حمام العلیل","kind":"poi","tier":"poi_local","priority":66.045,"context":"ناوچەی پیشەسازی","category":"ناوچەی پیشەسازی"},"geometry":{"type":"Point","coordinates":[43.2130528,36.1991936]}},{"type":"Feature","id":"osm-node-5594883622-school","properties":{"id":"osm-node-5594883622-school","name":"ابتدائیە اسلم للبنات","kind":"poi","tier":"poi_detail","priority":50.1,"context":"قوتابخانە","category":"قوتابخانە"},"geometry":{"type":"Point","coordinates":[43.208189,36.1986054]}},{"type":"Feature","id":"osm-node-5594887221-school","properties":{"id":"osm-node-5594887221-school","name":"مدرسە العریج الثانیە","kind":"poi","tier":"poi_detail","priority":50.1,"context":"قوتابخانە","category":"قوتابخانە"},"geometry":{"type":"Point","coordinates":[43.2082751,36.1985527]}},{"type":"Feature","id":"osm-node-4553817590-viewpoint","properties":{"id":"osm-node-4553817590-viewpoint","name":"طریق حمام العلیل","kind":"poi","tier":"poi_detail","priority":50.1,"context":"شوێنی سەیران","category":"شوێنی سەیران"},"geometry":{"type":"Point","coordinates":[43.2093528,36.198475]}},{"type":"Feature","id":"osm-node-5249571123-tourist_info","properties":{"id":"osm-node-5249571123-tourist_info","name":"معمل سمنت حمام العلیل الجدید","kind":"poi","tier":"poi_detail","priority":50.1,"context":"زانیاری گەشتیاری","category":"زانیاری گەشتیاری"},"geometry":{"type":"Point","coordinates":[43.2103215,36.199]}}]}